header: 
  seq: 0
  stamp: 
    secs: 3
    nsecs: 543000000
  frame_id: "map"
x: [-10.06950569152832, -10.00898551940918, -6.949316501617432, -6.898904800415039]
y: [8.41720962524414, 12.948010444641113, 8.433911323547363, 13.02901554107666]
colour: [BIG, BIG, YELLOW, BLUE]
frame_id: ''
---
header: 
  seq: 1
  stamp: 
    secs: 3
    nsecs: 753000000
  frame_id: "map"
x: [-10.059328079223633, -9.995691299438477, -6.948761940002441, -6.8981709480285645]
y: [8.416982650756836, 12.948299407958984, 8.433859825134277, 13.029193878173828]
colour: [BIG, BIG, YELLOW, BLUE]
frame_id: ''
---
header: 
  seq: 2
  stamp: 
    secs: 3
    nsecs: 970000000
  frame_id: "map"
x: [-10.049324989318848, -9.982833862304688, -6.94710636138916, -6.8964948654174805]
y: [8.416947364807129, 12.948729515075684, 8.434083938598633, 13.029501914978027]
colour: [BIG, BIG, YELLOW, BLUE]
frame_id: ''
---
header: 
  seq: 3
  stamp: 
    secs: 4
    nsecs: 173000000
  frame_id: "map"
x: [-10.03466510772705, -9.96456527709961, -6.9384379386901855, -6.8879618644714355]
y: [8.417667388916016, 12.950908660888672, 8.436812400817871, 13.03293514251709]
colour: [BIG, BIG, YELLOW, BLUE]
frame_id: ''
---
header: 
  seq: 4
  stamp: 
    secs: 4
    nsecs: 380000000
  frame_id: "map"
x: [-10.013466835021973, -9.939453125, -6.92110538482666, -6.871889591217041]
y: [8.419740676879883, 12.95556354522705, 8.443068504333496, 13.040407180786133]
colour: [BIG, BIG, YELLOW, BLUE]
frame_id: ''
---
header: 
  seq: 5
  stamp: 
    secs: 4
    nsecs: 579000000
  frame_id: "map"
x: [-9.987981796264648, -9.910714149475098, -6.898275375366211, -6.8507585525512695]
y: [8.422980308532715, 12.961965560913086, 8.451658248901367, 13.05090045928955]
colour: [BIG, BIG, YELLOW, BLUE]
frame_id: ''
---
header: 
  seq: 6
  stamp: 
    secs: 4
    nsecs: 812000000
  frame_id: "map"
x: [-9.958930969238281, -9.878106117248535, -6.87025260925293, -6.824872970581055]
y: [8.426730155944824, 12.969121932983398, 8.461654663085938, 13.062849044799805]
colour: [BIG, BIG, YELLOW, BLUE]
frame_id: ''
---
header: 
  seq: 7
  stamp: 
    secs: 5
    nsecs:  53000000
  frame_id: "map"
x: [-9.929909706115723, -9.846780776977539, -6.843801498413086, -6.79984712600708, -3.199751377105713]
y: [8.429757118225098, 12.974639892578125, 8.469408988952637, 13.072128295898438, 8.90137004852295]
colour: [BIG, BIG, YELLOW, BLUE, YELLOW]
frame_id: ''
---
header: 
  seq: 8
  stamp: 
    secs: 5
    nsecs: 267000000
  frame_id: "map"
x: [-9.9048490524292, -9.81789779663086, -6.819656848907471, -6.776397228240967, -3.197822332382202, -3.3830313682556152]
y: [8.432304382324219, 12.978787422180176, 8.475638389587402, 13.079322814941406, 8.900238037109375, 13.676737785339355]
colour: [BIG, BIG, YELLOW, BLUE, YELLOW, BLUE]
frame_id: ''
---
header: 
  seq: 9
  stamp: 
    secs: 5
    nsecs: 484000000
  frame_id: "map"
x: [-9.881653785705566, -9.79036808013916, -6.7967848777771, -6.7537431716918945, -3.1955082416534424, -3.3787553310394287]
y: [8.434545516967773, 12.982000350952148, 8.480501174926758, 13.084891319274902, 8.897214889526367, 13.675087928771973]
colour: [BIG, BIG, YELLOW, BLUE, YELLOW, BLUE]
frame_id: ''
---
header: 
  seq: 10
  stamp: 
    secs: 5
    nsecs: 697000000
  frame_id: "map"
x: [-9.85216236114502, -9.767844200134277, -6.771184921264648, -6.733799457550049, -3.1921613216400146, -3.3754289150238037]
y: [8.436386108398438, 12.98349666595459, 8.484207153320312, 13.0879545211792, 8.891594886779785, 13.675402641296387]
colour: [BIG, BIG, YELLOW, BLUE, YELLOW, BLUE]
frame_id: ''
---
header: 
  seq: 11
  stamp: 
    secs: 5
    nsecs: 900000000
  frame_id: "map"
x: [-9.830808639526367, -9.75121021270752, -6.754966735839844, -6.716195106506348, -3.196575403213501, -3.379000663757324]
y: [8.437165260314941, 12.98505973815918, 8.486225128173828, 13.089675903320312, 8.88315200805664, 13.666175842285156]
colour: [BIG, BIG, YELLOW, BLUE, YELLOW, BLUE]
frame_id: ''
---
header: 
  seq: 12
  stamp: 
    secs: 6
    nsecs: 136000000
  frame_id: "map"
x: [-9.827973365783691, -9.735841751098633, -6.7409162521362305, -6.699928283691406, -3.1996657848358154, -3.378014087677002]
y: [8.436949729919434, 12.985227584838867, 8.487655639648438, 13.090765953063965, 8.874403953552246, 13.656461715698242]
colour: [BIG, BIG, YELLOW, BLUE, YELLOW, BLUE]
frame_id: ''
---
header: 
  seq: 13
  stamp: 
    secs: 6
    nsecs: 308000000
  frame_id: "map"
x: [-9.82652759552002, -9.722987174987793, -6.731156826019287, -6.688263416290283, -3.2099430561065674, -3.3817520141601562]
y: [8.436773300170898, 12.985368728637695, 8.488431930541992, 13.090829849243164, 8.862548828125, 13.646784782409668]
colour: [BIG, BIG, YELLOW, BLUE, YELLOW, BLUE]
frame_id: ''
---
header: 
  seq: 14
  stamp: 
    secs: 6
    nsecs: 540000000
  frame_id: "map"
x: [-9.825925827026367, -9.72214412689209, -6.7225751876831055, -6.6771697998046875, -3.2187564373016357, -3.3838119506835938]
y: [8.43653678894043, 12.98481559753418, 8.48906135559082, 13.090656280517578, 8.850547790527344, 13.637250900268555]
colour: [BIG, BIG, YELLOW, BLUE, YELLOW, BLUE]
frame_id: ''
---
header: 
  seq: 15
  stamp: 
    secs: 6
    nsecs: 777000000
  frame_id: "map"
x: [-9.825470924377441, -9.72170639038086, -6.713446140289307, -6.669285774230957, -3.2279815673828125, -3.389277935028076]
y: [8.43629264831543, 12.984490394592285, 8.489084243774414, 13.090353965759277, 8.840254783630371, 13.624907493591309]
colour: [BIG, BIG, YELLOW, BLUE, YELLOW, BLUE]
frame_id: ''
---
header: 
  seq: 16
  stamp: 
    secs: 6
    nsecs: 989000000
  frame_id: "map"
x: [-9.824926376342773, -9.721158027648926, -6.705941200256348, -6.658729553222656, -3.234947681427002, -3.3918323516845703]
y: [8.43604850769043, 12.984166145324707, 8.489397048950195, 13.089723587036133, 8.829994201660156, 13.612661361694336]
colour: [BIG, BIG, YELLOW, BLUE, YELLOW, BLUE]
frame_id: ''
---
header: 
  seq: 17
  stamp: 
    secs: 7
    nsecs: 220000000
  frame_id: "map"
x: [-9.824292182922363, -9.720499992370605, -6.6980719566345215, -6.647453784942627, -3.2397983074188232, -3.391589641571045]
y: [8.435790061950684, 12.98382568359375, 8.48957347869873, 13.088741302490234, 8.81986141204834, 13.600507736206055]
colour: [BIG, BIG, YELLOW, BLUE, YELLOW, BLUE]
frame_id: ''
---
header: 
  seq: 18
  stamp: 
    secs: 7
    nsecs: 422000000
  frame_id: "map"
x: [-9.823552131652832, -9.719718933105469, -6.689586639404297, -6.635284423828125, -3.2425928115844727, -3.3886876106262207]
y: [8.435523986816406, 12.983477592468262, 8.489640235900879, 13.087610244750977, 8.809795379638672, 13.58847427368164]
colour: [BIG, BIG, YELLOW, BLUE, YELLOW, BLUE]
frame_id: ''
---
header: 
  seq: 19
  stamp: 
    secs: 7
    nsecs: 637000000
  frame_id: "map"
x: [-9.822824478149414, -9.718949317932129, -6.6813154220581055, -6.623363494873047, -3.24507999420166, -3.3855831623077393]
y: [8.43526554107666, 12.983141899108887, 8.489706039428711, 13.08647632598877, 8.800164222717285, 13.576905250549316]
colour: [BIG, BIG, YELLOW, BLUE, YELLOW, BLUE]
frame_id: ''
---
header: 
  seq: 20
  stamp: 
    secs: 7
    nsecs: 865000000
  frame_id: "map"
x: [-9.822299003601074, -9.718411445617676, -6.672708034515381, -6.615607738494873, -3.2500669956207275, -3.3862643241882324]
y: [8.43503189086914, 12.982836723327637, 8.489527702331543, 13.085687637329102, 8.791254997253418, 13.566609382629395]
colour: [BIG, BIG, YELLOW, BLUE, YELLOW, BLUE]
frame_id: ''
---
header: 
  seq: 21
  stamp: 
    secs: 8
    nsecs: 100000000
  frame_id: "map"
x: [-9.821747779846191, -9.717839241027832, -6.663905620574951, -6.60793399810791, -3.2538743019104004, -3.3859899044036865]
y: [8.434826850891113, 12.982568740844727, 8.489510536193848, 13.0850191116333, 8.783256530761719, 13.557271003723145]
colour: [BIG, BIG, YELLOW, BLUE, YELLOW, BLUE]
frame_id: ''
---
header: 
  seq: 22
  stamp: 
    secs: 8
    nsecs: 381000000
  frame_id: "map"
x: [-9.820944786071777, -9.716974258422852, -6.652499198913574, -6.598666191101074, -3.2532832622528076, -3.3807437419891357]
y: [8.434649467468262, 12.982336044311523, 8.489598274230957, 13.084484100341797, 8.77608585357666, 13.54896354675293]
colour: [BIG, BIG, YELLOW, BLUE, YELLOW, BLUE]
frame_id: ''
---
header: 
  seq: 23
  stamp: 
    secs: 8
    nsecs: 631000000
  frame_id: "map"
x: [-9.820941925048828, -9.716978073120117, -6.652007579803467, -6.598174571990967, -3.2557151317596436, -3.3807485103607178, 0.5276755690574646]
y: [8.434481620788574, 12.982123374938965, 8.489004135131836, 13.083889961242676, 8.770580291748047, 13.542481422424316, 13.22341251373291]
colour: [BIG, BIG, YELLOW, BLUE, YELLOW, BLUE, BLUE]
frame_id: ''
---
header: 
  seq: 24
  stamp: 
    secs: 8
    nsecs: 856000000
  frame_id: "map"
x: [-9.82099437713623, -9.71704387664795, -6.652106761932373, -6.598273754119873, -3.2584996223449707, -3.381643772125244, 0.5277692675590515, 0.5816611051559448]
y: [8.434356689453125, 12.981961250305176, 8.488739013671875, 13.083624839782715, 8.765828132629395, 13.537027359008789, 13.225178718566895, 8.363909721374512]
colour: [BIG, BIG, YELLOW, BLUE, YELLOW, BLUE, BLUE, YELLOW]
frame_id: ''
---
header: 
  seq: 25
  stamp: 
    secs: 9
    nsecs:  82000000
  frame_id: "map"
x: [-9.821069717407227, -9.717141151428223, -6.652260780334473, -6.598427772521973, -3.261819362640381, -3.3841769695281982, 0.5237753987312317, 0.5790960192680359]
y: [8.434247016906738, 12.981820106506348, 8.488508224487305, 13.083394050598145, 8.761680603027344, 13.532325744628906, 13.22923755645752, 8.365367889404297]
colour: [BIG, BIG, YELLOW, BLUE, YELLOW, BLUE, BLUE, YELLOW]
frame_id: ''
---
header: 
  seq: 26
  stamp: 
    secs: 9
    nsecs: 292000000
  frame_id: "map"
x: [-9.821148872375488, -9.717242240905762, -6.652422904968262, -6.598589897155762, -3.2651007175445557, -3.387097120285034, 0.5189470648765564, 0.5765013098716736]
y: [8.434151649475098, 12.981698036193848, 8.48830795288086, 13.0831937789917, 8.757996559143066, 13.528328895568848, 13.234506607055664, 8.36823558807373]
colour: [BIG, BIG, YELLOW, BLUE, YELLOW, BLUE, BLUE, YELLOW]
frame_id: ''
---
header: 
  seq: 27
  stamp: 
    secs: 9
    nsecs: 563000000
  frame_id: "map"
x: [-9.821178436279297, -9.717280387878418, -6.652482509613037, -6.598649501800537, -3.2663886547088623, -3.3880741596221924, 0.5197818279266357, 0.5795310735702515]
y: [8.434073448181152, 12.981597900390625, 8.488144874572754, 13.083030700683594, 8.754951477050781, 13.525078773498535, 13.242161750793457, 8.373285293579102]
colour: [BIG, BIG, YELLOW, BLUE, YELLOW, BLUE, BLUE, YELLOW]
frame_id: ''
---
header: 
  seq: 28
  stamp: 
    secs: 9
    nsecs: 825000000
  frame_id: "map"
x: [-9.821246147155762, -9.717369079589844, -6.652629852294922, -6.598796844482422, -3.268829584121704, -3.3913285732269287, 0.514853835105896, 0.578082799911499]
y: [8.434006690979004, 12.981512069702148, 8.488005638122559, 13.082891464233398, 8.752346992492676, 13.522367477416992, 13.250479698181152, 8.379016876220703]
colour: [BIG, BIG, YELLOW, BLUE, YELLOW, BLUE, BLUE, YELLOW]
frame_id: ''
---
header: 
  seq: 29
  stamp: 
    secs: 10
    nsecs:  75000000
  frame_id: "map"
x: [-9.821361541748047, -9.717516899108887, -6.652867317199707, -6.599034309387207, -3.2738451957702637, -3.3953380584716797, 0.505615770816803, 0.5730119347572327]
y: [8.43394660949707, 12.981435775756836, 8.487883567810059, 13.082769393920898, 8.749692916870117, 13.520401954650879, 13.25895881652832, 8.384885787963867]
colour: [BIG, BIG, YELLOW, BLUE, YELLOW, BLUE, BLUE, YELLOW]
frame_id: ''
---
header: 
  seq: 30
  stamp: 
    secs: 10
    nsecs: 308000000
  frame_id: "map"
x: [-9.821515083312988, -9.71771240234375, -6.653178691864014, -6.599345684051514, -3.2805275917053223, -3.400480270385742, 0.4946044981479645, 0.5621497631072998]
y: [8.433890342712402, 12.981363296508789, 8.48776912689209, 13.08265495300293, 8.747223854064941, 13.518495559692383, 13.265107154846191, 8.391321182250977]
colour: [BIG, BIG, YELLOW, BLUE, YELLOW, BLUE, BLUE, YELLOW]
frame_id: ''
---
header: 
  seq: 31
  stamp: 
    secs: 10
    nsecs: 535000000
  frame_id: "map"
x: [-9.821599960327148, -9.717820167541504, -6.653351306915283, -6.599518299102783, -3.283881187438965, -3.403761386871338, 0.4894050657749176, 0.5592038631439209]
y: [8.43384075164795, 12.981302261352539, 8.4876708984375, 13.08255672454834, 8.745115280151367, 13.516879081726074, 13.271771430969238, 8.398534774780273]
colour: [BIG, BIG, YELLOW, BLUE, YELLOW, BLUE, BLUE, YELLOW]
frame_id: ''
---
header: 
  seq: 32
  stamp: 
    secs: 10
    nsecs: 812000000
  frame_id: "map"
x: [-9.821634292602539, -9.717866897583008, -6.6534342765808105, -6.5996012687683105, -3.2844395637512207, -3.406507730484009, 0.4859577417373657, 0.5570470094680786]
y: [8.43382740020752, 12.981282234191895, 8.487631797790527, 13.082517623901367, 8.745322227478027, 13.515073776245117, 13.27734375, 8.404479026794434]
colour: [BIG, BIG, YELLOW, BLUE, YELLOW, BLUE, BLUE, YELLOW]
frame_id: ''
---
header: 
  seq: 33
  stamp: 
    secs: 11
    nsecs:  31000000
  frame_id: "map"
x: [-9.821637153625488, -9.71787166595459, -6.6534423828125, -6.599609375, -3.2845065593719482, -3.406768560409546, 0.48367711901664734, 0.555366039276123]
y: [8.433833122253418, 12.98128890991211, 8.487642288208008, 13.082528114318848, 8.745466232299805, 13.515366554260254, 13.281786918640137, 8.409372329711914]
colour: [BIG, BIG, YELLOW, BLUE, YELLOW, BLUE, BLUE, YELLOW]
frame_id: ''
---
header: 
  seq: 34
  stamp: 
    secs: 11
    nsecs: 235000000
  frame_id: "map"
x: [-9.821640968322754, -9.717875480651855, -6.6534504890441895, -6.5996174812316895, -3.284651756286621, -3.4069347381591797, 0.4796322286128998, 0.5495200753211975]
y: [8.43383502960205, 12.981290817260742, 8.487646102905273, 13.082531929016113, 8.745542526245117, 13.51545238494873, 13.284327507019043, 8.411942481994629]
colour: [BIG, BIG, YELLOW, BLUE, YELLOW, BLUE, BLUE, YELLOW]
frame_id: ''
---
header: 
  seq: 35
  stamp: 
    secs: 11
    nsecs: 484000000
  frame_id: "map"
x: [-9.821640014648438, -9.717874526977539, -6.653449535369873, -6.599616527557373, -3.284639835357666, -3.40692138671875, 0.48082834482192993, 0.5490219593048096, 4.168582916259766]
y: [8.43383502960205, 12.981290817260742, 8.48764705657959, 13.08253288269043, 8.745565414428711, 13.515478134155273, 13.285237312316895, 8.412554740905762, 13.69163703918457]
colour: [BIG, BIG, YELLOW, BLUE, YELLOW, BLUE, BLUE, YELLOW, BLUE]
frame_id: ''
---
header: 
  seq: 36
  stamp: 
    secs: 11
    nsecs: 715000000
  frame_id: "map"
x: [-9.821640968322754, -9.717875480651855, -6.653451442718506, -6.599618434906006, -3.2846779823303223, -3.4069650173187256, 0.48122096061706543, 0.5458305478096008, 4.165366172790527]
y: [8.43383502960205, 12.98128890991211, 8.487646102905273, 13.082531929016113, 8.74554443359375, 13.51545524597168, 13.284652709960938, 8.41174602508545, 13.686957359313965]
colour: [BIG, BIG, YELLOW, BLUE, YELLOW, BLUE, BLUE, YELLOW, BLUE]
frame_id: ''
---
header: 
  seq: 37
  stamp: 
    secs: 11
    nsecs: 950000000
  frame_id: "map"
x: [-9.821640968322754, -9.717875480651855, -6.653450965881348, -6.599617958068848, -3.284680128097534, -3.4069676399230957, 0.48319679498672485, 0.5434421300888062, 4.166332244873047]
y: [8.433834075927734, 12.981287002563477, 8.487643241882324, 13.082529067993164, 8.745482444763184, 13.515382766723633, 13.28280258178711, 8.409278869628906, 13.677474975585938]
colour: [BIG, BIG, YELLOW, BLUE, YELLOW, BLUE, BLUE, YELLOW, BLUE]
frame_id: ''
---
header: 
  seq: 38
  stamp: 
    secs: 12
    nsecs: 207000000
  frame_id: "map"
x: [-9.821642875671387, -9.717877388000488, -6.653454780578613, -6.599621772766113, -3.284747838973999, -3.407045602798462, 0.4835229218006134, 0.538214385509491, 4.162997722625732, 3.9069552421569824]
y: [8.433833122253418, 12.981284141540527, 8.487638473510742, 13.082524299621582, 8.745397567749023, 13.515286445617676, 13.280318260192871, 8.406039237976074, 13.666351318359375, 8.401777267456055]
colour: [BIG, BIG, YELLOW, BLUE, YELLOW, BLUE, BLUE, YELLOW, BLUE, YELLOW]
frame_id: ''
---
header: 
  seq: 39
  stamp: 
    secs: 12
    nsecs: 407000000
  frame_id: "map"
x: [-9.82164478302002, -9.717880249023438, -6.653459072113037, -6.599626064300537, -3.284829616546631, -3.407139539718628, 0.48352542519569397, 0.5323368906974792, 4.159109115600586, 3.9039392471313477]
y: [8.433831214904785, 12.981281280517578, 8.487632751464844, 13.082518577575684, 8.745311737060547, 13.51518726348877, 13.277755737304688, 8.402731895446777, 13.654877662658691, 8.398712158203125]
colour: [BIG, BIG, YELLOW, BLUE, YELLOW, BLUE, BLUE, YELLOW, BLUE, YELLOW]
frame_id: ''
---
header: 
  seq: 40
  stamp: 
    secs: 12
    nsecs: 628000000
  frame_id: "map"
x: [-9.821648597717285, -9.71788501739502, -6.653466701507568, -6.599633693695068, -3.2849581241607666, -3.4072864055633545, 0.4820358157157898, 0.5248111486434937, 4.151221752166748, 3.898465394973755]
y: [8.433829307556152, 12.981278419494629, 8.487627983093262, 13.082513809204102, 8.74522590637207, 13.515088081359863, 13.275107383728027, 8.399505615234375, 13.64452075958252, 8.398598670959473]
colour: [BIG, BIG, YELLOW, BLUE, YELLOW, BLUE, BLUE, YELLOW, BLUE, YELLOW]
frame_id: ''
---
header: 
  seq: 41
  stamp: 
    secs: 12
    nsecs: 880000000
  frame_id: "map"
x: [-9.821648597717285, -9.717886924743652, -6.653468608856201, -6.599635601043701, -3.284993886947632, -3.4073283672332764, 0.4837537407875061, 0.5202752351760864, 4.152352333068848, 3.898878335952759]
y: [8.433826446533203, 12.981274604797363, 8.487622261047363, 13.082508087158203, 8.745121002197266, 13.514969825744629, 13.272019386291504, 8.39548110961914, 13.631141662597656, 8.39160442352295]
colour: [BIG, BIG, YELLOW, BLUE, YELLOW, BLUE, BLUE, YELLOW, BLUE, YELLOW]
frame_id: ''
---
header: 
  seq: 42
  stamp: 
    secs: 13
    nsecs: 103000000
  frame_id: "map"
x: [-9.821650505065918, -9.717888832092285, -6.65347146987915, -6.59963846206665, -3.2850420475006104, -3.4073843955993652, 0.4848827123641968, 0.5155104994773865, 4.151534557342529, 3.8976831436157227]
y: [8.433823585510254, 12.981270790100098, 8.487615585327148, 13.082501411437988, 8.745015144348145, 13.514848709106445, 13.268861770629883, 8.391395568847656, 13.618607521057129, 8.38838005065918]
colour: [BIG, BIG, YELLOW, BLUE, YELLOW, BLUE, BLUE, YELLOW, BLUE, YELLOW]
frame_id: ''
---
header: 
  seq: 43
  stamp: 
    secs: 13
    nsecs: 348000000
  frame_id: "map"
x: [-9.821653366088867, -9.71789264678955, -6.653476238250732, -6.599643230438232, -3.285130500793457, -3.4074857234954834, 0.48437386751174927, 0.5097252130508423, 4.147772789001465, 3.893101930618286]
y: [8.433821678161621, 12.981267929077148, 8.48760986328125, 13.08249568939209, 8.744926452636719, 13.514748573303223, 13.266212463378906, 8.388087272644043, 13.609272003173828, 8.38542652130127]
colour: [BIG, BIG, YELLOW, BLUE, YELLOW, BLUE, BLUE, YELLOW, BLUE, YELLOW]
frame_id: ''
---
header: 
  seq: 44
  stamp: 
    secs: 13
    nsecs: 572000000
  frame_id: "map"
x: [-9.8216552734375, -9.717894554138184, -6.653480529785156, -6.599647521972656, -3.2851991653442383, -3.407564401626587, 0.4843047261238098, 0.5048666000366211, 4.1452250480651855, 3.8900904655456543]
y: [8.433819770812988, 12.9812650680542, 8.487605094909668, 13.082490921020508, 8.744843482971191, 13.514653205871582, 13.263710021972656, 8.384909629821777, 13.600762367248535, 8.383057594299316]
colour: [BIG, BIG, YELLOW, BLUE, YELLOW, BLUE, BLUE, YELLOW, BLUE, YELLOW]
frame_id: ''
---
header: 
  seq: 45
  stamp: 
    secs: 13
    nsecs: 775000000
  frame_id: "map"
x: [-9.821656227111816, -9.717896461486816, -6.653482913970947, -6.599649906158447, -3.2852466106414795, -3.4076192378997803, 0.48466038703918457, 0.5010486245155334, 4.143801212310791, 3.889254093170166]
y: [8.433817863464355, 12.98126220703125, 8.487600326538086, 13.082486152648926, 8.74476432800293, 13.51456356048584, 13.261356353759766, 8.381915092468262, 13.593098640441895, 8.382883071899414]
colour: [BIG, BIG, YELLOW, BLUE, YELLOW, BLUE, BLUE, YELLOW, BLUE, YELLOW]
frame_id: ''
---
header: 
  seq: 46
  stamp: 
    secs: 13
    nsecs: 996000000
  frame_id: "map"
x: [-9.82165813446045, -9.717899322509766, -6.653487205505371, -6.599654197692871, -3.2853164672851562, -3.4076993465423584, 0.48418712615966797, 0.49656251072883606, 4.138113975524902, 3.8864235877990723]
y: [8.433816909790039, 12.981261253356934, 8.487598419189453, 13.082484245300293, 8.744730949401855, 13.514525413513184, 13.261021614074707, 8.379877090454102, 13.589275360107422, 8.385970115661621]
colour: [BIG, BIG, YELLOW, BLUE, YELLOW, BLUE, BLUE, YELLOW, BLUE, YELLOW]
frame_id: ''
---
header: 
  seq: 47
  stamp: 
    secs: 14
    nsecs: 191000000
  frame_id: "map"
x: [-9.821659088134766, -9.717900276184082, -6.653489589691162, -6.599656581878662, -3.2853589057922363, -3.407747983932495, 0.4840281903743744, 0.493701696395874, 4.136034965515137, 3.8861820697784424]
y: [8.433815956115723, 12.981260299682617, 8.48759651184082, 13.08248233795166, 8.744704246520996, 13.514494895935059, 13.260902404785156, 8.378111839294434, 13.585246086120605, 8.388160705566406]
colour: [BIG, BIG, YELLOW, BLUE, YELLOW, BLUE, BLUE, YELLOW, BLUE, YELLOW]
frame_id: ''
---
header: 
  seq: 48
  stamp: 
    secs: 14
    nsecs: 444000000
  frame_id: "map"
x: [-9.821659088134766, -9.717900276184082, -6.653489589691162, -6.599656581878662, -3.2853643894195557, -3.4077541828155518, 0.48395368456840515, 0.4933931529521942, 4.132688999176025, 3.8864338397979736]
y: [8.433815956115723, 12.981260299682617, 8.48759651184082, 13.08248233795166, 8.744705200195312, 13.514495849609375, 13.260956764221191, 8.3781099319458, 13.584416389465332, 8.393243789672852]
colour: [BIG, BIG, YELLOW, BLUE, YELLOW, BLUE, BLUE, YELLOW, BLUE, YELLOW]
frame_id: ''
---
header: 
  seq: 49
  stamp: 
    secs: 14
    nsecs: 678000000
  frame_id: "map"
x: [-9.821659088134766, -9.717900276184082, -6.653489589691162, -6.599656581878662, -3.2853646278381348, -3.407754421234131, 0.4839448928833008, 0.49338531494140625, 4.130657196044922, 3.8886871337890625, 7.636664867401123]
y: [8.433815956115723, 12.981260299682617, 8.48759651184082, 13.08248233795166, 8.744708061218262, 13.51449966430664, 13.261066436767578, 8.378243446350098, 13.585244178771973, 8.399575233459473, 9.789265632629395]
colour: [BIG, BIG, YELLOW, BLUE, YELLOW, BLUE, BLUE, YELLOW, BLUE, YELLOW, YELLOW]
frame_id: ''
---
header: 
  seq: 50
  stamp: 
    secs: 14
    nsecs: 912000000
  frame_id: "map"
x: [-9.821659088134766, -9.717900276184082, -6.653489589691162, -6.599656581878662, -3.2853586673736572, -3.407747983932495, 0.484119176864624, 0.4935937225818634, 4.133937358856201, 3.8959836959838867, 7.647580146789551]
y: [8.433815956115723, 12.981260299682617, 8.48759651184082, 13.08248233795166, 8.744712829589844, 13.514504432678223, 13.261204719543457, 8.378409385681152, 13.587008476257324, 8.406482696533203, 9.792987823486328]
colour: [BIG, BIG, YELLOW, BLUE, YELLOW, BLUE, BLUE, YELLOW, BLUE, YELLOW, YELLOW]
frame_id: ''
---
header: 
  seq: 51
  stamp: 
    secs: 15
    nsecs: 166000000
  frame_id: "map"
x: [-9.821659088134766, -9.717900276184082, -6.653489589691162, -6.599656581878662, -3.2853543758392334, -3.407743453979492, 0.48424217104911804, 0.49374282360076904, 4.134860515594482, 3.9030890464782715, 7.655311584472656]
y: [8.433815956115723, 12.981260299682617, 8.48759651184082, 13.08248233795166, 8.744718551635742, 13.514511108398438, 13.261402130126953, 8.378643989562988, 13.590691566467285, 8.414753913879395, 9.80307674407959]
colour: [BIG, BIG, YELLOW, BLUE, YELLOW, BLUE, BLUE, YELLOW, BLUE, YELLOW, YELLOW]
frame_id: ''
---
header: 
  seq: 52
  stamp: 
    secs: 15
    nsecs: 430000000
  frame_id: "map"
x: [-9.821659088134766, -9.717900276184082, -6.653489589691162, -6.599656581878662, -3.2853522300720215, -3.407741069793701, 0.48430055379867554, 0.49381664395332336, 4.133177280426025, 3.909442186355591, 7.659761428833008, 7.678701877593994]
y: [8.433815956115723, 12.981260299682617, 8.48759651184082, 13.08248233795166, 8.744726181030273, 13.514520645141602, 13.261648178100586, 8.378937721252441, 13.59591293334961, 8.424217224121094, 9.817540168762207, 14.962176322937012]
colour: [BIG, BIG, YELLOW, BLUE, YELLOW, BLUE, BLUE, YELLOW, BLUE, YELLOW, YELLOW, BLUE]
frame_id: ''
---
header: 
  seq: 53
  stamp: 
    secs: 15
    nsecs: 659000000
  frame_id: "map"
x: [-9.821659088134766, -9.717900276184082, -6.653489589691162, -6.599656581878662, -3.2853524684906006, -3.4077413082122803, 0.4842882752418518, 0.4938073754310608, 4.129181385040283, 3.914217233657837, 7.660154342651367, 7.672084808349609]
y: [8.433815956115723, 12.981260299682617, 8.48759651184082, 13.08248233795166, 8.744734764099121, 13.514530181884766, 13.2618989944458, 8.379236221313477, 13.601459503173828, 8.433551788330078, 9.832735061645508, 14.965106964111328]
colour: [BIG, BIG, YELLOW, BLUE, YELLOW, BLUE, BLUE, YELLOW, BLUE, YELLOW, YELLOW, BLUE]
frame_id: ''
---
header: 
  seq: 54
  stamp: 
    secs: 15
    nsecs: 886000000
  frame_id: "map"
x: [-9.821659088134766, -9.717900276184082, -6.65349006652832, -6.59965705871582, -3.285355567932129, -3.407745122909546, 0.4841839075088501, 0.49368926882743835, 4.122612953186035, 3.9163217544555664, 7.654800891876221, 7.658873558044434]
y: [8.433815956115723, 12.981260299682617, 8.48759651184082, 13.08248233795166, 8.744742393493652, 13.51453971862793, 13.262137413024902, 8.379520416259766, 13.606679916381836, 8.442477226257324, 9.846176147460938, 14.967019081115723]
colour: [BIG, BIG, YELLOW, BLUE, YELLOW, BLUE, BLUE, YELLOW, BLUE, YELLOW, YELLOW, BLUE]
frame_id: ''
---
header: 
  seq: 55
  stamp: 
    secs: 16
    nsecs:  97000000
  frame_id: "map"
x: [-9.821659088134766, -9.717900276184082, -6.65349006652832, -6.59965705871582, -3.285355806350708, -3.407744884490967, 0.4841758608818054, 0.49368512630462646, 4.118690013885498, 3.9212865829467773, 7.655899524688721, 7.652730941772461]
y: [8.433815956115723, 12.981260299682617, 8.48759651184082, 13.08248233795166, 8.7447509765625, 13.514549255371094, 13.262389183044434, 8.379819869995117, 13.612494468688965, 8.45150089263916, 9.861854553222656, 14.972674369812012]
colour: [BIG, BIG, YELLOW, BLUE, YELLOW, BLUE, BLUE, YELLOW, BLUE, YELLOW, YELLOW, BLUE]
frame_id: ''
---
header: 
  seq: 56
  stamp: 
    secs: 16
    nsecs: 311000000
  frame_id: "map"
x: [-9.821659088134766, -9.717900276184082, -6.65349006652832, -6.59965705871582, -3.28535532951355, -3.4077444076538086, 0.4841929078102112, 0.4937104880809784, 4.115564346313477, 3.9268412590026855, 7.658112049102783, 7.647974491119385]
y: [8.433815956115723, 12.981260299682617, 8.48759651184082, 13.08248233795166, 8.744759559631348, 13.514558792114258, 13.262639045715332, 8.380117416381836, 13.618392944335938, 8.460293769836426, 9.876998901367188, 14.978737831115723]
colour: [BIG, BIG, YELLOW, BLUE, YELLOW, BLUE, BLUE, YELLOW, BLUE, YELLOW, YELLOW, BLUE]
frame_id: ''
---
header: 
  seq: 57
  stamp: 
    secs: 16
    nsecs: 521000000
  frame_id: "map"
x: [-9.821659088134766, -9.717900276184082, -6.65349006652832, -6.59965705871582, -3.285356044769287, -3.407745122909546, 0.4841696321964264, 0.49368777871131897, 4.11159610748291, 3.9308269023895264, 7.6575212478637695, 7.6410956382751465]
y: [8.433815956115723, 12.981260299682617, 8.48759651184082, 13.08248233795166, 8.744767189025879, 13.514567375183105, 13.262868881225586, 8.380391120910645, 13.623757362365723, 8.468522071838379, 9.889809608459473, 14.982624053955078]
colour: [BIG, BIG, YELLOW, BLUE, YELLOW, BLUE, BLUE, YELLOW, BLUE, YELLOW, YELLOW, BLUE]
frame_id: ''
---
header: 
  seq: 58
  stamp: 
    secs: 16
    nsecs: 711000000
  frame_id: "map"
x: [-9.821659088134766, -9.717900276184082, -6.65349006652832, -6.59965705871582, -3.2853548526763916, -3.407743453979492, 0.48420900106430054, 0.4937388598918915, 4.109532833099365, 3.936413526535034, 7.660830497741699, 7.638932704925537]
y: [8.433815956115723, 12.981260299682617, 8.48759651184082, 13.08248233795166, 8.74477481842041, 13.514575958251953, 13.263096809387207, 8.380661010742188, 13.62912654876709, 8.47651481628418, 9.902690887451172, 14.987565994262695]
colour: [BIG, BIG, YELLOW, BLUE, YELLOW, BLUE, BLUE, YELLOW, BLUE, YELLOW, YELLOW, BLUE]
frame_id: ''
---
header: 
  seq: 59
  stamp: 
    secs: 16
    nsecs: 945000000
  frame_id: "map"
x: [-9.821659088134766, -9.717900276184082, -6.65349006652832, -6.59965705871582, -3.285353899002075, -3.4077422618865967, 0.48423582315444946, 0.4937748312950134, 4.107378005981445, 3.9412760734558105, 7.66247034072876, 7.636106014251709]
y: [8.433815956115723, 12.981260299682617, 8.48759651184082, 13.08248233795166, 8.744781494140625, 13.5145845413208, 13.263310432434082, 8.380914688110352, 13.634170532226562, 8.48399543762207, 9.913641929626465, 14.99062442779541]
colour: [BIG, BIG, YELLOW, BLUE, YELLOW, BLUE, BLUE, YELLOW, BLUE, YELLOW, YELLOW, BLUE]
frame_id: ''
---
header: 
  seq: 60
  stamp: 
    secs: 17
    nsecs: 178000000
  frame_id: "map"
x: [-9.821659088134766, -9.717900276184082, -6.65349006652832, -6.59965705871582, -3.285350799560547, -3.40773868560791, 0.4843302369117737, 0.49389058351516724, 4.10717248916626, 3.9480137825012207, 7.668204307556152, 7.637791156768799, 11.102993965148926]
y: [8.433815956115723, 12.981260299682617, 8.48759651184082, 13.08248233795166, 8.74478816986084, 13.514593124389648, 13.263520240783691, 8.38116455078125, 13.639215469360352, 8.4912691116333, 9.924896240234375, 14.994755744934082, 11.313697814941406]
colour: [BIG, BIG, YELLOW, BLUE, YELLOW, BLUE, BLUE, YELLOW, BLUE, YELLOW, YELLOW, BLUE, YELLOW]
frame_id: ''
---
header: 
  seq: 61
  stamp: 
    secs: 17
    nsecs: 422000000
  frame_id: "map"
x: [-9.821659088134766, -9.717900276184082, -6.65349006652832, -6.59965705871582, -3.2853505611419678, -3.407738447189331, 0.4843369722366333, 0.49389851093292236, 4.107358932495117, 3.948211908340454, 7.670975685119629, 7.636472702026367, 11.097050666809082]
y: [8.433815956115723, 12.981260299682617, 8.48759651184082, 13.08248233795166, 8.744789123535156, 13.514594078063965, 13.263543128967285, 8.38119125366211, 13.639863014221191, 8.491958618164062, 9.93273639678955, 14.995257377624512, 11.309020042419434]
colour: [BIG, BIG, YELLOW, BLUE, YELLOW, BLUE, BLUE, YELLOW, BLUE, YELLOW, YELLOW, BLUE, YELLOW]
frame_id: ''
---
header: 
  seq: 62
  stamp: 
    secs: 17
    nsecs: 651000000
  frame_id: "map"
x: [-9.821659088134766, -9.717900276184082, -6.65349006652832, -6.59965705871582, -3.2853505611419678, -3.407738447189331, 0.48433375358581543, 0.49389466643333435, 4.107269287109375, 3.9481167793273926, 7.670623302459717, 7.632259845733643, 11.085514068603516]
y: [8.433815956115723, 12.981260299682617, 8.48759651184082, 13.08248233795166, 8.744789123535156, 13.514594078063965, 13.263545989990234, 8.381195068359375, 13.639957427978516, 8.492058753967285, 9.938879013061523, 14.993853569030762, 11.300989151000977]
colour: [BIG, BIG, YELLOW, BLUE, YELLOW, BLUE, BLUE, YELLOW, BLUE, YELLOW, YELLOW, BLUE, YELLOW]
frame_id: ''
---
header: 
  seq: 63
  stamp: 
    secs: 17
    nsecs: 873000000
  frame_id: "map"
x: [-9.821659088134766, -9.717900276184082, -6.65349006652832, -6.59965705871582, -3.2853505611419678, -3.407738447189331, 0.48433610796928406, 0.4938974380493164, 4.107334613800049, 3.948186159133911, 7.67392635345459, 7.632323265075684, 11.082743644714355, 10.08535099029541]
y: [8.433815956115723, 12.981260299682617, 8.48759651184082, 13.08248233795166, 8.744789123535156, 13.514594078063965, 13.263550758361816, 8.381200790405273, 13.640081405639648, 8.492189407348633, 9.945286750793457, 14.993675231933594, 11.296387672424316, 16.14939308166504]
colour: [BIG, BIG, YELLOW, BLUE, YELLOW, BLUE, BLUE, YELLOW, BLUE, YELLOW, YELLOW, BLUE, YELLOW,
  BLUE]
frame_id: ''
---
header: 
  seq: 64
  stamp: 
    secs: 18
    nsecs:  84000000
  frame_id: "map"
x: [-9.821659088134766, -9.717900276184082, -6.65349006652832, -6.59965705871582, -3.2853505611419678, -3.407738447189331, 0.4843365550041199, 0.4938979744911194, 4.10734748840332, 3.948199510574341, 7.675753116607666, 7.631242275238037, 11.076997756958008, 10.082322120666504]
y: [8.433815956115723, 12.981260299682617, 8.48759651184082, 13.08248233795166, 8.744789123535156, 13.514594078063965, 13.263553619384766, 8.381204605102539, 13.640179634094238, 8.492293357849121, 9.951090812683105, 14.99282169342041, 11.290151596069336, 16.146800994873047]
colour: [BIG, BIG, YELLOW, BLUE, YELLOW, BLUE, BLUE, YELLOW, BLUE, YELLOW, YELLOW, BLUE, YELLOW,
  BLUE]
frame_id: ''
---
header: 
  seq: 65
  stamp: 
    secs: 18
    nsecs: 330000000
  frame_id: "map"
x: [-9.821659088134766, -9.717900276184082, -6.65349006652832, -6.59965705871582, -3.2853505611419678, -3.407738447189331, 0.48433491587638855, 0.4938960373401642, 4.107303142547607, 3.9481515884399414, 7.67610502243042, 7.628678321838379, 11.068601608276367, 10.076169967651367]
y: [8.433815956115723, 12.981260299682617, 8.48759651184082, 13.08248233795166, 8.744789123535156, 13.514594078063965, 13.263555526733398, 8.381207466125488, 13.640250205993652, 8.492368698120117, 9.956191062927246, 14.991244316101074, 11.28314208984375, 16.142162322998047]
colour: [BIG, BIG, YELLOW, BLUE, YELLOW, BLUE, BLUE, YELLOW, BLUE, YELLOW, YELLOW, BLUE, YELLOW,
  BLUE]
frame_id: ''
---
header: 
  seq: 66
  stamp: 
    secs: 18
    nsecs: 563000000
  frame_id: "map"
x: [-9.821659088134766, -9.717900276184082, -6.65349006652832, -6.59965705871582, -3.2853505611419678, -3.407738447189331, 0.48433172702789307, 0.49389225244522095, 4.107213973999023, 3.948057174682617, 7.675222396850586, 7.6251139640808105, 11.058248519897461, 10.068216323852539]
y: [8.433815956115723, 12.981260299682617, 8.48759651184082, 13.08248233795166, 8.744789123535156, 13.514594078063965, 13.263557434082031, 8.381210327148438, 13.640307426452637, 8.492430686950684, 9.96090030670166, 14.989350318908691, 11.275591850280762, 16.13658905029297]
colour: [BIG, BIG, YELLOW, BLUE, YELLOW, BLUE, BLUE, YELLOW, BLUE, YELLOW, YELLOW, BLUE, YELLOW,
  BLUE]
frame_id: ''
---
header: 
  seq: 67
  stamp: 
    secs: 18
    nsecs: 747000000
  frame_id: "map"
x: [-9.821659088134766, -9.717900276184082, -6.65349006652832, -6.59965705871582, -3.2853505611419678, -3.407738447189331, 0.48433101177215576, 0.4938913881778717, 4.107193470001221, 3.948035478591919, 7.675959587097168, 7.623387336730957, 11.05215072631836, 10.06497573852539]
y: [8.433815956115723, 12.981260299682617, 8.48759651184082, 13.08248233795166, 8.744789123535156, 13.514594078063965, 13.263559341430664, 8.381213188171387, 13.640369415283203, 8.492497444152832, 9.965506553649902, 14.987817764282227, 11.269438743591309, 16.13277816772461]
colour: [BIG, BIG, YELLOW, BLUE, YELLOW, BLUE, BLUE, YELLOW, BLUE, YELLOW, YELLOW, BLUE, YELLOW,
  BLUE]
frame_id: ''
---
header: 
  seq: 68
  stamp: 
    secs: 19
    nsecs:   8000000
  frame_id: "map"
x: [-9.821659088134766, -9.717900276184082, -6.65349006652832, -6.59965705871582, -3.2853505611419678, -3.407738447189331, 0.4843326210975647, 0.4938933253288269, 4.107238292694092, 3.9480831623077393, 7.678284168243408, 7.62345552444458, 11.049509048461914, 10.06533145904541]
y: [8.433815956115723, 12.981260299682617, 8.48759651184082, 13.08248233795166, 8.744789123535156, 13.514594078063965, 13.263561248779297, 8.381216049194336, 13.640439987182617, 8.492571830749512, 9.970086097717285, 14.986662864685059, 11.264793395996094, 16.13058090209961]
colour: [BIG, BIG, YELLOW, BLUE, YELLOW, BLUE, BLUE, YELLOW, BLUE, YELLOW, YELLOW, BLUE, YELLOW,
  BLUE]
frame_id: ''
---
header: 
  seq: 69
  stamp: 
    secs: 19
    nsecs: 250000000
  frame_id: "map"
x: [-9.821659088134766, -9.717900276184082, -6.65349006652832, -6.59965705871582, -3.2853505611419678, -3.407738447189331, 0.4843342900276184, 0.49389535188674927, 4.1072845458984375, 3.9481329917907715, 7.680661678314209, 7.623546600341797, 11.047019004821777, 10.065574645996094]
y: [8.433815956115723, 12.981260299682617, 8.48759651184082, 13.08248233795166, 8.744789123535156, 13.514594078063965, 13.26356315612793, 8.381218910217285, 13.64051342010498, 8.492650032043457, 9.974589347839355, 14.98570728302002, 11.260603904724121, 16.128952026367188]
colour: [BIG, BIG, YELLOW, BLUE, YELLOW, BLUE, BLUE, YELLOW, BLUE, YELLOW, YELLOW, BLUE, YELLOW,
  BLUE]
frame_id: ''
---
header: 
  seq: 70
  stamp: 
    secs: 19
    nsecs: 460000000
  frame_id: "map"
x: [-9.821659088134766, -9.717900276184082, -6.65349006652832, -6.59965705871582, -3.2853505611419678, -3.407738447189331, 0.4843340516090393, 0.4938950836658478, 4.107279300689697, 3.948126792907715, 7.681796073913574, 7.622140884399414, 11.04198169708252, 10.062542915344238]
y: [8.433815956115723, 12.981260299682617, 8.48759651184082, 13.08248233795166, 8.744789123535156, 13.514594078063965, 13.263565063476562, 8.381221771240234, 13.640579223632812, 8.492720603942871, 9.978901863098145, 14.984582901000977, 11.25644588470459, 16.12690544128418]
colour: [BIG, BIG, YELLOW, BLUE, YELLOW, BLUE, BLUE, YELLOW, BLUE, YELLOW, YELLOW, BLUE, YELLOW,
  BLUE]
frame_id: ''
---
header: 
  seq: 71
  stamp: 
    secs: 19
    nsecs: 729000000
  frame_id: "map"
x: [-9.821659088134766, -9.717900276184082, -6.65349006652832, -6.59965705871582, -3.2853503227233887, -3.407738208770752, 0.48433950543403625, 0.4939015805721283, 4.107430934906006, 3.9482884407043457, 7.686757564544678, 7.624996185302734, 11.04556655883789, 10.068589210510254, 13.712203979492188]
y: [8.433815956115723, 12.981260299682617, 8.48759651184082, 13.08248233795166, 8.744789123535156, 13.514594078063965, 13.263567924499512, 8.3812255859375, 13.640663146972656, 8.492809295654297, 9.983245849609375, 14.984333038330078, 11.254862785339355, 16.12801742553711, 12.315764427185059]
colour: [BIG, BIG, YELLOW, BLUE, YELLOW, BLUE, BLUE, YELLOW, BLUE, YELLOW, YELLOW, BLUE, YELLOW,
  BLUE, YELLOW]
frame_id: ''
---
header: 
  seq: 72
  stamp: 
    secs: 19
    nsecs: 944000000
  frame_id: "map"
x: [-9.821659088134766, -9.717900276184082, -6.65349006652832, -6.59965705871582, -3.2853503227233887, -3.407738208770752, 0.48434382677078247, 0.493906706571579, 4.107551574707031, 3.9484167098999023, 7.691070079803467, 7.6269049644470215, 11.046817779541016, 10.071924209594727, 13.707418441772461]
y: [8.433815956115723, 12.981260299682617, 8.48759651184082, 13.08248233795166, 8.744789123535156, 13.514594078063965, 13.263570785522461, 8.381229400634766, 13.6407470703125, 8.492897987365723, 9.987565994262695, 14.984078407287598, 11.253104209899902, 16.128515243530273, 12.314128875732422]
colour: [BIG, BIG, YELLOW, BLUE, YELLOW, BLUE, BLUE, YELLOW, BLUE, YELLOW, YELLOW, BLUE, YELLOW,
  BLUE, YELLOW]
frame_id: ''
---
header: 
  seq: 73
  stamp: 
    secs: 20
    nsecs: 183000000
  frame_id: "map"
x: [-9.821659088134766, -9.717900276184082, -6.65349006652832, -6.59965705871582, -3.2853503227233887, -3.407738208770752, 0.48434340953826904, 0.49390625953674316, 4.107540130615234, 3.9484050273895264, 7.690909385681152, 7.626677513122559, 11.044157028198242, 10.070696830749512, 13.695324897766113]
y: [8.433815956115723, 12.981260299682617, 8.48759651184082, 13.08248233795166, 8.744789123535156, 13.514594078063965, 13.263569831848145, 8.38122844696045, 13.640725135803223, 8.492876052856445, 9.987462997436523, 14.983149528503418, 11.250128746032715, 16.127090454101562, 12.31006908416748]
colour: [BIG, BIG, YELLOW, BLUE, YELLOW, BLUE, BLUE, YELLOW, BLUE, YELLOW, YELLOW, BLUE, YELLOW,
  BLUE, YELLOW]
frame_id: ''
---
header: 
  seq: 74
  stamp: 
    secs: 20
    nsecs: 421000000
  frame_id: "map"
x: [-9.821659088134766, -9.717900276184082, -6.65349006652832, -6.59965705871582, -3.2853503227233887, -3.407738208770752, 0.4843422770500183, 0.49390488862991333, 4.107508659362793, 3.948371648788452, 7.690652370452881, 7.625442981719971, 11.039427757263184, 10.067161560058594, 13.679912567138672]
y: [8.433815956115723, 12.981260299682617, 8.48759651184082, 13.08248233795166, 8.744789123535156, 13.514594078063965, 13.263568878173828, 8.381227493286133, 13.640701293945312, 8.492850303649902, 9.987299919128418, 14.98207950592041, 11.246857643127441, 16.124937057495117, 12.304861068725586]
colour: [BIG, BIG, YELLOW, BLUE, YELLOW, BLUE, BLUE, YELLOW, BLUE, YELLOW, YELLOW, BLUE, YELLOW,
  BLUE, YELLOW]
frame_id: ''
---
header: 
  seq: 75
  stamp: 
    secs: 20
    nsecs: 659000000
  frame_id: "map"
x: [-9.821659088134766, -9.717900276184082, -6.65349006652832, -6.59965705871582, -3.2853503227233887, -3.407738208770752, 0.4843408465385437, 0.49390318989753723, 4.107468605041504, 3.948329210281372, 7.690354824066162, 7.623764514923096, 11.034165382385254, 10.062857627868652, 13.664509773254395, 12.722667694091797]
y: [8.433815956115723, 12.981260299682617, 8.48759651184082, 13.08248233795166, 8.744789123535156, 13.514594078063965, 13.263567924499512, 8.381226539611816, 13.64067554473877, 8.492823600769043, 9.987135887145996, 14.980888366699219, 11.24374008178711, 16.122800827026367, 12.299690246582031, 17.25458335876465]
colour: [BIG, BIG, YELLOW, BLUE, YELLOW, BLUE, BLUE, YELLOW, BLUE, YELLOW, YELLOW, BLUE, YELLOW,
  BLUE, YELLOW, BLUE]
frame_id: ''
---
header: 
  seq: 76
  stamp: 
    secs: 20
    nsecs: 877000000
  frame_id: "map"
x: [-9.821659088134766, -9.717900276184082, -6.65349006652832, -6.59965705871582, -3.2853503227233887, -3.407738208770752, 0.4843406081199646, 0.49390289187431335, 4.107461452484131, 3.948322057723999, 7.690295696258545, 7.623538494110107, 11.032769203186035, 10.06284236907959, 13.658095359802246, 12.730789184570312]
y: [8.433815956115723, 12.981260299682617, 8.48759651184082, 13.08248233795166, 8.744789123535156, 13.514594078063965, 13.263566970825195, 8.3812255859375, 13.64065170288086, 8.492798805236816, 9.987010955810547, 14.979667663574219, 11.2412748336792, 16.12166976928711, 12.297368049621582, 17.25775909423828]
colour: [BIG, BIG, YELLOW, BLUE, YELLOW, BLUE, BLUE, YELLOW, BLUE, YELLOW, YELLOW, BLUE, YELLOW,
  BLUE, YELLOW, BLUE]
frame_id: ''
---
header: 
  seq: 77
  stamp: 
    secs: 21
    nsecs:  90000000
  frame_id: "map"
x: [-9.821659088134766, -9.717900276184082, -6.65349006652832, -6.59965705871582, -3.2853503227233887, -3.407738208770752, 0.48434022068977356, 0.49390241503715515, 4.10745096206665, 3.948310613632202, 7.690210819244385, 7.623526573181152, 11.027226448059082, 10.058382987976074, 13.694114685058594, 12.729453086853027]
y: [8.433815956115723, 12.981260299682617, 8.48759651184082, 13.08248233795166, 8.744789123535156, 13.514594078063965, 13.263566970825195, 8.3812255859375, 13.640642166137695, 8.492788314819336, 9.986885070800781, 14.979254722595215, 11.241106986999512, 16.122520446777344, 12.258980751037598, 17.262210845947266]
colour: [BIG, BIG, YELLOW, BLUE, YELLOW, BLUE, BLUE, YELLOW, BLUE, YELLOW, YELLOW, BLUE, YELLOW,
  BLUE, YELLOW, BLUE]
frame_id: ''
---
header: 
  seq: 78
  stamp: 
    secs: 21
    nsecs: 312000000
  frame_id: "map"
x: [-9.821659088134766, -9.717900276184082, -6.65349006652832, -6.59965705871582, -3.2853503227233887, -3.407738208770752, 0.48433971405029297, 0.4939018189907074, 4.107437610626221, 3.948296546936035, 7.690064430236816, 7.623481273651123, 11.021013259887695, 10.053256034851074, 13.71896743774414, 12.734458923339844]
y: [8.433815956115723, 12.981260299682617, 8.48759651184082, 13.08248233795166, 8.744789123535156, 13.514594078063965, 13.263566970825195, 8.3812255859375, 13.640632629394531, 8.492778778076172, 9.98674488067627, 14.978873252868652, 11.240561485290527, 16.12255096435547, 12.222600936889648, 17.256336212158203]
colour: [BIG, BIG, YELLOW, BLUE, YELLOW, BLUE, BLUE, YELLOW, BLUE, YELLOW, YELLOW, BLUE, YELLOW,
  BLUE, YELLOW, BLUE]
frame_id: ''
---
header: 
  seq: 79
  stamp: 
    secs: 21
    nsecs: 542000000
  frame_id: "map"
x: [-9.821659088134766, -9.717900276184082, -6.65349006652832, -6.59965705871582, -3.2853503227233887, -3.407738208770752, 0.48433950543403625, 0.4939015805721283, 4.107431888580322, 3.9482908248901367, 7.690021991729736, 7.623619079589844, 11.016698837280273, 10.050366401672363, 13.749861717224121, 12.745247840881348]
y: [8.433815956115723, 12.981260299682617, 8.48759651184082, 13.08248233795166, 8.744789123535156, 13.514594078063965, 13.263566970825195, 8.3812255859375, 13.640623092651367, 8.492769241333008, 9.986617088317871, 14.978543281555176, 11.23969554901123, 16.122468948364258, 12.192173957824707, 17.252565383911133]
colour: [BIG, BIG, YELLOW, BLUE, YELLOW, BLUE, BLUE, YELLOW, BLUE, YELLOW, YELLOW, BLUE, YELLOW,
  BLUE, YELLOW, BLUE]
frame_id: ''
---
header: 
  seq: 80
  stamp: 
    secs: 21
    nsecs: 777000000
  frame_id: "map"
x: [-9.821659088134766, -9.717900276184082, -6.65349006652832, -6.59965705871582, -3.2853503227233887, -3.407738208770752, 0.4843392074108124, 0.4939012825489044, 4.107423782348633, 3.948282241821289, 7.689924716949463, 7.6234540939331055, 11.014461517333984, 10.04968547821045, 13.740276336669922, 12.74758529663086, 15.44764518737793]
y: [8.433815956115723, 12.981260299682617, 8.48759651184082, 13.08248233795166, 8.744789123535156, 13.514594078063965, 13.263566970825195, 8.3812255859375, 13.64061450958252, 8.492758750915527, 9.986501693725586, 14.97839069366455, 11.236808776855469, 16.1198673248291, 12.191462516784668, 17.251953125, 16.797609329223633]
colour: [BIG, BIG, YELLOW, BLUE, YELLOW, BLUE, BLUE, YELLOW, BLUE, YELLOW, YELLOW, BLUE, YELLOW,
  BLUE, YELLOW, BLUE, BLUE]
frame_id: ''
---
header: 
  seq: 81
  stamp: 
    secs: 21
    nsecs: 994000000
  frame_id: "map"
x: [-9.821659088134766, -9.717900276184082, -6.65349006652832, -6.59965705871582, -3.2853503227233887, -3.407738208770752, 0.48433876037597656, 0.49390074610710144, 4.1074113845825195, 3.9482686519622803, 7.689766883850098, 7.62319278717041, 11.010952949523926, 10.04763126373291, 13.728656768798828, 12.74742317199707, 15.44677734375]
y: [8.433815956115723, 12.981260299682617, 8.48759651184082, 13.08248233795166, 8.744789123535156, 13.514594078063965, 13.263566970825195, 8.3812255859375, 13.640607833862305, 8.492752075195312, 9.98641586303711, 14.978281021118164, 11.234546661376953, 16.117889404296875, 12.191822052001953, 17.251516342163086, 16.79743766784668]
colour: [BIG, BIG, YELLOW, BLUE, YELLOW, BLUE, BLUE, YELLOW, BLUE, YELLOW, YELLOW, BLUE, YELLOW,
  BLUE, YELLOW, BLUE, BLUE]
frame_id: ''
---
header: 
  seq: 82
  stamp: 
    secs: 22
    nsecs: 248000000
  frame_id: "map"
x: [-9.821659088134766, -9.717900276184082, -6.65349006652832, -6.59965705871582, -3.2853503227233887, -3.407738208770752, 0.4843384623527527, 0.4939003586769104, 4.107402801513672, 3.948259115219116, 7.689661979675293, 7.623019218444824, 11.008490562438965, 10.046704292297363, 13.719533920288086, 12.74960994720459, 15.448777198791504]
y: [8.433815956115723, 12.981260299682617, 8.48759651184082, 13.08248233795166, 8.744789123535156, 13.514594078063965, 13.263566970825195, 8.3812255859375, 13.640602111816406, 8.492745399475098, 9.98633861541748, 14.978185653686523, 11.232447624206543, 16.116073608398438, 12.192593574523926, 17.251493453979492, 16.797998428344727]
colour: [BIG, BIG, YELLOW, BLUE, YELLOW, BLUE, BLUE, YELLOW, BLUE, YELLOW, YELLOW, BLUE, YELLOW,
  BLUE, YELLOW, BLUE, BLUE]
frame_id: ''
---
header: 
  seq: 83
  stamp: 
    secs: 22
    nsecs: 490000000
  frame_id: "map"
x: [-9.821659088134766, -9.717900276184082, -6.65349006652832, -6.59965705871582, -3.2853503227233887, -3.407738208770752, 0.4843381345272064, 0.49389997124671936, 4.107393741607666, 3.9482500553131104, 7.689575672149658, 7.6230149269104, 11.003945350646973, 10.043471336364746, 13.741230010986328, 12.747991561889648, 15.452975273132324]
y: [8.433815956115723, 12.981260299682617, 8.48759651184082, 13.08248233795166, 8.744789123535156, 13.514594078063965, 13.263566970825195, 8.3812255859375, 13.640596389770508, 8.4927396774292, 9.98624324798584, 14.977932929992676, 11.23227596282959, 16.11616325378418, 12.165777206420898, 17.254058837890625, 16.793607711791992]
colour: [BIG, BIG, YELLOW, BLUE, YELLOW, BLUE, BLUE, YELLOW, BLUE, YELLOW, YELLOW, BLUE, YELLOW,
  BLUE, YELLOW, BLUE, BLUE]
frame_id: ''
---
header: 
  seq: 84
  stamp: 
    secs: 22
    nsecs: 752000000
  frame_id: "map"
x: [-9.821659088134766, -9.717900276184082, -6.65349006652832, -6.59965705871582, -3.2853503227233887, -3.407738208770752, 0.4843384325504303, 0.493900328874588, 4.107401371002197, 3.948258399963379, 7.689675807952881, 7.623289108276367, 11.004942893981934, 10.04238224029541, 13.768599510192871, 12.750558853149414, 15.465386390686035]
y: [8.433815956115723, 12.981260299682617, 8.48759651184082, 13.08248233795166, 8.744789123535156, 13.514594078063965, 13.263566970825195, 8.3812255859375, 13.640588760375977, 8.492732048034668, 9.98613452911377, 14.977684020996094, 11.231173515319824, 16.115949630737305, 12.142743110656738, 17.25716209411621, 16.791208267211914]
colour: [BIG, BIG, YELLOW, BLUE, YELLOW, BLUE, BLUE, YELLOW, BLUE, YELLOW, YELLOW, BLUE, YELLOW,
  BLUE, YELLOW, BLUE, BLUE]
frame_id: ''
---
header: 
  seq: 85
  stamp: 
    secs: 22
    nsecs: 972000000
  frame_id: "map"
x: [-9.821659088134766, -9.717900276184082, -6.65349006652832, -6.59965705871582, -3.2853503227233887, -3.407738208770752, 0.4843386113643646, 0.4939005374908447, 4.107406139373779, 3.948263645172119, 7.6897406578063965, 7.623478412628174, 11.00550651550293, 10.041186332702637, 13.789413452148438, 12.751116752624512, 15.472372055053711]
y: [8.433815956115723, 12.981260299682617, 8.48759651184082, 13.08248233795166, 8.744789123535156, 13.514594078063965, 13.263566970825195, 8.3812255859375, 13.640582084655762, 8.492725372314453, 9.986038208007812, 14.977455139160156, 11.230572700500488, 16.115591049194336, 12.120856285095215, 17.259105682373047, 16.786653518676758]
colour: [BIG, BIG, YELLOW, BLUE, YELLOW, BLUE, BLUE, YELLOW, BLUE, YELLOW, YELLOW, BLUE, YELLOW,
  BLUE, YELLOW, BLUE, BLUE]
frame_id: ''
---
header: 
  seq: 86
  stamp: 
    secs: 23
    nsecs: 215000000
  frame_id: "map"
x: [-9.821659088134766, -9.717900276184082, -6.65349006652832, -6.59965705871582, -3.2853503227233887, -3.407738208770752, 0.4843387007713318, 0.4939006268978119, 4.107408046722412, 3.9482662677764893, 7.689761638641357, 7.623570919036865, 11.005802154541016, 10.039278030395508, 13.803450584411621, 12.749228477478027, 15.474259376525879, 17.94559097290039]
y: [8.433815956115723, 12.981260299682617, 8.48759651184082, 13.08248233795166, 8.744789123535156, 13.514594078063965, 13.263566970825195, 8.3812255859375, 13.640575408935547, 8.492717742919922, 9.985937118530273, 14.977216720581055, 11.229940414428711, 16.114925384521484, 12.099340438842773, 17.259592056274414, 16.77995491027832, 15.548736572265625]
colour: [BIG, BIG, YELLOW, BLUE, YELLOW, BLUE, BLUE, YELLOW, BLUE, YELLOW, YELLOW, BLUE, YELLOW,
  BLUE, YELLOW, BLUE, BLUE, BLUE]
frame_id: ''
---
header: 
  seq: 87
  stamp: 
    secs: 23
    nsecs: 413000000
  frame_id: "map"
x: [-9.821659088134766, -9.717900276184082, -6.65349006652832, -6.59965705871582, -3.2853503227233887, -3.407738208770752, 0.4843388795852661, 0.4939008057117462, 4.1074113845825195, 3.948270082473755, 7.689813137054443, 7.623722553253174, 11.006256103515625, 10.038335800170898, 13.819962501525879, 12.749924659729004, 15.480463981628418, 17.94578742980957]
y: [8.433815956115723, 12.981260299682617, 8.48759651184082, 13.08248233795166, 8.744789123535156, 13.514594078063965, 13.263566970825195, 8.3812255859375, 13.640568733215332, 8.49271011352539, 9.98583984375, 14.97698974609375, 11.22934341430664, 16.11408805847168, 12.079411506652832, 17.25982666015625, 16.77345848083496, 15.547589302062988]
colour: [BIG, BIG, YELLOW, BLUE, YELLOW, BLUE, BLUE, YELLOW, BLUE, YELLOW, YELLOW, BLUE, YELLOW,
  BLUE, YELLOW, BLUE, BLUE, BLUE]
frame_id: ''
---
header: 
  seq: 88
  stamp: 
    secs: 23
    nsecs: 631000000
  frame_id: "map"
x: [-9.821659088134766, -9.717900276184082, -6.65349006652832, -6.59965705871582, -3.2853503227233887, -3.407738208770752, 0.48433899879455566, 0.49390098452568054, 4.107414722442627, 3.9482741355895996, 7.689874649047852, 7.623854160308838, 11.006576538085938, 10.039165496826172, 13.831145286560059, 12.74845027923584, 15.48233699798584, 17.945613861083984]
y: [8.433815956115723, 12.981260299682617, 8.48759651184082, 13.08248233795166, 8.744789123535156, 13.514594078063965, 13.263566970825195, 8.3812255859375, 13.640562057495117, 8.492703437805176, 9.98574161529541, 14.976770401000977, 11.228774070739746, 16.112810134887695, 12.061323165893555, 17.259958267211914, 16.7659969329834, 15.544795989990234]
colour: [BIG, BIG, YELLOW, BLUE, YELLOW, BLUE, BLUE, YELLOW, BLUE, YELLOW, YELLOW, BLUE, YELLOW,
  BLUE, YELLOW, BLUE, BLUE, BLUE]
frame_id: ''
---
header: 
  seq: 89
  stamp: 
    secs: 23
    nsecs: 837000000
  frame_id: "map"
x: [-9.821659088134766, -9.717900276184082, -6.65349006652832, -6.59965705871582, -3.2853503227233887, -3.407738208770752, 0.48433923721313477, 0.49390122294425964, 4.107419967651367, 3.948279857635498, 7.68995475769043, 7.624042987823486, 11.007099151611328, 10.039935111999512, 13.846708297729492, 12.75062084197998, 15.49118709564209, 17.95670509338379]
y: [8.433815956115723, 12.981260299682617, 8.48759651184082, 13.08248233795166, 8.744789123535156, 13.514594078063965, 13.263566970825195, 8.3812255859375, 13.640557289123535, 8.492697715759277, 9.9856595993042, 14.976579666137695, 11.228263854980469, 16.112075805664062, 12.044709205627441, 17.259967803955078, 16.758909225463867, 15.541210174560547]
colour: [BIG, BIG, YELLOW, BLUE, YELLOW, BLUE, BLUE, YELLOW, BLUE, YELLOW, YELLOW, BLUE, YELLOW,
  BLUE, YELLOW, BLUE, BLUE, BLUE]
frame_id: ''
---
header: 
  seq: 90
  stamp: 
    secs: 24
    nsecs:  60000000
  frame_id: "map"
x: [-9.821659088134766, -9.717900276184082, -6.65349006652832, -6.59965705871582, -3.2853503227233887, -3.407738208770752, 0.4843394160270691, 0.49390146136283875, 4.107424736022949, 3.948284864425659, 7.690022945404053, 7.624204158782959, 11.007538795471191, 10.040576934814453, 13.860054016113281, 12.752288818359375, 15.49771499633789, 17.96385955810547]
y: [8.433815956115723, 12.981260299682617, 8.48759651184082, 13.08248233795166, 8.744789123535156, 13.514594078063965, 13.263566970825195, 8.3812255859375, 13.640552520751953, 8.492691993713379, 9.985579490661621, 14.976397514343262, 11.227775573730469, 16.111366271972656, 12.029073715209961, 17.259552001953125, 16.75165557861328, 15.536733627319336]
colour: [BIG, BIG, YELLOW, BLUE, YELLOW, BLUE, BLUE, YELLOW, BLUE, YELLOW, YELLOW, BLUE, YELLOW,
  BLUE, YELLOW, BLUE, BLUE, BLUE]
frame_id: ''
---
header: 
  seq: 91
  stamp: 
    secs: 24
    nsecs: 312000000
  frame_id: "map"
x: [-9.821659088134766, -9.717900276184082, -6.65349006652832, -6.59965705871582, -3.2853503227233887, -3.407738208770752, 0.4843396246433258, 0.49390169978141785, 4.107430458068848, 3.9482908248901367, 7.69010591506958, 7.624403476715088, 11.008102416992188, 10.041396141052246, 13.875850677490234, 12.756321907043457, 15.50809097290039, 17.965164184570312]
y: [8.433815956115723, 12.981260299682617, 8.48759651184082, 13.08248233795166, 8.744789123535156, 13.514594078063965, 13.263566970825195, 8.3812255859375, 13.640547752380371, 8.492687225341797, 9.985503196716309, 14.976221084594727, 11.22729778289795, 16.11067771911621, 12.014128684997559, 17.25868797302246, 16.744260787963867, 15.53538703918457]
colour: [BIG, BIG, YELLOW, BLUE, YELLOW, BLUE, BLUE, YELLOW, BLUE, YELLOW, YELLOW, BLUE, YELLOW,
  BLUE, YELLOW, BLUE, BLUE, BLUE]
frame_id: ''
---
header: 
  seq: 92
  stamp: 
    secs: 24
    nsecs: 584000000
  frame_id: "map"
x: [-9.821659088134766, -9.717900276184082, -6.65349006652832, -6.59965705871582, -3.2853503227233887, -3.407738208770752, 0.48433974385261536, 0.49390193819999695, 4.107435703277588, 3.948295831680298, 7.690173625946045, 7.624567031860352, 11.008527755737305, 10.041993141174316, 13.889339447021484, 12.758957862854004, 15.508199691772461, 17.97111701965332, 17.205141067504883]
y: [8.433815956115723, 12.981260299682617, 8.48759651184082, 13.08248233795166, 8.744789123535156, 13.514594078063965, 13.263566970825195, 8.3812255859375, 13.640542984008789, 8.492682456970215, 9.985432624816895, 14.976055145263672, 11.226872444152832, 16.110082626342773, 11.99991226196289, 17.257701873779297, 16.743541717529297, 15.53217601776123, 9.307170867919922]
colour: [BIG, BIG, YELLOW, BLUE, YELLOW, BLUE, BLUE, YELLOW, BLUE, YELLOW, YELLOW, BLUE, YELLOW,
  BLUE, YELLOW, BLUE, BLUE, BLUE, YELLOW]
frame_id: ''
---
header: 
  seq: 93
  stamp: 
    secs: 24
    nsecs: 793000000
  frame_id: "map"
x: [-9.821659088134766, -9.717900276184082, -6.65349006652832, -6.59965705871582, -3.2853503227233887, -3.407738208770752, 0.48434001207351685, 0.4939022660255432, 4.107443332672119, 3.9483039379119873, 7.6902875900268555, 7.624839782714844, 11.009236335754395, 10.042989730834961, 13.912270545959473, 12.76205825805664, 15.509310722351074, 17.980777740478516, 17.210792541503906]
y: [8.433815956115723, 12.981260299682617, 8.48759651184082, 13.08248233795166, 8.744789123535156, 13.514594078063965, 13.263566970825195, 8.3812255859375, 13.64053726196289, 8.492676734924316, 9.985337257385254, 14.975829124450684, 11.22629165649414, 16.109270095825195, 11.980356216430664, 17.256576538085938, 16.742664337158203, 15.527563095092773, 9.304731369018555]
colour: [BIG, BIG, YELLOW, BLUE, YELLOW, BLUE, BLUE, YELLOW, BLUE, YELLOW, YELLOW, BLUE, YELLOW,
  BLUE, YELLOW, BLUE, BLUE, BLUE, YELLOW]
frame_id: ''
---
header: 
  seq: 94
  stamp: 
    secs: 25
    nsecs:  53000000
  frame_id: "map"
x: [-9.821659088134766, -9.717900276184082, -6.65349006652832, -6.59965705871582, -3.2853503227233887, -3.407738208770752, 0.48434028029441833, 0.4939025938510895, 4.10745096206665, 3.9483118057250977, 7.690398693084717, 7.625106334686279, 11.009929656982422, 10.043967247009277, 13.934494018554688, 12.76547622680664, 15.510794639587402, 17.99026870727539, 17.2164249420166]
y: [8.433815956115723, 12.981260299682617, 8.48759651184082, 13.08248233795166, 8.744789123535156, 13.514594078063965, 13.263566970825195, 8.3812255859375, 13.640531539916992, 8.492671012878418, 9.985245704650879, 14.97561264038086, 11.225736618041992, 16.10849380493164, 11.961819648742676, 17.25520896911621, 16.741641998291016, 15.52358627319336, 9.30285358428955]
colour: [BIG, BIG, YELLOW, BLUE, YELLOW, BLUE, BLUE, YELLOW, BLUE, YELLOW, YELLOW, BLUE, YELLOW,
  BLUE, YELLOW, BLUE, BLUE, BLUE, YELLOW]
frame_id: ''
---
header: 
  seq: 95
  stamp: 
    secs: 25
    nsecs: 331000000
  frame_id: "map"
x: [-9.821659088134766, -9.717900276184082, -6.65349006652832, -6.59965705871582, -3.2853503227233887, -3.407738208770752, 0.4843405783176422, 0.4939030110836029, 4.107460021972656, 3.94832181930542, 7.690535545349121, 7.625439167022705, 11.010836601257324, 10.04527473449707, 13.960918426513672, 12.773002624511719, 15.518393516540527, 18.00994110107422, 17.218528747558594]
y: [8.433815956115723, 12.981260299682617, 8.48759651184082, 13.08248233795166, 8.744789123535156, 13.514594078063965, 13.263566970825195, 8.3812255859375, 13.640525817871094, 8.49266529083252, 9.985156059265137, 14.975400924682617, 11.225184440612793, 16.107715606689453, 11.943708419799805, 17.253524780273438, 16.739721298217773, 15.518284797668457, 9.301506042480469]
colour: [BIG, BIG, YELLOW, BLUE, YELLOW, BLUE, BLUE, YELLOW, BLUE, YELLOW, YELLOW, BLUE, YELLOW,
  BLUE, YELLOW, BLUE, BLUE, BLUE, YELLOW]
frame_id: ''
---
header: 
  seq: 96
  stamp: 
    secs: 25
    nsecs: 568000000
  frame_id: "map"
