header: 
  seq: 0
  stamp: 
    secs: 0
    nsecs:         0
  frame_id: "map"
x: [-13.0, -9.909917831420898, -7.001112937927246, -5.549516677856445, -3.5230629444122314]
y: [10.300000190734863, 10.678926467895508, 10.736093521118164, 10.752456665039062, 10.565757751464844]
v: [15.0, 8.137361526489258, 15.0, 15.0, 15.0]
---
header: 
  seq: 1
  stamp: 
    secs: 0
    nsecs:         0
  frame_id: "map"
x: [-13.0, -9.909917831420898, -7.001112937927246, -5.549516677856445, -3.5230629444122314]
y: [10.300000190734863, 10.678926467895508, 10.736093521118164, 10.752456665039062, 10.565757751464844]
v: [15.0, 8.137361526489258, 15.0, 15.0, 15.0]
---
header: 
  seq: 2
  stamp: 
    secs: 0
    nsecs:         0
  frame_id: "map"
x: [-13.0, -9.909917831420898, -7.001112937927246, -5.549516677856445, -3.5230629444122314]
y: [10.300000190734863, 10.678926467895508, 10.736093521118164, 10.752456665039062, 10.565757751464844]
v: [15.0, 8.137361526489258, 15.0, 15.0, 15.0]
---
header: 
  seq: 3
  stamp: 
    secs: 0
    nsecs:         0
  frame_id: "map"
x: [-13.0, -9.909917831420898, -7.001112937927246, -5.549516677856445, -3.5230629444122314]
y: [10.300000190734863, 10.678926467895508, 10.736093521118164, 10.752456665039062, 10.565757751464844]
v: [15.0, 8.137361526489258, 15.0, 15.0, 15.0]
---
header: 
  seq: 4
  stamp: 
    secs: 0
    nsecs:         0
  frame_id: "map"
x: [-13.0, -9.909917831420898, -7.001112937927246, -5.549516677856445, -3.5230629444122314]
y: [10.300000190734863, 10.678926467895508, 10.736093521118164, 10.752456665039062, 10.565757751464844]
v: [15.0, 8.137361526489258, 15.0, 15.0, 15.0]
---
header: 
  seq: 5
  stamp: 
    secs: 0
    nsecs:         0
  frame_id: "map"
x: [-13.0, -9.909917831420898, -7.001112937927246, -5.549516677856445, -3.5230629444122314]
y: [10.300000190734863, 10.678926467895508, 10.736093521118164, 10.752456665039062, 10.565757751464844]
v: [15.0, 8.137361526489258, 15.0, 15.0, 15.0]
---
header: 
  seq: 6
  stamp: 
    secs: 0
    nsecs:         0
  frame_id: "map"
x: [-13.0, -9.909917831420898, -7.001112937927246, -5.549516677856445, -3.5230629444122314]
y: [10.300000190734863, 10.678926467895508, 10.736093521118164, 10.752456665039062, 10.565757751464844]
v: [15.0, 8.137361526489258, 15.0, 15.0, 15.0]
---
header: 
  seq: 7
  stamp: 
    secs: 0
    nsecs:         0
  frame_id: "map"
x: [-13.0, -9.909917831420898, -7.001112937927246, -5.549516677856445, -3.5230629444122314]
y: [10.300000190734863, 10.678926467895508, 10.736093521118164, 10.752456665039062, 10.565757751464844]
v: [15.0, 8.137361526489258, 15.0, 15.0, 15.0]
---
header: 
  seq: 8
  stamp: 
    secs: 0
    nsecs:         0
  frame_id: "map"
x: [-13.0, -9.909917831420898, -7.001112937927246, -5.549516677856445, -3.5230629444122314]
y: [10.300000190734863, 10.678926467895508, 10.736093521118164, 10.752456665039062, 10.565757751464844]
v: [15.0, 8.137361526489258, 15.0, 15.0, 15.0]
---
header: 
  seq: 9
  stamp: 
    secs: 0
    nsecs:         0
  frame_id: "map"
x: [-13.0, -9.909917831420898, -7.001112937927246, -5.549516677856445, -3.5230629444122314]
y: [10.300000190734863, 10.678926467895508, 10.736093521118164, 10.752456665039062, 10.565757751464844]
v: [15.0, 8.137361526489258, 15.0, 15.0, 15.0]
---
header: 
  seq: 10
  stamp: 
    secs: 0
    nsecs:         0
  frame_id: "map"
x: [-13.0, -9.909917831420898, -7.001112937927246, -5.549516677856445, -3.5230629444122314]
y: [10.300000190734863, 10.678926467895508, 10.736093521118164, 10.752456665039062, 10.565757751464844]
v: [15.0, 8.137361526489258, 15.0, 15.0, 15.0]
---
header: 
  seq: 11
  stamp: 
    secs: 0
    nsecs:         0
  frame_id: "map"
x: [-13.0, -9.909917831420898, -7.001112937927246, -5.549516677856445, -3.5230629444122314]
y: [10.300000190734863, 10.678926467895508, 10.736093521118164, 10.752456665039062, 10.565757751464844]
v: [15.0, 8.137361526489258, 15.0, 15.0, 15.0]
---
header: 
  seq: 12
  stamp: 
    secs: 0
    nsecs:         0
  frame_id: "map"
x: [-13.0, -9.909917831420898, -7.001112937927246, -5.549516677856445, -3.5230629444122314]
y: [10.300000190734863, 10.678926467895508, 10.736093521118164, 10.752456665039062, 10.565757751464844]
v: [15.0, 8.137361526489258, 15.0, 15.0, 15.0]
---
header: 
  seq: 13
  stamp: 
    secs: 0
    nsecs:         0
  frame_id: "map"
x: [-13.0, -9.909917831420898, -7.001112937927246, -5.549516677856445, -3.5230629444122314]
y: [10.300000190734863, 10.678926467895508, 10.736093521118164, 10.752456665039062, 10.565757751464844]
v: [15.0, 8.137361526489258, 15.0, 15.0, 15.0]
---
header: 
  seq: 14
  stamp: 
    secs: 0
    nsecs:         0
  frame_id: "map"
x: [-13.0, -9.909917831420898, -7.001112937927246, -5.549516677856445, -3.5230629444122314]
y: [10.300000190734863, 10.678926467895508, 10.736093521118164, 10.752456665039062, 10.565757751464844]
v: [15.0, 8.137361526489258, 15.0, 15.0, 15.0]
---
header: 
  seq: 15
  stamp: 
    secs: 0
    nsecs:         0
  frame_id: "map"
x: [-13.0, -9.909917831420898, -7.001112937927246, -5.549516677856445, -3.5230629444122314]
y: [10.300000190734863, 10.678926467895508, 10.736093521118164, 10.752456665039062, 10.565757751464844]
v: [15.0, 8.137361526489258, 15.0, 15.0, 15.0]
---
header: 
  seq: 16
  stamp: 
    secs: 0
    nsecs:         0
  frame_id: "map"
x: [-13.0, -9.909917831420898, -7.001112937927246, -5.549516677856445, -3.5230629444122314]
y: [10.300000190734863, 10.678926467895508, 10.736093521118164, 10.752456665039062, 10.565757751464844]
v: [15.0, 8.137361526489258, 15.0, 15.0, 15.0]
---
header: 
  seq: 17
  stamp: 
    secs: 0
    nsecs:         0
  frame_id: "map"
x: [-13.0, -9.909917831420898, -7.001112937927246, -5.549516677856445, -3.5230629444122314]
y: [10.300000190734863, 10.678926467895508, 10.736093521118164, 10.752456665039062, 10.565757751464844]
v: [15.0, 8.137361526489258, 15.0, 15.0, 15.0]
---
header: 
  seq: 18
  stamp: 
    secs: 0
    nsecs:         0
  frame_id: "map"
x: [-13.0, -9.909917831420898, -7.001112937927246, -5.549516677856445, -3.5230629444122314]
y: [10.300000190734863, 10.678926467895508, 10.736093521118164, 10.752456665039062, 10.565757751464844]
v: [15.0, 8.137361526489258, 15.0, 15.0, 15.0]
---
header: 
  seq: 19
  stamp: 
    secs: 0
    nsecs:         0
  frame_id: "map"
x: [-13.0, -9.909917831420898, -7.001112937927246, -5.549516677856445, -3.5230629444122314]
y: [10.300000190734863, 10.678926467895508, 10.736093521118164, 10.752456665039062, 10.565757751464844]
v: [15.0, 8.137361526489258, 15.0, 15.0, 15.0]
---
header: 
  seq: 20
  stamp: 
    secs: 0
    nsecs:         0
  frame_id: "map"
x: [-13.0, -9.909917831420898, -7.001112937927246, -5.549516677856445, -3.5230629444122314]
y: [10.300000190734863, 10.678926467895508, 10.736093521118164, 10.752456665039062, 10.565757751464844]
v: [15.0, 8.137361526489258, 15.0, 15.0, 15.0]
---
header: 
  seq: 21
  stamp: 
    secs: 0
    nsecs:         0
  frame_id: "map"
x: [-13.0, -9.909917831420898, -7.001112937927246, -5.549516677856445, -3.5230629444122314, 0.23329943418502808]
y: [10.300000190734863, 10.678926467895508, 10.736093521118164, 10.752456665039062, 10.565757751464844, 10.619335174560547]
v: [15.0, 8.137361526489258, 15.0, 15.0, 15.0, 9.33731460571289]
---
header: 
  seq: 22
  stamp: 
    secs: 0
    nsecs:         0
  frame_id: "map"
x: [-13.0, -9.909917831420898, -7.001112937927246, -5.549516677856445, -3.5230629444122314, 0.23329943418502808]
y: [10.300000190734863, 10.678926467895508, 10.736093521118164, 10.752456665039062, 10.565757751464844, 10.619335174560547]
v: [15.0, 8.137361526489258, 15.0, 15.0, 15.0, 9.33731460571289]
---
header: 
  seq: 23
  stamp: 
    secs: 0
    nsecs:         0
  frame_id: "map"
x: [-13.0, -9.909917831420898, -7.001112937927246, -5.549516677856445, -3.5230629444122314, 0.23329943418502808]
y: [10.300000190734863, 10.678926467895508, 10.736093521118164, 10.752456665039062, 10.565757751464844, 10.619335174560547]
v: [15.0, 8.137361526489258, 15.0, 15.0, 15.0, 9.33731460571289]
---
header: 
  seq: 24
  stamp: 
    secs: 0
    nsecs:         0
  frame_id: "map"
x: [-13.0, -9.909917831420898, -7.001112937927246, -5.549516677856445, -3.5230629444122314, 0.23329943418502808]
y: [10.300000190734863, 10.678926467895508, 10.736093521118164, 10.752456665039062, 10.565757751464844, 10.619335174560547]
v: [15.0, 8.137361526489258, 15.0, 15.0, 15.0, 9.33731460571289]
---
header: 
  seq: 25
  stamp: 
    secs: 0
    nsecs:         0
  frame_id: "map"
x: [-13.0, -9.909917831420898, -7.001112937927246, -5.549516677856445, -3.5230629444122314, 0.23329943418502808]
y: [10.300000190734863, 10.678926467895508, 10.736093521118164, 10.752456665039062, 10.565757751464844, 10.619335174560547]
v: [15.0, 8.137361526489258, 15.0, 15.0, 15.0, 9.33731460571289]
---
header: 
  seq: 26
  stamp: 
    secs: 0
    nsecs:         0
  frame_id: "map"
x: [-13.0, -9.909917831420898, -7.001112937927246, -5.549516677856445, -3.5230629444122314, 0.23329943418502808]
y: [10.300000190734863, 10.678926467895508, 10.736093521118164, 10.752456665039062, 10.565757751464844, 10.619335174560547]
v: [15.0, 8.137361526489258, 15.0, 15.0, 15.0, 9.33731460571289]
---
header: 
  seq: 27
  stamp: 
    secs: 0
    nsecs:         0
  frame_id: "map"
x: [-13.0, -9.909917831420898, -7.001112937927246, -5.549516677856445, -3.5230629444122314, 0.23329943418502808]
y: [10.300000190734863, 10.678926467895508, 10.736093521118164, 10.752456665039062, 10.565757751464844, 10.619335174560547]
v: [15.0, 8.137361526489258, 15.0, 15.0, 15.0, 9.33731460571289]
---
header: 
  seq: 28
  stamp: 
    secs: 0
    nsecs:         0
  frame_id: "map"
x: [-13.0, -9.909917831420898, -7.001112937927246, -5.549516677856445, -3.5230629444122314, 0.23329943418502808]
y: [10.300000190734863, 10.678926467895508, 10.736093521118164, 10.752456665039062, 10.565757751464844, 10.619335174560547]
v: [15.0, 8.137361526489258, 15.0, 15.0, 15.0, 9.33731460571289]
---
header: 
  seq: 29
  stamp: 
    secs: 0
    nsecs:         0
  frame_id: "map"
x: [-13.0, -9.909917831420898, -7.001112937927246, -5.549516677856445, -3.5230629444122314, 0.23329943418502808]
y: [10.300000190734863, 10.678926467895508, 10.736093521118164, 10.752456665039062, 10.565757751464844, 10.619335174560547]
v: [15.0, 8.137361526489258, 15.0, 15.0, 15.0, 9.33731460571289]
---
header: 
  seq: 30
  stamp: 
    secs: 0
    nsecs:         0
  frame_id: "map"
x: [-13.0, -9.909917831420898, -7.001112937927246, -5.549516677856445, -3.5230629444122314, 0.23329943418502808]
y: [10.300000190734863, 10.678926467895508, 10.736093521118164, 10.752456665039062, 10.565757751464844, 10.619335174560547]
v: [15.0, 8.137361526489258, 15.0, 15.0, 15.0, 9.33731460571289]
---
header: 
  seq: 31
  stamp: 
    secs: 0
    nsecs:         0
  frame_id: "map"
x: [-13.0, -9.909917831420898, -7.001112937927246, -5.549516677856445, -3.5230629444122314, 0.23329943418502808]
y: [10.300000190734863, 10.678926467895508, 10.736093521118164, 10.752456665039062, 10.565757751464844, 10.619335174560547]
v: [15.0, 8.137361526489258, 15.0, 15.0, 15.0, 9.33731460571289]
---
header: 
  seq: 32
  stamp: 
    secs: 0
    nsecs:         0
  frame_id: "map"
x: [-13.0, -9.909917831420898, -7.001112937927246, -5.549516677856445, -3.5230629444122314, 0.23329943418502808]
y: [10.300000190734863, 10.678926467895508, 10.736093521118164, 10.752456665039062, 10.565757751464844, 10.619335174560547]
v: [15.0, 8.137361526489258, 15.0, 15.0, 15.0, 9.33731460571289]
---
header: 
  seq: 33
  stamp: 
    secs: 0
    nsecs:         0
  frame_id: "map"
x: [-13.0, -9.909917831420898, -7.001112937927246, -5.549516677856445, -3.5230629444122314, 0.23329943418502808]
y: [10.300000190734863, 10.678926467895508, 10.736093521118164, 10.752456665039062, 10.565757751464844, 10.619335174560547]
v: [15.0, 8.137361526489258, 15.0, 15.0, 15.0, 9.33731460571289]
---
header: 
  seq: 34
  stamp: 
    secs: 0
    nsecs:         0
  frame_id: "map"
x: [-13.0, -9.909917831420898, -7.001112937927246, -5.549516677856445, -3.5230629444122314, 0.23329943418502808]
y: [10.300000190734863, 10.678926467895508, 10.736093521118164, 10.752456665039062, 10.565757751464844, 10.619335174560547]
v: [15.0, 8.137361526489258, 15.0, 15.0, 15.0, 9.33731460571289]
---
header: 
  seq: 35
  stamp: 
    secs: 0
    nsecs:         0
  frame_id: "map"
x: [-13.0, -9.909917831420898, -7.001112937927246, -5.549516677856445, -3.5230629444122314, 0.23329943418502808]
y: [10.300000190734863, 10.678926467895508, 10.736093521118164, 10.752456665039062, 10.565757751464844, 10.619335174560547]
v: [15.0, 8.137361526489258, 15.0, 15.0, 15.0, 9.33731460571289]
---
header: 
  seq: 36
  stamp: 
    secs: 0
    nsecs:         0
  frame_id: "map"
x: [-13.0, -9.909917831420898, -7.001112937927246, -5.549516677856445, -3.5230629444122314, 0.23329943418502808]
y: [10.300000190734863, 10.678926467895508, 10.736093521118164, 10.752456665039062, 10.565757751464844, 10.619335174560547]
v: [15.0, 8.137361526489258, 15.0, 15.0, 15.0, 9.33731460571289]
---
header: 
  seq: 37
  stamp: 
    secs: 0
    nsecs:         0
  frame_id: "map"
x: [-13.0, -9.909917831420898, -7.001112937927246, -5.549516677856445, -3.5230629444122314, 0.23329943418502808]
y: [10.300000190734863, 10.678926467895508, 10.736093521118164, 10.752456665039062, 10.565757751464844, 10.619335174560547]
v: [15.0, 8.137361526489258, 15.0, 15.0, 15.0, 9.33731460571289]
---
header: 
  seq: 38
  stamp: 
    secs: 0
    nsecs:         0
  frame_id: "map"
x: [-13.0, -9.909917831420898, -7.001112937927246, -5.549516677856445, -3.5230629444122314, 0.23329943418502808]
y: [10.300000190734863, 10.678926467895508, 10.736093521118164, 10.752456665039062, 10.565757751464844, 10.619335174560547]
v: [15.0, 8.137361526489258, 15.0, 15.0, 15.0, 9.33731460571289]
---
header: 
  seq: 39
  stamp: 
    secs: 0
    nsecs:         0
  frame_id: "map"
x: [-13.0, -9.909917831420898, -7.001112937927246, -5.549516677856445, -3.5230629444122314, 0.23329943418502808]
y: [10.300000190734863, 10.678926467895508, 10.736093521118164, 10.752456665039062, 10.565757751464844, 10.619335174560547]
v: [15.0, 8.137361526489258, 15.0, 15.0, 15.0, 9.33731460571289]
---
header: 
  seq: 40
  stamp: 
    secs: 0
    nsecs:         0
  frame_id: "map"
x: [-13.0, -9.909917831420898, -7.001112937927246, -5.549516677856445, -3.5230629444122314, 0.23329943418502808]
y: [10.300000190734863, 10.678926467895508, 10.736093521118164, 10.752456665039062, 10.565757751464844, 10.619335174560547]
v: [15.0, 8.137361526489258, 15.0, 15.0, 15.0, 9.33731460571289]
---
header: 
  seq: 41
  stamp: 
    secs: 0
    nsecs:         0
  frame_id: "map"
x: [-13.0, -9.909917831420898, -7.001112937927246, -5.549516677856445, -3.5230629444122314, 0.23329943418502808]
y: [10.300000190734863, 10.678926467895508, 10.736093521118164, 10.752456665039062, 10.565757751464844, 10.619335174560547]
v: [15.0, 8.137361526489258, 15.0, 15.0, 15.0, 9.33731460571289]
---
header: 
  seq: 42
  stamp: 
    secs: 0
    nsecs:         0
  frame_id: "map"
x: [-13.0, -9.909917831420898, -7.001112937927246, -5.549516677856445, -3.5230629444122314, 0.23329943418502808]
y: [10.300000190734863, 10.678926467895508, 10.736093521118164, 10.752456665039062, 10.565757751464844, 10.619335174560547]
v: [15.0, 8.137361526489258, 15.0, 15.0, 15.0, 9.33731460571289]
---
header: 
  seq: 43
  stamp: 
    secs: 0
    nsecs:         0
  frame_id: "map"
x: [-13.0, -9.909917831420898, -7.001112937927246, -5.549516677856445, -3.5230629444122314, 0.23329943418502808]
y: [10.300000190734863, 10.678926467895508, 10.736093521118164, 10.752456665039062, 10.565757751464844, 10.619335174560547]
v: [15.0, 8.137361526489258, 15.0, 15.0, 15.0, 9.33731460571289]
---
header: 
  seq: 44
  stamp: 
    secs: 0
    nsecs:         0
  frame_id: "map"
x: [-13.0, -9.909917831420898, -7.001112937927246, -5.549516677856445, -3.5230629444122314, 0.23329943418502808, 2.254772901535034, 4.066415786743164]
y: [10.300000190734863, 10.678926467895508, 10.736093521118164, 10.752456665039062, 10.565757751464844, 10.619335174560547, 10.942018508911133, 11.547760963439941]
v: [15.0, 8.137361526489258, 15.0, 15.0, 15.0, 13.828402519226074, 13.18755054473877, 7.962464809417725]
---
header: 
  seq: 45
  stamp: 
    secs: 0
    nsecs:         0
  frame_id: "map"
x: [-13.0, -9.909917831420898, -7.001112937927246, -5.549516677856445, -3.5230629444122314, 0.23329943418502808, 2.254772901535034, 4.066415786743164]
y: [10.300000190734863, 10.678926467895508, 10.736093521118164, 10.752456665039062, 10.565757751464844, 10.619335174560547, 10.942018508911133, 11.547760963439941]
v: [15.0, 8.137361526489258, 15.0, 15.0, 15.0, 13.828402519226074, 13.18755054473877, 7.962464809417725]
---
header: 
  seq: 46
  stamp: 
    secs: 0
    nsecs:         0
  frame_id: "map"
x: [-13.0, -9.909917831420898, -7.001112937927246, -5.549516677856445, -3.5230629444122314, 0.23329943418502808, 2.254772901535034, 4.066415786743164, 7.60843563079834]
y: [10.300000190734863, 10.678926467895508, 10.736093521118164, 10.752456665039062, 10.565757751464844, 10.619335174560547, 10.942018508911133, 11.547760963439941, 12.449981689453125]
v: [15.0, 8.137361526489258, 15.0, 15.0, 15.0, 13.828402519226074, 13.18755054473877, 14.126449584960938, 9.635361671447754]
---
header: 
  seq: 47
  stamp: 
    secs: 0
    nsecs:         0
  frame_id: "map"
x: [-13.0, -9.909917831420898, -7.001112937927246, -5.549516677856445, -3.5230629444122314, 0.23329943418502808, 2.254772901535034, 4.066415786743164, 7.60843563079834]
y: [10.300000190734863, 10.678926467895508, 10.736093521118164, 10.752456665039062, 10.565757751464844, 10.619335174560547, 10.942018508911133, 11.547760963439941, 12.449981689453125]
v: [15.0, 8.137361526489258, 15.0, 15.0, 15.0, 13.828402519226074, 13.18755054473877, 14.126449584960938, 9.635361671447754]
---
header: 
  seq: 48
  stamp: 
    secs: 0
    nsecs:         0
  frame_id: "map"
x: [-13.0, -9.909917831420898, -7.001112937927246, -5.549516677856445, -3.5230629444122314, 0.23329943418502808, 2.254772901535034, 4.066415786743164, 7.60843563079834]
y: [10.300000190734863, 10.678926467895508, 10.736093521118164, 10.752456665039062, 10.565757751464844, 10.619335174560547, 10.942018508911133, 11.547760963439941, 12.449981689453125]
v: [15.0, 8.137361526489258, 15.0, 15.0, 15.0, 13.828402519226074, 13.18755054473877, 14.126449584960938, 9.635361671447754]
---
header: 
  seq: 49
  stamp: 
    secs: 0
    nsecs:         0
  frame_id: "map"
x: [-13.0, -9.909917831420898, -7.001112937927246, -5.549516677856445, -3.5230629444122314, 0.23329943418502808, 2.254772901535034, 4.066415786743164, 7.60843563079834]
y: [10.300000190734863, 10.678926467895508, 10.736093521118164, 10.752456665039062, 10.565757751464844, 10.619335174560547, 10.942018508911133, 11.547760963439941, 12.449981689453125]
v: [15.0, 8.137361526489258, 15.0, 15.0, 15.0, 13.828402519226074, 13.18755054473877, 14.126449584960938, 9.635361671447754]
---
header: 
  seq: 50
  stamp: 
    secs: 0
    nsecs:         0
  frame_id: "map"
x: [-13.0, -9.909917831420898, -7.001112937927246, -5.549516677856445, -3.5230629444122314, 0.23329943418502808, 2.254772901535034, 4.066415786743164, 7.60843563079834, 9.224599838256836]
y: [10.300000190734863, 10.678926467895508, 10.736093521118164, 10.752456665039062, 10.565757751464844, 10.619335174560547, 10.942018508911133, 11.547760963439941, 12.449981689453125, 13.213237762451172]
v: [15.0, 8.137361526489258, 15.0, 15.0, 15.0, 13.828402519226074, 13.18755054473877, 14.126449584960938, 13.405967712402344, 9.934591293334961]
---
header: 
  seq: 51
  stamp: 
    secs: 0
    nsecs:         0
  frame_id: "map"
x: [-13.0, -9.909917831420898, -7.001112937927246, -5.549516677856445, -3.5230629444122314, 0.23329943418502808, 2.254772901535034, 4.066415786743164, 7.60843563079834, 9.224599838256836]
y: [10.300000190734863, 10.678926467895508, 10.736093521118164, 10.752456665039062, 10.565757751464844, 10.619335174560547, 10.942018508911133, 11.547760963439941, 12.449981689453125, 13.213237762451172]
v: [15.0, 8.137361526489258, 15.0, 15.0, 15.0, 13.828402519226074, 13.18755054473877, 14.126449584960938, 13.405967712402344, 9.934591293334961]
---
header: 
  seq: 52
  stamp: 
    secs: 0
    nsecs:         0
  frame_id: "map"
x: [-13.0, -9.909917831420898, -7.001112937927246, -5.549516677856445, -3.5230629444122314, 0.23329943418502808, 2.254772901535034, 4.066415786743164, 7.60843563079834, 9.224599838256836, 10.370935440063477]
y: [10.300000190734863, 10.678926467895508, 10.736093521118164, 10.752456665039062, 10.565757751464844, 10.619335174560547, 10.942018508911133, 11.547760963439941, 12.449981689453125, 13.213237762451172, 13.981403350830078]
v: [15.0, 8.137361526489258, 15.0, 15.0, 15.0, 13.828402519226074, 13.18755054473877, 14.126449584960938, 13.405967712402344, 13.194478034973145, 7.030493259429932]
---
header: 
  seq: 53
  stamp: 
    secs: 0
    nsecs:         0
  frame_id: "map"
x: [-13.0, -9.909917831420898, -7.001112937927246, -5.549516677856445, -3.5230629444122314, 0.23329943418502808, 2.254772901535034, 4.066415786743164, 7.60843563079834, 9.224599838256836, 10.370935440063477]
y: [10.300000190734863, 10.678926467895508, 10.736093521118164, 10.752456665039062, 10.565757751464844, 10.619335174560547, 10.942018508911133, 11.547760963439941, 12.449981689453125, 13.213237762451172, 13.981403350830078]
v: [15.0, 8.137361526489258, 15.0, 15.0, 15.0, 13.828402519226074, 13.18755054473877, 14.126449584960938, 13.405967712402344, 13.194478034973145, 7.030493259429932]
---
header: 
  seq: 54
  stamp: 
    secs: 0
    nsecs:         0
  frame_id: "map"
x: [-13.0, -9.909917831420898, -7.001112937927246, -5.549516677856445, -3.5230629444122314, 0.23329943418502808, 2.254772901535034, 4.066415786743164, 7.60843563079834, 9.224599838256836, 10.370935440063477]
y: [10.300000190734863, 10.678926467895508, 10.736093521118164, 10.752456665039062, 10.565757751464844, 10.619335174560547, 10.942018508911133, 11.547760963439941, 12.449981689453125, 13.213237762451172, 13.981403350830078]
v: [15.0, 8.137361526489258, 15.0, 15.0, 15.0, 13.828402519226074, 13.18755054473877, 14.126449584960938, 13.405967712402344, 13.194478034973145, 7.030493259429932]
---
header: 
  seq: 55
  stamp: 
    secs: 0
    nsecs:         0
  frame_id: "map"
x: [-13.0, -9.909917831420898, -7.001112937927246, -5.549516677856445, -3.5230629444122314, 0.23329943418502808, 2.254772901535034, 4.066415786743164, 7.60843563079834, 9.224599838256836, 10.370935440063477]
y: [10.300000190734863, 10.678926467895508, 10.736093521118164, 10.752456665039062, 10.565757751464844, 10.619335174560547, 10.942018508911133, 11.547760963439941, 12.449981689453125, 13.213237762451172, 13.981403350830078]
v: [15.0, 8.137361526489258, 15.0, 15.0, 15.0, 13.828402519226074, 13.18755054473877, 14.126449584960938, 13.405967712402344, 13.194478034973145, 7.030493259429932]
---
header: 
  seq: 56
  stamp: 
    secs: 0
    nsecs:         0
  frame_id: "map"
x: [-13.0, -9.909917831420898, -7.001112937927246, -5.549516677856445, -3.5230629444122314, 0.23329943418502808, 2.254772901535034, 4.066415786743164, 7.60843563079834, 9.224599838256836, 10.370935440063477]
y: [10.300000190734863, 10.678926467895508, 10.736093521118164, 10.752456665039062, 10.565757751464844, 10.619335174560547, 10.942018508911133, 11.547760963439941, 12.449981689453125, 13.213237762451172, 13.981403350830078]
v: [15.0, 8.137361526489258, 15.0, 15.0, 15.0, 13.828402519226074, 13.18755054473877, 14.126449584960938, 13.405967712402344, 13.194478034973145, 7.030493259429932]
---
header: 
  seq: 57
  stamp: 
    secs: 0
    nsecs:         0
  frame_id: "map"
x: [-13.0, -9.909917831420898, -7.001112937927246, -5.549516677856445, -3.5230629444122314, 0.23329943418502808, 2.254772901535034, 4.066415786743164, 7.60843563079834, 9.224599838256836, 10.370935440063477]
y: [10.300000190734863, 10.678926467895508, 10.736093521118164, 10.752456665039062, 10.565757751464844, 10.619335174560547, 10.942018508911133, 11.547760963439941, 12.449981689453125, 13.213237762451172, 13.981403350830078]
v: [15.0, 8.137361526489258, 15.0, 15.0, 15.0, 13.828402519226074, 13.18755054473877, 14.126449584960938, 13.405967712402344, 13.194478034973145, 7.030493259429932]
---
header: 
  seq: 58
  stamp: 
    secs: 0
    nsecs:         0
  frame_id: "map"
x: [-13.0, -9.909917831420898, -7.001112937927246, -5.549516677856445, -3.5230629444122314, 0.23329943418502808, 2.254772901535034, 4.066415786743164, 7.60843563079834, 9.224599838256836, 10.370935440063477]
y: [10.300000190734863, 10.678926467895508, 10.736093521118164, 10.752456665039062, 10.565757751464844, 10.619335174560547, 10.942018508911133, 11.547760963439941, 12.449981689453125, 13.213237762451172, 13.981403350830078]
v: [15.0, 8.137361526489258, 15.0, 15.0, 15.0, 13.828402519226074, 13.18755054473877, 14.126449584960938, 13.405967712402344, 13.194478034973145, 7.030493259429932]
---
header: 
  seq: 59
  stamp: 
    secs: 0
    nsecs:         0
  frame_id: "map"
x: [-13.0, -9.909917831420898, -7.001112937927246, -5.549516677856445, -3.5230629444122314, 0.23329943418502808, 2.254772901535034, 4.066415786743164, 7.60843563079834, 9.224599838256836, 10.370935440063477]
y: [10.300000190734863, 10.678926467895508, 10.736093521118164, 10.752456665039062, 10.565757751464844, 10.619335174560547, 10.942018508911133, 11.547760963439941, 12.449981689453125, 13.213237762451172, 13.981403350830078]
v: [15.0, 8.137361526489258, 15.0, 15.0, 15.0, 13.828402519226074, 13.18755054473877, 14.126449584960938, 13.405967712402344, 13.194478034973145, 7.030493259429932]
---
header: 
  seq: 60
  stamp: 
    secs: 0
    nsecs:         0
  frame_id: "map"
x: [-13.0, -9.909917831420898, -7.001112937927246, -5.549516677856445, -3.5230629444122314, 0.23329943418502808, 2.254772901535034, 4.066415786743164, 7.60843563079834, 9.224599838256836, 10.370935440063477]
y: [10.300000190734863, 10.678926467895508, 10.736093521118164, 10.752456665039062, 10.565757751464844, 10.619335174560547, 10.942018508911133, 11.547760963439941, 12.449981689453125, 13.213237762451172, 13.981403350830078]
v: [15.0, 8.137361526489258, 15.0, 15.0, 15.0, 13.828402519226074, 13.18755054473877, 14.126449584960938, 13.405967712402344, 13.194478034973145, 7.030493259429932]
---
header: 
  seq: 61
  stamp: 
    secs: 0
    nsecs:         0
  frame_id: "map"
x: [-13.0, -9.909917831420898, -7.001112937927246, -5.549516677856445, -3.5230629444122314, 0.23329943418502808, 2.254772901535034, 4.066415786743164, 7.60843563079834, 9.224599838256836, 10.370935440063477]
y: [10.300000190734863, 10.678926467895508, 10.736093521118164, 10.752456665039062, 10.565757751464844, 10.619335174560547, 10.942018508911133, 11.547760963439941, 12.449981689453125, 13.213237762451172, 13.981403350830078]
v: [15.0, 8.137361526489258, 15.0, 15.0, 15.0, 13.828402519226074, 13.18755054473877, 14.126449584960938, 13.405967712402344, 13.194478034973145, 7.030493259429932]
---
header: 
  seq: 62
  stamp: 
    secs: 0
    nsecs:         0
  frame_id: "map"
x: [-13.0, -9.909917831420898, -7.001112937927246, -5.549516677856445, -3.5230629444122314, 0.23329943418502808, 2.254772901535034, 4.066415786743164, 7.60843563079834, 9.224599838256836, 10.370935440063477]
y: [10.300000190734863, 10.678926467895508, 10.736093521118164, 10.752456665039062, 10.565757751464844, 10.619335174560547, 10.942018508911133, 11.547760963439941, 12.449981689453125, 13.213237762451172, 13.981403350830078]
v: [15.0, 8.137361526489258, 15.0, 15.0, 15.0, 13.828402519226074, 13.18755054473877, 14.126449584960938, 13.405967712402344, 13.194478034973145, 7.030493259429932]
---
header: 
  seq: 63
  stamp: 
    secs: 0
    nsecs:         0
  frame_id: "map"
x: [-13.0, -9.909917831420898, -7.001112937927246, -5.549516677856445, -3.5230629444122314, 0.23329943418502808, 2.254772901535034, 4.066415786743164, 7.60843563079834, 9.224599838256836, 10.370935440063477]
y: [10.300000190734863, 10.678926467895508, 10.736093521118164, 10.752456665039062, 10.565757751464844, 10.619335174560547, 10.942018508911133, 11.547760963439941, 12.449981689453125, 13.213237762451172, 13.981403350830078]
v: [15.0, 8.137361526489258, 15.0, 15.0, 15.0, 13.828402519226074, 13.18755054473877, 14.126449584960938, 13.405967712402344, 13.194478034973145, 7.030493259429932]
---
header: 
  seq: 64
  stamp: 
    secs: 0
    nsecs:         0
  frame_id: "map"
x: [-13.0, -9.909917831420898, -7.001112937927246, -5.549516677856445, -3.5230629444122314, 0.23329943418502808, 2.254772901535034, 4.066415786743164, 7.60843563079834, 9.224599838256836, 10.370935440063477, 12.055679321289062]
y: [10.300000190734863, 10.678926467895508, 10.736093521118164, 10.752456665039062, 10.565757751464844, 10.619335174560547, 10.942018508911133, 11.547760963439941, 12.449981689453125, 13.213237762451172, 13.981403350830078, 14.257451057434082]
v: [15.0, 8.137361526489258, 15.0, 15.0, 15.0, 13.828402519226074, 13.18755054473877, 14.126449584960938, 13.405967712402344, 13.194478034973145, 8.937148094177246, 5.16654109954834]
---
header: 
  seq: 65
  stamp: 
    secs: 0
    nsecs:         0
  frame_id: "map"
x: [-13.0, -9.909917831420898, -7.001112937927246, -5.549516677856445, -3.5230629444122314, 0.23329943418502808, 2.254772901535034, 4.066415786743164, 7.60843563079834, 9.224599838256836, 10.370935440063477, 12.055679321289062]
y: [10.300000190734863, 10.678926467895508, 10.736093521118164, 10.752456665039062, 10.565757751464844, 10.619335174560547, 10.942018508911133, 11.547760963439941, 12.449981689453125, 13.213237762451172, 13.981403350830078, 14.257451057434082]
v: [15.0, 8.137361526489258, 15.0, 15.0, 15.0, 13.828402519226074, 13.18755054473877, 14.126449584960938, 13.405967712402344, 13.194478034973145, 8.937148094177246, 5.16654109954834]
---
header: 
  seq: 66
  stamp: 
    secs: 0
    nsecs:         0
  frame_id: "map"
x: [-13.0, -9.909917831420898, -7.001112937927246, -5.549516677856445, -3.5230629444122314, 0.23329943418502808, 2.254772901535034, 4.066415786743164, 7.60843563079834, 9.224599838256836, 10.370935440063477, 12.055679321289062]
y: [10.300000190734863, 10.678926467895508, 10.736093521118164, 10.752456665039062, 10.565757751464844, 10.619335174560547, 10.942018508911133, 11.547760963439941, 12.449981689453125, 13.213237762451172, 13.981403350830078, 14.257451057434082]
v: [15.0, 8.137361526489258, 15.0, 15.0, 15.0, 13.828402519226074, 13.18755054473877, 14.126449584960938, 13.405967712402344, 13.194478034973145, 8.937148094177246, 5.16654109954834]
---
header: 
  seq: 67
  stamp: 
    secs: 0
    nsecs:         0
  frame_id: "map"
x: [-13.0, -9.909917831420898, -7.001112937927246, -5.549516677856445, -3.5230629444122314, 0.23329943418502808, 2.254772901535034, 4.066415786743164, 7.60843563079834, 9.224599838256836, 10.370935440063477, 12.055679321289062]
y: [10.300000190734863, 10.678926467895508, 10.736093521118164, 10.752456665039062, 10.565757751464844, 10.619335174560547, 10.942018508911133, 11.547760963439941, 12.449981689453125, 13.213237762451172, 13.981403350830078, 14.257451057434082]
v: [15.0, 8.137361526489258, 15.0, 15.0, 15.0, 13.828402519226074, 13.18755054473877, 14.126449584960938, 13.405967712402344, 13.194478034973145, 8.937148094177246, 5.16654109954834]
---
header: 
  seq: 68
  stamp: 
    secs: 0
    nsecs:         0
  frame_id: "map"
x: [-13.0, -9.909917831420898, -7.001112937927246, -5.549516677856445, -3.5230629444122314, 0.23329943418502808, 2.254772901535034, 4.066415786743164, 7.60843563079834, 9.224599838256836, 10.370935440063477, 12.055679321289062]
y: [10.300000190734863, 10.678926467895508, 10.736093521118164, 10.752456665039062, 10.565757751464844, 10.619335174560547, 10.942018508911133, 11.547760963439941, 12.449981689453125, 13.213237762451172, 13.981403350830078, 14.257451057434082]
v: [15.0, 8.137361526489258, 15.0, 15.0, 15.0, 13.828402519226074, 13.18755054473877, 14.126449584960938, 13.405967712402344, 13.194478034973145, 8.937148094177246, 5.16654109954834]
---
header: 
  seq: 69
  stamp: 
    secs: 0
    nsecs:         0
  frame_id: "map"
x: [-13.0, -9.909917831420898, -7.001112937927246, -5.549516677856445, -3.5230629444122314, 0.23329943418502808, 2.254772901535034, 4.066415786743164, 7.60843563079834, 9.224599838256836, 10.370935440063477, 12.055679321289062]
y: [10.300000190734863, 10.678926467895508, 10.736093521118164, 10.752456665039062, 10.565757751464844, 10.619335174560547, 10.942018508911133, 11.547760963439941, 12.449981689453125, 13.213237762451172, 13.981403350830078, 14.257451057434082]
v: [15.0, 8.137361526489258, 15.0, 15.0, 15.0, 13.828402519226074, 13.18755054473877, 14.126449584960938, 13.405967712402344, 13.194478034973145, 8.937148094177246, 5.16654109954834]
---
header: 
  seq: 70
  stamp: 
    secs: 0
    nsecs:         0
  frame_id: "map"
x: [-13.0, -9.909917831420898, -7.001112937927246, -5.549516677856445, -3.5230629444122314, 0.23329943418502808, 2.254772901535034, 4.066415786743164, 7.60843563079834, 9.224599838256836, 10.370935440063477, 12.055679321289062]
y: [10.300000190734863, 10.678926467895508, 10.736093521118164, 10.752456665039062, 10.565757751464844, 10.619335174560547, 10.942018508911133, 11.547760963439941, 12.449981689453125, 13.213237762451172, 13.981403350830078, 14.257451057434082]
v: [15.0, 8.137361526489258, 15.0, 15.0, 15.0, 13.828402519226074, 13.18755054473877, 14.126449584960938, 13.405967712402344, 13.194478034973145, 8.937148094177246, 5.16654109954834]
---
header: 
  seq: 71
  stamp: 
    secs: 0
    nsecs:         0
  frame_id: "map"
x: [-13.0, -9.909917831420898, -7.001112937927246, -5.549516677856445, -3.5230629444122314, 0.23329943418502808, 2.254772901535034, 4.066415786743164, 7.60843563079834, 9.224599838256836, 10.370935440063477, 12.055679321289062]
y: [10.300000190734863, 10.678926467895508, 10.736093521118164, 10.752456665039062, 10.565757751464844, 10.619335174560547, 10.942018508911133, 11.547760963439941, 12.449981689453125, 13.213237762451172, 13.981403350830078, 14.257451057434082]
v: [15.0, 8.137361526489258, 15.0, 15.0, 15.0, 13.828402519226074, 13.18755054473877, 14.126449584960938, 13.405967712402344, 13.194478034973145, 8.937148094177246, 5.16654109954834]
---
header: 
  seq: 72
  stamp: 
    secs: 0
    nsecs:         0
  frame_id: "map"
x: [-13.0, -9.909917831420898, -7.001112937927246, -5.549516677856445, -3.5230629444122314, 0.23329943418502808, 2.254772901535034, 4.066415786743164, 7.60843563079834, 9.224599838256836, 10.370935440063477, 12.055679321289062, 13.172966003417969]
y: [10.300000190734863, 10.678926467895508, 10.736093521118164, 10.752456665039062, 10.565757751464844, 10.619335174560547, 10.942018508911133, 11.547760963439941, 12.449981689453125, 13.213237762451172, 13.981403350830078, 14.257451057434082, 14.26425552368164]
v: [15.0, 8.137361526489258, 15.0, 15.0, 15.0, 13.828402519226074, 13.18755054473877, 14.126449584960938, 13.405967712402344, 13.194478034973145, 8.937148094177246, 8.174018859863281, 4.914132118225098]
---
header: 
  seq: 73
  stamp: 
    secs: 0
    nsecs:         0
  frame_id: "map"
x: [-13.0, -9.909917831420898, -7.001112937927246, -5.549516677856445, -3.5230629444122314, 0.23329943418502808, 2.254772901535034, 4.066415786743164, 7.60843563079834, 9.224599838256836, 10.370935440063477, 12.055679321289062, 13.172966003417969]
y: [10.300000190734863, 10.678926467895508, 10.736093521118164, 10.752456665039062, 10.565757751464844, 10.619335174560547, 10.942018508911133, 11.547760963439941, 12.449981689453125, 13.213237762451172, 13.981403350830078, 14.257451057434082, 14.26425552368164]
v: [15.0, 8.137361526489258, 15.0, 15.0, 15.0, 13.828402519226074, 13.18755054473877, 14.126449584960938, 13.405967712402344, 13.194478034973145, 8.937148094177246, 8.174018859863281, 4.914132118225098]
---
header: 
  seq: 74
  stamp: 
    secs: 0
    nsecs:         0
  frame_id: "map"
x: [-13.0, -9.909917831420898, -7.001112937927246, -5.549516677856445, -3.5230629444122314, 0.23329943418502808, 2.254772901535034, 4.066415786743164, 7.60843563079834, 9.224599838256836, 10.370935440063477, 12.055679321289062, 13.172966003417969]
y: [10.300000190734863, 10.678926467895508, 10.736093521118164, 10.752456665039062, 10.565757751464844, 10.619335174560547, 10.942018508911133, 11.547760963439941, 12.449981689453125, 13.213237762451172, 13.981403350830078, 14.257451057434082, 14.26425552368164]
v: [15.0, 8.137361526489258, 15.0, 15.0, 15.0, 13.828402519226074, 13.18755054473877, 14.126449584960938, 13.405967712402344, 13.194478034973145, 8.937148094177246, 8.174018859863281, 4.914132118225098]
---
header: 
  seq: 75
  stamp: 
    secs: 0
    nsecs:         0
  frame_id: "map"
x: [-13.0, -9.909917831420898, -7.001112937927246, -5.549516677856445, -3.5230629444122314, 0.23329943418502808, 2.254772901535034, 4.066415786743164, 7.60843563079834, 9.224599838256836, 10.370935440063477, 12.055679321289062, 13.172966003417969]
y: [10.300000190734863, 10.678926467895508, 10.736093521118164, 10.752456665039062, 10.565757751464844, 10.619335174560547, 10.942018508911133, 11.547760963439941, 12.449981689453125, 13.213237762451172, 13.981403350830078, 14.257451057434082, 14.26425552368164]
v: [15.0, 8.137361526489258, 15.0, 15.0, 15.0, 13.828402519226074, 13.18755054473877, 14.126449584960938, 13.405967712402344, 13.194478034973145, 8.937148094177246, 8.174018859863281, 4.914132118225098]
---
header: 
  seq: 76
  stamp: 
    secs: 0
    nsecs:         0
  frame_id: "map"
x: [-13.0, -9.909917831420898, -7.001112937927246, -5.549516677856445, -3.5230629444122314, 0.23329943418502808, 2.254772901535034, 4.066415786743164, 7.60843563079834, 9.224599838256836, 10.370935440063477, 12.055679321289062, 13.172966003417969]
y: [10.300000190734863, 10.678926467895508, 10.736093521118164, 10.752456665039062, 10.565757751464844, 10.619335174560547, 10.942018508911133, 11.547760963439941, 12.449981689453125, 13.213237762451172, 13.981403350830078, 14.257451057434082, 14.26425552368164]
v: [15.0, 8.137361526489258, 15.0, 15.0, 15.0, 13.828402519226074, 13.18755054473877, 14.126449584960938, 13.405967712402344, 13.194478034973145, 8.937148094177246, 8.174018859863281, 4.914132118225098]
---
header: 
  seq: 77
  stamp: 
    secs: 0
    nsecs:         0
  frame_id: "map"
x: [-13.0, -9.909917831420898, -7.001112937927246, -5.549516677856445, -3.5230629444122314, 0.23329943418502808, 2.254772901535034, 4.066415786743164, 7.60843563079834, 9.224599838256836, 10.370935440063477, 12.055679321289062, 13.172966003417969]
y: [10.300000190734863, 10.678926467895508, 10.736093521118164, 10.752456665039062, 10.565757751464844, 10.619335174560547, 10.942018508911133, 11.547760963439941, 12.449981689453125, 13.213237762451172, 13.981403350830078, 14.257451057434082, 14.26425552368164]
v: [15.0, 8.137361526489258, 15.0, 15.0, 15.0, 13.828402519226074, 13.18755054473877, 14.126449584960938, 13.405967712402344, 13.194478034973145, 8.937148094177246, 8.174018859863281, 4.914132118225098]
---
header: 
  seq: 78
  stamp: 
    secs: 0
    nsecs:         0
  frame_id: "map"
x: [-13.0, -9.909917831420898, -7.001112937927246, -5.549516677856445, -3.5230629444122314, 0.23329943418502808, 2.254772901535034, 4.066415786743164, 7.60843563079834, 9.224599838256836, 10.370935440063477, 12.055679321289062, 13.172966003417969]
y: [10.300000190734863, 10.678926467895508, 10.736093521118164, 10.752456665039062, 10.565757751464844, 10.619335174560547, 10.942018508911133, 11.547760963439941, 12.449981689453125, 13.213237762451172, 13.981403350830078, 14.257451057434082, 14.26425552368164]
v: [15.0, 8.137361526489258, 15.0, 15.0, 15.0, 13.828402519226074, 13.18755054473877, 14.126449584960938, 13.405967712402344, 13.194478034973145, 8.937148094177246, 8.174018859863281, 4.914132118225098]
---
header: 
  seq: 79
  stamp: 
    secs: 0
    nsecs:         0
  frame_id: "map"
x: [-13.0, -9.909917831420898, -7.001112937927246, -5.549516677856445, -3.5230629444122314, 0.23329943418502808, 2.254772901535034, 4.066415786743164, 7.60843563079834, 9.224599838256836, 10.370935440063477, 12.055679321289062, 13.172966003417969]
y: [10.300000190734863, 10.678926467895508, 10.736093521118164, 10.752456665039062, 10.565757751464844, 10.619335174560547, 10.942018508911133, 11.547760963439941, 12.449981689453125, 13.213237762451172, 13.981403350830078, 14.257451057434082, 14.26425552368164]
v: [15.0, 8.137361526489258, 15.0, 15.0, 15.0, 13.828402519226074, 13.18755054473877, 14.126449584960938, 13.405967712402344, 13.194478034973145, 8.937148094177246, 8.174018859863281, 4.914132118225098]
---
header: 
  seq: 80
  stamp: 
    secs: 0
    nsecs:         0
  frame_id: "map"
x: [-13.0, -9.909917831420898, -7.001112937927246, -5.549516677856445, -3.5230629444122314, 0.23329943418502808, 2.254772901535034, 4.066415786743164, 7.60843563079834, 9.224599838256836, 10.370935440063477, 12.055679321289062, 13.172966003417969]
y: [10.300000190734863, 10.678926467895508, 10.736093521118164, 10.752456665039062, 10.565757751464844, 10.619335174560547, 10.942018508911133, 11.547760963439941, 12.449981689453125, 13.213237762451172, 13.981403350830078, 14.257451057434082, 14.26425552368164]
v: [15.0, 8.137361526489258, 15.0, 15.0, 15.0, 13.828402519226074, 13.18755054473877, 14.126449584960938, 13.405967712402344, 13.194478034973145, 8.937148094177246, 8.174018859863281, 4.914132118225098]
---
header: 
  seq: 81
  stamp: 
    secs: 0
    nsecs:         0
  frame_id: "map"
x: [-13.0, -9.909917831420898, -7.001112937927246, -5.549516677856445, -3.5230629444122314, 0.23329943418502808, 2.254772901535034, 4.066415786743164, 7.60843563079834, 9.224599838256836, 10.370935440063477, 12.055679321289062, 13.172966003417969]
y: [10.300000190734863, 10.678926467895508, 10.736093521118164, 10.752456665039062, 10.565757751464844, 10.619335174560547, 10.942018508911133, 11.547760963439941, 12.449981689453125, 13.213237762451172, 13.981403350830078, 14.257451057434082, 14.26425552368164]
v: [15.0, 8.137361526489258, 15.0, 15.0, 15.0, 13.828402519226074, 13.18755054473877, 14.126449584960938, 13.405967712402344, 13.194478034973145, 8.937148094177246, 8.174018859863281, 4.914132118225098]
---
header: 
  seq: 82
  stamp: 
    secs: 0
    nsecs:         0
  frame_id: "map"
x: [-13.0, -9.909917831420898, -7.001112937927246, -5.549516677856445, -3.5230629444122314, 0.23329943418502808, 2.254772901535034, 4.066415786743164, 7.60843563079834, 9.224599838256836, 10.370935440063477, 12.055679321289062, 13.172966003417969]
y: [10.300000190734863, 10.678926467895508, 10.736093521118164, 10.752456665039062, 10.565757751464844, 10.619335174560547, 10.942018508911133, 11.547760963439941, 12.449981689453125, 13.213237762451172, 13.981403350830078, 14.257451057434082, 14.26425552368164]
v: [15.0, 8.137361526489258, 15.0, 15.0, 15.0, 13.828402519226074, 13.18755054473877, 14.126449584960938, 13.405967712402344, 13.194478034973145, 8.937148094177246, 8.174018859863281, 4.914132118225098]
---
header: 
  seq: 83
  stamp: 
    secs: 0
    nsecs:         0
  frame_id: "map"
x: [-13.0, -9.909917831420898, -7.001112937927246, -5.549516677856445, -3.5230629444122314, 0.23329943418502808, 2.254772901535034, 4.066415786743164, 7.60843563079834, 9.224599838256836, 10.370935440063477, 12.055679321289062, 13.172966003417969]
y: [10.300000190734863, 10.678926467895508, 10.736093521118164, 10.752456665039062, 10.565757751464844, 10.619335174560547, 10.942018508911133, 11.547760963439941, 12.449981689453125, 13.213237762451172, 13.981403350830078, 14.257451057434082, 14.26425552368164]
v: [15.0, 8.137361526489258, 15.0, 15.0, 15.0, 13.828402519226074, 13.18755054473877, 14.126449584960938, 13.405967712402344, 13.194478034973145, 8.937148094177246, 8.174018859863281, 4.914132118225098]
---
header: 
  seq: 84
  stamp: 
    secs: 0
    nsecs:         0
  frame_id: "map"
x: [-13.0, -9.909917831420898, -7.001112937927246, -5.549516677856445, -3.5230629444122314, 0.23329943418502808, 2.254772901535034, 4.066415786743164, 7.60843563079834, 9.224599838256836, 10.370935440063477, 12.055679321289062, 13.172966003417969]
y: [10.300000190734863, 10.678926467895508, 10.736093521118164, 10.752456665039062, 10.565757751464844, 10.619335174560547, 10.942018508911133, 11.547760963439941, 12.449981689453125, 13.213237762451172, 13.981403350830078, 14.257451057434082, 14.26425552368164]
v: [15.0, 8.137361526489258, 15.0, 15.0, 15.0, 13.828402519226074, 13.18755054473877, 14.126449584960938, 13.405967712402344, 13.194478034973145, 8.937148094177246, 8.174018859863281, 4.914132118225098]
---
header: 
  seq: 85
  stamp: 
    secs: 0
    nsecs:         0
  frame_id: "map"
x: [-13.0, -9.909917831420898, -7.001112937927246, -5.549516677856445, -3.5230629444122314, 0.23329943418502808, 2.254772901535034, 4.066415786743164, 7.60843563079834, 9.224599838256836, 10.370935440063477, 12.055679321289062, 13.172966003417969]
y: [10.300000190734863, 10.678926467895508, 10.736093521118164, 10.752456665039062, 10.565757751464844, 10.619335174560547, 10.942018508911133, 11.547760963439941, 12.449981689453125, 13.213237762451172, 13.981403350830078, 14.257451057434082, 14.26425552368164]
v: [15.0, 8.137361526489258, 15.0, 15.0, 15.0, 13.828402519226074, 13.18755054473877, 14.126449584960938, 13.405967712402344, 13.194478034973145, 8.937148094177246, 8.174018859863281, 4.914132118225098]
---
header: 
  seq: 86
  stamp: 
    secs: 0
    nsecs:         0
  frame_id: "map"
x: [-13.0, -9.909917831420898, -7.001112937927246, -5.549516677856445, -3.5230629444122314, 0.23329943418502808, 2.254772901535034, 4.066415786743164, 7.60843563079834, 9.224599838256836, 10.370935440063477, 12.055679321289062, 13.172966003417969]
y: [10.300000190734863, 10.678926467895508, 10.736093521118164, 10.752456665039062, 10.565757751464844, 10.619335174560547, 10.942018508911133, 11.547760963439941, 12.449981689453125, 13.213237762451172, 13.981403350830078, 14.257451057434082, 14.26425552368164]
v: [15.0, 8.137361526489258, 15.0, 15.0, 15.0, 13.828402519226074, 13.18755054473877, 14.126449584960938, 13.405967712402344, 13.194478034973145, 8.937148094177246, 8.174018859863281, 4.914132118225098]
---
header: 
  seq: 87
  stamp: 
    secs: 0
    nsecs:         0
  frame_id: "map"
x: [-13.0, -9.909917831420898, -7.001112937927246, -5.549516677856445, -3.5230629444122314, 0.23329943418502808, 2.254772901535034, 4.066415786743164, 7.60843563079834, 9.224599838256836, 10.370935440063477, 12.055679321289062, 13.172966003417969]
y: [10.300000190734863, 10.678926467895508, 10.736093521118164, 10.752456665039062, 10.565757751464844, 10.619335174560547, 10.942018508911133, 11.547760963439941, 12.449981689453125, 13.213237762451172, 13.981403350830078, 14.257451057434082, 14.26425552368164]
v: [15.0, 8.137361526489258, 15.0, 15.0, 15.0, 13.828402519226074, 13.18755054473877, 14.126449584960938, 13.405967712402344, 13.194478034973145, 8.937148094177246, 8.174018859863281, 4.914132118225098]
---
header: 
  seq: 88
  stamp: 
    secs: 0
    nsecs:         0
  frame_id: "map"
x: [-13.0, -9.909917831420898, -7.001112937927246, -5.549516677856445, -3.5230629444122314, 0.23329943418502808, 2.254772901535034, 4.066415786743164, 7.60843563079834, 9.224599838256836, 10.370935440063477, 12.055679321289062, 13.172966003417969, 15.057695388793945]
y: [10.300000190734863, 10.678926467895508, 10.736093521118164, 10.752456665039062, 10.565757751464844, 10.619335174560547, 10.942018508911133, 11.547760963439941, 12.449981689453125, 13.213237762451172, 13.981403350830078, 14.257451057434082, 14.26425552368164, 12.99802017211914]
v: [15.0, 8.137361526489258, 15.0, 15.0, 15.0, 13.828402519226074, 13.18755054473877, 14.126449584960938, 13.405967712402344, 13.194478034973145, 8.937148094177246, 8.174018859863281, 6.614912033081055, 4.708257675170898]
---
header: 
  seq: 89
  stamp: 
    secs: 0
    nsecs:         0
  frame_id: "map"
x: [-13.0, -9.909917831420898, -7.001112937927246, -5.549516677856445, -3.5230629444122314, 0.23329943418502808, 2.254772901535034, 4.066415786743164, 7.60843563079834, 9.224599838256836, 10.370935440063477, 12.055679321289062, 13.172966003417969, 15.057695388793945]
y: [10.300000190734863, 10.678926467895508, 10.736093521118164, 10.752456665039062, 10.565757751464844, 10.619335174560547, 10.942018508911133, 11.547760963439941, 12.449981689453125, 13.213237762451172, 13.981403350830078, 14.257451057434082, 14.26425552368164, 12.99802017211914]
v: [15.0, 8.137361526489258, 15.0, 15.0, 15.0, 13.828402519226074, 13.18755054473877, 14.126449584960938, 13.405967712402344, 13.194478034973145, 8.937148094177246, 8.174018859863281, 6.614912033081055, 4.708257675170898]
---
header: 
  seq: 90
  stamp: 
    secs: 0
    nsecs:         0
  frame_id: "map"
x: [-13.0, -9.909917831420898, -7.001112937927246, -5.549516677856445, -3.5230629444122314, 0.23329943418502808, 2.254772901535034, 4.066415786743164, 7.60843563079834, 9.224599838256836, 10.370935440063477, 12.055679321289062, 13.172966003417969, 15.057695388793945]
y: [10.300000190734863, 10.678926467895508, 10.736093521118164, 10.752456665039062, 10.565757751464844, 10.619335174560547, 10.942018508911133, 11.547760963439941, 12.449981689453125, 13.213237762451172, 13.981403350830078, 14.257451057434082, 14.26425552368164, 12.99802017211914]
v: [15.0, 8.137361526489258, 15.0, 15.0, 15.0, 13.828402519226074, 13.18755054473877, 14.126449584960938, 13.405967712402344, 13.194478034973145, 8.937148094177246, 8.174018859863281, 6.614912033081055, 4.708257675170898]
---
header: 
  seq: 91
  stamp: 
    secs: 0
    nsecs:         0
  frame_id: "map"
x: [-13.0, -9.909917831420898, -7.001112937927246, -5.549516677856445, -3.5230629444122314, 0.23329943418502808, 2.254772901535034, 4.066415786743164, 7.60843563079834, 9.224599838256836, 10.370935440063477, 12.055679321289062, 13.172966003417969, 15.057695388793945, 18.30536460876465]
y: [10.300000190734863, 10.678926467895508, 10.736093521118164, 10.752456665039062, 10.565757751464844, 10.619335174560547, 10.942018508911133, 11.547760963439941, 12.449981689453125, 13.213237762451172, 13.981403350830078, 14.257451057434082, 14.26425552368164, 12.99802017211914, 10.729849815368652]
v: [15.0, 8.137361526489258, 15.0, 15.0, 15.0, 13.828402519226074, 13.18755054473877, 14.126449584960938, 13.405967712402344, 13.194478034973145, 8.937148094177246, 8.174018859863281, 6.614912033081055, 15.0, 14.830340385437012]
---
header: 
  seq: 92
  stamp: 
    secs: 0
    nsecs:         0
  frame_id: "map"
x: [-13.0, -9.909917831420898, -7.001112937927246, -5.549516677856445, -3.5230629444122314, 0.23329943418502808, 2.254772901535034, 4.066415786743164, 7.60843563079834, 9.224599838256836, 10.370935440063477, 12.055679321289062, 13.172966003417969, 15.057695388793945, 18.30536460876465, 18.80625343322754]
y: [10.300000190734863, 10.678926467895508, 10.736093521118164, 10.752456665039062, 10.565757751464844, 10.619335174560547, 10.942018508911133, 11.547760963439941, 12.449981689453125, 13.213237762451172, 13.981403350830078, 14.257451057434082, 14.26425552368164, 12.99802017211914, 10.729849815368652, 9.395370483398438]
v: [15.0, 8.137361526489258, 15.0, 15.0, 15.0, 13.828402519226074, 13.18755054473877, 14.126449584960938, 13.405967712402344, 13.194478034973145, 8.937148094177246, 8.174018859863281, 6.614912033081055, 15.0, 15.0, 15.0]
---
header: 
  seq: 93
  stamp: 
    secs: 0
    nsecs:         0
  frame_id: "map"
x: [-13.0, -9.909917831420898, -7.001112937927246, -5.549516677856445, -3.5230629444122314, 0.23329943418502808, 2.254772901535034, 4.066415786743164, 7.60843563079834, 9.224599838256836, 10.370935440063477, 12.055679321289062, 13.172966003417969, 15.057695388793945, 18.30536460876465, 18.80625343322754]
y: [10.300000190734863, 10.678926467895508, 10.736093521118164, 10.752456665039062, 10.565757751464844, 10.619335174560547, 10.942018508911133, 11.547760963439941, 12.449981689453125, 13.213237762451172, 13.981403350830078, 14.257451057434082, 14.26425552368164, 12.99802017211914, 10.729849815368652, 9.395370483398438]
v: [15.0, 8.137361526489258, 15.0, 15.0, 15.0, 13.828402519226074, 13.18755054473877, 14.126449584960938, 13.405967712402344, 13.194478034973145, 8.937148094177246, 8.174018859863281, 6.614912033081055, 15.0, 15.0, 15.0]
---
header: 
  seq: 94
  stamp: 
    secs: 0
    nsecs:         0
  frame_id: "map"
x: [-13.0, -9.909917831420898, -7.001112937927246, -5.549516677856445, -3.5230629444122314, 0.23329943418502808, 2.254772901535034, 4.066415786743164, 7.60843563079834, 9.224599838256836, 10.370935440063477, 12.055679321289062, 13.172966003417969, 15.057695388793945, 18.30536460876465, 18.80625343322754]
y: [10.300000190734863, 10.678926467895508, 10.736093521118164, 10.752456665039062, 10.565757751464844, 10.619335174560547, 10.942018508911133, 11.547760963439941, 12.449981689453125, 13.213237762451172, 13.981403350830078, 14.257451057434082, 14.26425552368164, 12.99802017211914, 10.729849815368652, 9.395370483398438]
v: [15.0, 8.137361526489258, 15.0, 15.0, 15.0, 13.828402519226074, 13.18755054473877, 14.126449584960938, 13.405967712402344, 13.194478034973145, 8.937148094177246, 8.174018859863281, 6.614912033081055, 15.0, 15.0, 15.0]
---
header: 
  seq: 95
  stamp: 
    secs: 0
    nsecs:         0
  frame_id: "map"
x: [-13.0, -9.909917831420898, -7.001112937927246, -5.549516677856445, -3.5230629444122314, 0.23329943418502808, 2.254772901535034, 4.066415786743164, 7.60843563079834, 9.224599838256836, 10.370935440063477, 12.055679321289062, 13.172966003417969, 15.057695388793945, 18.30536460876465, 18.80625343322754]
y: [10.300000190734863, 10.678926467895508, 10.736093521118164, 10.752456665039062, 10.565757751464844, 10.619335174560547, 10.942018508911133, 11.547760963439941, 12.449981689453125, 13.213237762451172, 13.981403350830078, 14.257451057434082, 14.26425552368164, 12.99802017211914, 10.729849815368652, 9.395370483398438]
v: [15.0, 8.137361526489258, 15.0, 15.0, 15.0, 13.828402519226074, 13.18755054473877, 14.126449584960938, 13.405967712402344, 13.194478034973145, 8.937148094177246, 8.174018859863281, 6.614912033081055, 15.0, 15.0, 15.0]
---
header: 
  seq: 96
  stamp: 
    secs: 0
    nsecs:         0
  frame_id: "map"
x: [-13.0, -9.909917831420898, -7.001112937927246, -5.549516677856445, -3.5230629444122314, 0.23329943418502808, 2.254772901535034, 4.066415786743164, 7.60843563079834, 9.224599838256836, 10.370935440063477, 12.055679321289062, 13.172966003417969, 15.057695388793945, 18.30536460876465, 18.80625343322754]
y: [10.300000190734863, 10.678926467895508, 10.736093521118164, 10.752456665039062, 10.565757751464844, 10.619335174560547, 10.942018508911133, 11.547760963439941, 12.449981689453125, 13.213237762451172, 13.981403350830078, 14.257451057434082, 14.26425552368164, 12.99802017211914, 10.729849815368652, 9.395370483398438]
v: [15.0, 8.137361526489258, 15.0, 15.0, 15.0, 13.828402519226074, 13.18755054473877, 14.126449584960938, 13.405967712402344, 13.194478034973145, 8.937148094177246, 8.174018859863281, 6.614912033081055, 15.0, 15.0, 15.0]
---
header: 
  seq: 97
  stamp: 
    secs: 0
    nsecs:         0
  frame_id: "map"
x: [-13.0, -9.909917831420898, -7.001112937927246, -5.549516677856445, -3.5230629444122314, 0.23329943418502808, 2.254772901535034, 4.066415786743164, 7.60843563079834, 9.224599838256836, 10.370935440063477, 12.055679321289062, 13.172966003417969, 15.057695388793945, 18.30536460876465, 18.80625343322754]
y: [10.300000190734863, 10.678926467895508, 10.736093521118164, 10.752456665039062, 10.565757751464844, 10.619335174560547, 10.942018508911133, 11.547760963439941, 12.449981689453125, 13.213237762451172, 13.981403350830078, 14.257451057434082, 14.26425552368164, 12.99802017211914, 10.729849815368652, 9.395370483398438]
v: [15.0, 8.137361526489258, 15.0, 15.0, 15.0, 13.828402519226074, 13.18755054473877, 14.126449584960938, 13.405967712402344, 13.194478034973145, 8.937148094177246, 8.174018859863281, 6.614912033081055, 15.0, 15.0, 15.0]
---
header: 
  seq: 98
  stamp: 
    secs: 0
    nsecs:         0
  frame_id: "map"
x: [-13.0, -9.909917831420898, -7.001112937927246, -5.549516677856445, -3.5230629444122314, 0.23329943418502808, 2.254772901535034, 4.066415786743164, 7.60843563079834, 9.224599838256836, 10.370935440063477, 12.055679321289062, 13.172966003417969, 15.057695388793945, 18.30536460876465, 18.80625343322754]
y: [10.300000190734863, 10.678926467895508, 10.736093521118164, 10.752456665039062, 10.565757751464844, 10.619335174560547, 10.942018508911133, 11.547760963439941, 12.449981689453125, 13.213237762451172, 13.981403350830078, 14.257451057434082, 14.26425552368164, 12.99802017211914, 10.729849815368652, 9.395370483398438]
v: [15.0, 8.137361526489258, 15.0, 15.0, 15.0, 13.828402519226074, 13.18755054473877, 14.126449584960938, 13.405967712402344, 13.194478034973145, 8.937148094177246, 8.174018859863281, 6.614912033081055, 15.0, 15.0, 15.0]
---
header: 
  seq: 99
  stamp: 
    secs: 0
    nsecs:         0
  frame_id: "map"
x: [-13.0, -9.909917831420898, -7.001112937927246, -5.549516677856445, -3.5230629444122314, 0.23329943418502808, 2.254772901535034, 4.066415786743164, 7.60843563079834, 9.224599838256836, 10.370935440063477, 12.055679321289062, 13.172966003417969, 15.057695388793945, 18.30536460876465, 18.80625343322754]
y: [10.300000190734863, 10.678926467895508, 10.736093521118164, 10.752456665039062, 10.565757751464844, 10.619335174560547, 10.942018508911133, 11.547760963439941, 12.449981689453125, 13.213237762451172, 13.981403350830078, 14.257451057434082, 14.26425552368164, 12.99802017211914, 10.729849815368652, 9.395370483398438]
v: [15.0, 8.137361526489258, 15.0, 15.0, 15.0, 13.828402519226074, 13.18755054473877, 14.126449584960938, 13.405967712402344, 13.194478034973145, 8.937148094177246, 8.174018859863281, 6.614912033081055, 15.0, 15.0, 15.0]
---
header: 
  seq: 100
  stamp: 
    secs: 0
    nsecs:         0
  frame_id: "map"
x: [-13.0, -9.909917831420898, -7.001112937927246, -5.549516677856445, -3.5230629444122314, 0.23329943418502808, 2.254772901535034, 4.066415786743164, 7.60843563079834, 9.224599838256836, 10.370935440063477, 12.055679321289062, 13.172966003417969, 15.057695388793945, 18.30536460876465, 18.80625343322754, 19.06200408935547]
y: [10.300000190734863, 10.678926467895508, 10.736093521118164, 10.752456665039062, 10.565757751464844, 10.619335174560547, 10.942018508911133, 11.547760963439941, 12.449981689453125, 13.213237762451172, 13.981403350830078, 14.257451057434082, 14.26425552368164, 12.99802017211914, 10.729849815368652, 9.395370483398438, 8.468226432800293]
v: [15.0, 8.137361526489258, 15.0, 15.0, 15.0, 13.828402519226074, 13.18755054473877, 14.126449584960938, 13.405967712402344, 13.194478034973145, 8.937148094177246, 8.174018859863281, 6.614912033081055, 15.0, 15.0, 15.0, 5.786472320556641]
---
header: 
  seq: 101
  stamp: 
    secs: 0
    nsecs:         0
  frame_id: "map"
x: [-13.0, -9.909917831420898, -7.001112937927246, -5.549516677856445, -3.5230629444122314, 0.23329943418502808, 2.254772901535034, 4.066415786743164, 7.60843563079834, 9.224599838256836, 10.370935440063477, 12.055679321289062, 13.172966003417969, 15.057695388793945, 18.30536460876465, 18.80625343322754, 19.06200408935547, 18.607379913330078]
y: [10.300000190734863, 10.678926467895508, 10.736093521118164, 10.752456665039062, 10.565757751464844, 10.619335174560547, 10.942018508911133, 11.547760963439941, 12.449981689453125, 13.213237762451172, 13.981403350830078, 14.257451057434082, 14.26425552368164, 12.99802017211914, 10.729849815368652, 9.395370483398438, 8.468226432800293, 7.879262924194336]
