header: 
  seq: 4
  stamp: 
    secs: 0
    nsecs:         0
  frame_id: "map"
x: [-13.0, -10.03924560546875, -6.924110412597656]
y: [10.300000190734863, 10.682609558105469, 10.731463432312012]
v: [15.0, 0.0, 0.0]
---
header: 
  seq: 5
  stamp: 
    secs: 0
    nsecs:         0
  frame_id: "map"
x: [-13.0, -10.03924560546875, -6.924110412597656]
y: [10.300000190734863, 10.682609558105469, 10.731463432312012]
v: [15.0, 0.0, 0.0]
---
header: 
  seq: 6
  stamp: 
    secs: 0
    nsecs:         0
  frame_id: "map"
x: [-13.0, -10.03924560546875, -6.924110412597656, -5.049327850341797]
y: [10.300000190734863, 10.682609558105469, 10.731463432312012, 10.965192794799805]
v: [15.0, 7.801349639892578, 10.008102416992188, 10.008102416992188]
---
header: 
  seq: 7
  stamp: 
    secs: 0
    nsecs:         0
  frame_id: "map"
x: [-13.0, -10.03924560546875, -6.924110412597656, -5.049327850341797, -3.291391372680664]
y: [10.300000190734863, 10.682609558105469, 10.731463432312012, 10.965192794799805, 11.289053916931152]
v: [15.0, 7.801349639892578, 10.008102416992188, 15.0, 10.430070877075195]
---
header: 
  seq: 8
  stamp: 
    secs: 0
    nsecs:         0
  frame_id: "map"
x: [-13.0, -10.03924560546875, -6.924110412597656, -5.049327850341797, -3.291391372680664]
y: [10.300000190734863, 10.682609558105469, 10.731463432312012, 10.965192794799805, 11.289053916931152]
v: [15.0, 7.801349639892578, 10.008102416992188, 15.0, 10.430070877075195]
---
header: 
  seq: 9
  stamp: 
    secs: 0
    nsecs:         0
  frame_id: "map"
x: [-13.0, -10.03924560546875, -6.924110412597656, -5.049327850341797, -3.291391372680664]
y: [10.300000190734863, 10.682609558105469, 10.731463432312012, 10.965192794799805, 11.289053916931152]
v: [15.0, 7.801349639892578, 10.008102416992188, 15.0, 10.430070877075195]
---
header: 
  seq: 10
  stamp: 
    secs: 0
    nsecs:         0
  frame_id: "map"
x: [-13.0, -10.03924560546875, -6.924110412597656, -5.049327850341797, -3.291391372680664]
y: [10.300000190734863, 10.682609558105469, 10.731463432312012, 10.965192794799805, 11.289053916931152]
v: [15.0, 7.801349639892578, 10.008102416992188, 15.0, 10.430070877075195]
---
header: 
  seq: 11
  stamp: 
    secs: 0
    nsecs:         0
  frame_id: "map"
x: [-13.0, -10.03924560546875, -6.924110412597656, -5.049327850341797, -3.291391372680664]
y: [10.300000190734863, 10.682609558105469, 10.731463432312012, 10.965192794799805, 11.289053916931152]
v: [15.0, 7.801349639892578, 10.008102416992188, 15.0, 10.430070877075195]
---
header: 
  seq: 12
  stamp: 
    secs: 0
    nsecs:         0
  frame_id: "map"
x: [-13.0, -10.03924560546875, -6.924110412597656, -5.049327850341797, -3.291391372680664]
y: [10.300000190734863, 10.682609558105469, 10.731463432312012, 10.965192794799805, 11.289053916931152]
v: [15.0, 7.801349639892578, 10.008102416992188, 15.0, 10.430070877075195]
---
header: 
  seq: 13
  stamp: 
    secs: 0
    nsecs:         0
  frame_id: "map"
x: [-13.0, -10.03924560546875, -6.924110412597656, -5.049327850341797, -3.291391372680664]
y: [10.300000190734863, 10.682609558105469, 10.731463432312012, 10.965192794799805, 11.289053916931152]
v: [15.0, 7.801349639892578, 10.008102416992188, 15.0, 10.430070877075195]
---
header: 
  seq: 14
  stamp: 
    secs: 0
    nsecs:         0
  frame_id: "map"
x: [-13.0, -10.03924560546875, -6.924110412597656, -5.049327850341797, -3.291391372680664]
y: [10.300000190734863, 10.682609558105469, 10.731463432312012, 10.965192794799805, 11.289053916931152]
v: [15.0, 7.801349639892578, 10.008102416992188, 15.0, 10.430070877075195]
---
header: 
  seq: 15
  stamp: 
    secs: 0
    nsecs:         0
  frame_id: "map"
x: [-13.0, -10.03924560546875, -6.924110412597656, -5.049327850341797, -3.291391372680664]
y: [10.300000190734863, 10.682609558105469, 10.731463432312012, 10.965192794799805, 11.289053916931152]
v: [15.0, 7.801349639892578, 10.008102416992188, 15.0, 10.430070877075195]
---
header: 
  seq: 16
  stamp: 
    secs: 0
    nsecs:         0
  frame_id: "map"
x: [-13.0, -10.03924560546875, -6.924110412597656, -5.049327850341797, -3.291391372680664]
y: [10.300000190734863, 10.682609558105469, 10.731463432312012, 10.965192794799805, 11.289053916931152]
v: [15.0, 7.801349639892578, 10.008102416992188, 15.0, 10.430070877075195]
---
header: 
  seq: 17
  stamp: 
    secs: 0
    nsecs:         0
  frame_id: "map"
x: [-13.0, -10.03924560546875, -6.924110412597656, -5.049327850341797, -3.291391372680664]
y: [10.300000190734863, 10.682609558105469, 10.731463432312012, 10.965192794799805, 11.289053916931152]
v: [15.0, 7.801349639892578, 10.008102416992188, 15.0, 10.430070877075195]
---
header: 
  seq: 18
  stamp: 
    secs: 0
    nsecs:         0
  frame_id: "map"
x: [-13.0, -10.03924560546875, -6.924110412597656, -5.049327850341797, -3.291391372680664]
y: [10.300000190734863, 10.682609558105469, 10.731463432312012, 10.965192794799805, 11.289053916931152]
v: [15.0, 7.801349639892578, 10.008102416992188, 15.0, 10.430070877075195]
---
header: 
  seq: 19
  stamp: 
    secs: 0
    nsecs:         0
  frame_id: "map"
x: [-13.0, -10.03924560546875, -6.924110412597656, -5.049327850341797, -3.291391372680664]
y: [10.300000190734863, 10.682609558105469, 10.731463432312012, 10.965192794799805, 11.289053916931152]
v: [15.0, 7.801349639892578, 10.008102416992188, 15.0, 10.430070877075195]
---
header: 
  seq: 20
  stamp: 
    secs: 0
    nsecs:         0
  frame_id: "map"
x: [-13.0, -10.03924560546875, -6.924110412597656, -5.049327850341797, -3.291391372680664]
y: [10.300000190734863, 10.682609558105469, 10.731463432312012, 10.965192794799805, 11.289053916931152]
v: [15.0, 7.801349639892578, 10.008102416992188, 15.0, 10.430070877075195]
---
header: 
  seq: 21
  stamp: 
    secs: 0
    nsecs:         0
  frame_id: "map"
x: [-13.0, -10.03924560546875, -6.924110412597656, -5.049327850341797, -3.291391372680664]
y: [10.300000190734863, 10.682609558105469, 10.731463432312012, 10.965192794799805, 11.289053916931152]
v: [15.0, 7.801349639892578, 10.008102416992188, 15.0, 10.430070877075195]
---
header: 
  seq: 22
  stamp: 
    secs: 0
    nsecs:         0
  frame_id: "map"
x: [-13.0, -10.03924560546875, -6.924110412597656, -5.049327850341797, -3.291391372680664, -1.3360378742218018]
y: [10.300000190734863, 10.682609558105469, 10.731463432312012, 10.965192794799805, 11.289053916931152, 11.06239128112793]
v: [15.0, 7.801349639892578, 10.008102416992188, 15.0, 12.94684886932373, 8.13964557647705]
---
header: 
  seq: 23
  stamp: 
    secs: 0
    nsecs:         0
  frame_id: "map"
x: [-13.0, -10.03924560546875, -6.924110412597656, -5.049327850341797, -3.291391372680664, -1.3360378742218018, 0.5546683073043823]
y: [10.300000190734863, 10.682609558105469, 10.731463432312012, 10.965192794799805, 11.289053916931152, 11.06239128112793, 10.793661117553711]
v: [15.0, 7.801349639892578, 10.008102416992188, 15.0, 12.94684886932373, 15.0, 11.189204216003418]
---
header: 
  seq: 24
  stamp: 
    secs: 0
    nsecs:         0
  frame_id: "map"
x: [-13.0, -10.03924560546875, -6.924110412597656, -5.049327850341797, -3.291391372680664, -1.3360378742218018, 0.5546683073043823]
y: [10.300000190734863, 10.682609558105469, 10.731463432312012, 10.965192794799805, 11.289053916931152, 11.06239128112793, 10.793661117553711]
v: [15.0, 7.801349639892578, 10.008102416992188, 15.0, 12.94684886932373, 15.0, 11.189204216003418]
---
header: 
  seq: 25
  stamp: 
    secs: 0
    nsecs:         0
  frame_id: "map"
x: [-13.0, -10.03924560546875, -6.924110412597656, -5.049327850341797, -3.291391372680664, -1.3360378742218018, 0.5546683073043823]
y: [10.300000190734863, 10.682609558105469, 10.731463432312012, 10.965192794799805, 11.289053916931152, 11.06239128112793, 10.793661117553711]
v: [15.0, 7.801349639892578, 10.008102416992188, 15.0, 12.94684886932373, 15.0, 11.189204216003418]
---
header: 
  seq: 26
  stamp: 
    secs: 0
    nsecs:         0
  frame_id: "map"
x: [-13.0, -10.03924560546875, -6.924110412597656, -5.049327850341797, -3.291391372680664, -1.3360378742218018, 0.5546683073043823]
y: [10.300000190734863, 10.682609558105469, 10.731463432312012, 10.965192794799805, 11.289053916931152, 11.06239128112793, 10.793661117553711]
v: [15.0, 7.801349639892578, 10.008102416992188, 15.0, 12.94684886932373, 15.0, 11.189204216003418]
---
header: 
  seq: 27
  stamp: 
    secs: 0
    nsecs:         0
  frame_id: "map"
x: [-13.0, -10.03924560546875, -6.924110412597656, -5.049327850341797, -3.291391372680664, -1.3360378742218018, 0.5546683073043823]
y: [10.300000190734863, 10.682609558105469, 10.731463432312012, 10.965192794799805, 11.289053916931152, 11.06239128112793, 10.793661117553711]
v: [15.0, 7.801349639892578, 10.008102416992188, 15.0, 12.94684886932373, 15.0, 11.189204216003418]
---
header: 
  seq: 28
  stamp: 
    secs: 0
    nsecs:         0
  frame_id: "map"
x: [-13.0, -10.03924560546875, -6.924110412597656, -5.049327850341797, -3.291391372680664, -1.3360378742218018, 0.5546683073043823]
y: [10.300000190734863, 10.682609558105469, 10.731463432312012, 10.965192794799805, 11.289053916931152, 11.06239128112793, 10.793661117553711]
v: [15.0, 7.801349639892578, 10.008102416992188, 15.0, 12.94684886932373, 15.0, 11.189204216003418]
---
header: 
  seq: 29
  stamp: 
    secs: 0
    nsecs:         0
  frame_id: "map"
x: [-13.0, -10.03924560546875, -6.924110412597656, -5.049327850341797, -3.291391372680664, -1.3360378742218018, 0.5546683073043823]
y: [10.300000190734863, 10.682609558105469, 10.731463432312012, 10.965192794799805, 11.289053916931152, 11.06239128112793, 10.793661117553711]
v: [15.0, 7.801349639892578, 10.008102416992188, 15.0, 12.94684886932373, 15.0, 11.189204216003418]
---
header: 
  seq: 30
  stamp: 
    secs: 0
    nsecs:         0
  frame_id: "map"
x: [-13.0, -10.03924560546875, -6.924110412597656, -5.049327850341797, -3.291391372680664, -1.3360378742218018, 0.5546683073043823]
y: [10.300000190734863, 10.682609558105469, 10.731463432312012, 10.965192794799805, 11.289053916931152, 11.06239128112793, 10.793661117553711]
v: [15.0, 7.801349639892578, 10.008102416992188, 15.0, 12.94684886932373, 15.0, 11.189204216003418]
---
header: 
  seq: 31
  stamp: 
    secs: 0
    nsecs:         0
  frame_id: "map"
x: [-13.0, -10.03924560546875, -6.924110412597656, -5.049327850341797, -3.291391372680664, -1.3360378742218018, 0.5546683073043823]
y: [10.300000190734863, 10.682609558105469, 10.731463432312012, 10.965192794799805, 11.289053916931152, 11.06239128112793, 10.793661117553711]
v: [15.0, 7.801349639892578, 10.008102416992188, 15.0, 12.94684886932373, 15.0, 11.189204216003418]
---
header: 
  seq: 32
  stamp: 
    secs: 0
    nsecs:         0
  frame_id: "map"
x: [-13.0, -10.03924560546875, -6.924110412597656, -5.049327850341797, -3.291391372680664, -1.3360378742218018, 0.5546683073043823]
y: [10.300000190734863, 10.682609558105469, 10.731463432312012, 10.965192794799805, 11.289053916931152, 11.06239128112793, 10.793661117553711]
v: [15.0, 7.801349639892578, 10.008102416992188, 15.0, 12.94684886932373, 15.0, 11.189204216003418]
---
header: 
  seq: 33
  stamp: 
    secs: 0
    nsecs:         0
  frame_id: "map"
x: [-13.0, -10.03924560546875, -6.924110412597656, -5.049327850341797, -3.291391372680664, -1.3360378742218018, 0.5546683073043823]
y: [10.300000190734863, 10.682609558105469, 10.731463432312012, 10.965192794799805, 11.289053916931152, 11.06239128112793, 10.793661117553711]
v: [15.0, 7.801349639892578, 10.008102416992188, 15.0, 12.94684886932373, 15.0, 11.189204216003418]
---
header: 
  seq: 34
  stamp: 
    secs: 0
    nsecs:         0
  frame_id: "map"
x: [-13.0, -10.03924560546875, -6.924110412597656, -5.049327850341797, -3.291391372680664, -1.3360378742218018, 0.5546683073043823, 2.3751220703125]
y: [10.300000190734863, 10.682609558105469, 10.731463432312012, 10.965192794799805, 11.289053916931152, 11.06239128112793, 10.793661117553711, 11.027772903442383]
v: [15.0, 7.801349639892578, 10.008102416992188, 15.0, 12.94684886932373, 15.0, 13.831194877624512, 11.314414978027344]
---
header: 
  seq: 35
  stamp: 
    secs: 0
    nsecs:         0
  frame_id: "map"
x: [-13.0, -10.03924560546875, -6.924110412597656, -5.049327850341797, -3.291391372680664, -1.3360378742218018, 0.5546683073043823, 2.3751220703125]
y: [10.300000190734863, 10.682609558105469, 10.731463432312012, 10.965192794799805, 11.289053916931152, 11.06239128112793, 10.793661117553711, 11.027772903442383]
v: [15.0, 7.801349639892578, 10.008102416992188, 15.0, 12.94684886932373, 15.0, 13.831194877624512, 11.314414978027344]
---
header: 
  seq: 36
  stamp: 
    secs: 0
    nsecs:         0
  frame_id: "map"
x: [-13.0, -10.03924560546875, -6.924110412597656, -5.049327850341797, -3.291391372680664, -1.3360378742218018, 0.5546683073043823, 2.3751220703125]
y: [10.300000190734863, 10.682609558105469, 10.731463432312012, 10.965192794799805, 11.289053916931152, 11.06239128112793, 10.793661117553711, 11.027772903442383]
v: [15.0, 7.801349639892578, 10.008102416992188, 15.0, 12.94684886932373, 15.0, 13.831194877624512, 11.314414978027344]
---
header: 
  seq: 37
  stamp: 
    secs: 0
    nsecs:         0
  frame_id: "map"
x: [-13.0, -10.03924560546875, -6.924110412597656, -5.049327850341797, -3.291391372680664, -1.3360378742218018, 0.5546683073043823, 2.3751220703125]
y: [10.300000190734863, 10.682609558105469, 10.731463432312012, 10.965192794799805, 11.289053916931152, 11.06239128112793, 10.793661117553711, 11.027772903442383]
v: [15.0, 7.801349639892578, 10.008102416992188, 15.0, 12.94684886932373, 15.0, 13.831194877624512, 11.314414978027344]
---
header: 
  seq: 38
  stamp: 
    secs: 0
    nsecs:         0
  frame_id: "map"
x: [-13.0, -10.03924560546875, -6.924110412597656, -5.049327850341797, -3.291391372680664, -1.3360378742218018, 0.5546683073043823, 2.3751220703125]
y: [10.300000190734863, 10.682609558105469, 10.731463432312012, 10.965192794799805, 11.289053916931152, 11.06239128112793, 10.793661117553711, 11.027772903442383]
v: [15.0, 7.801349639892578, 10.008102416992188, 15.0, 12.94684886932373, 15.0, 13.831194877624512, 11.314414978027344]
---
header: 
  seq: 39
  stamp: 
    secs: 0
    nsecs:         0
  frame_id: "map"
x: [-13.0, -10.03924560546875, -6.924110412597656, -5.049327850341797, -3.291391372680664, -1.3360378742218018, 0.5546683073043823, 2.3751220703125]
y: [10.300000190734863, 10.682609558105469, 10.731463432312012, 10.965192794799805, 11.289053916931152, 11.06239128112793, 10.793661117553711, 11.027772903442383]
v: [15.0, 7.801349639892578, 10.008102416992188, 15.0, 12.94684886932373, 15.0, 13.831194877624512, 11.314414978027344]
---
header: 
  seq: 40
  stamp: 
    secs: 0
    nsecs:         0
  frame_id: "map"
x: [-13.0, -10.03924560546875, -6.924110412597656, -5.049327850341797, -3.291391372680664, -1.3360378742218018, 0.5546683073043823, 2.3751220703125]
y: [10.300000190734863, 10.682609558105469, 10.731463432312012, 10.965192794799805, 11.289053916931152, 11.06239128112793, 10.793661117553711, 11.027772903442383]
v: [15.0, 7.801349639892578, 10.008102416992188, 15.0, 12.94684886932373, 15.0, 13.831194877624512, 11.314414978027344]
---
header: 
  seq: 41
  stamp: 
    secs: 0
    nsecs:         0
  frame_id: "map"
x: [-13.0, -10.03924560546875, -6.924110412597656, -5.049327850341797, -3.291391372680664, -1.3360378742218018, 0.5546683073043823, 2.3751220703125]
y: [10.300000190734863, 10.682609558105469, 10.731463432312012, 10.965192794799805, 11.289053916931152, 11.06239128112793, 10.793661117553711, 11.027772903442383]
v: [15.0, 7.801349639892578, 10.008102416992188, 15.0, 12.94684886932373, 15.0, 13.831194877624512, 11.314414978027344]
---
header: 
  seq: 42
  stamp: 
    secs: 0
    nsecs:         0
  frame_id: "map"
x: [-13.0, -10.03924560546875, -6.924110412597656, -5.049327850341797, -3.291391372680664, -1.3360378742218018, 0.5546683073043823, 2.3751220703125]
y: [10.300000190734863, 10.682609558105469, 10.731463432312012, 10.965192794799805, 11.289053916931152, 11.06239128112793, 10.793661117553711, 11.027772903442383]
v: [15.0, 7.801349639892578, 10.008102416992188, 15.0, 12.94684886932373, 15.0, 13.831194877624512, 11.314414978027344]
---
header: 
  seq: 43
  stamp: 
    secs: 0
    nsecs:         0
  frame_id: "map"
x: [-13.0, -10.03924560546875, -6.924110412597656, -5.049327850341797, -3.291391372680664, -1.3360378742218018, 0.5546683073043823, 2.3751220703125]
y: [10.300000190734863, 10.682609558105469, 10.731463432312012, 10.965192794799805, 11.289053916931152, 11.06239128112793, 10.793661117553711, 11.027772903442383]
v: [15.0, 7.801349639892578, 10.008102416992188, 15.0, 12.94684886932373, 15.0, 13.831194877624512, 11.314414978027344]
---
header: 
  seq: 44
  stamp: 
    secs: 0
    nsecs:         0
  frame_id: "map"
x: [-13.0, -10.03924560546875, -6.924110412597656, -5.049327850341797, -3.291391372680664, -1.3360378742218018, 0.5546683073043823, 2.3751220703125]
y: [10.300000190734863, 10.682609558105469, 10.731463432312012, 10.965192794799805, 11.289053916931152, 11.06239128112793, 10.793661117553711, 11.027772903442383]
v: [15.0, 7.801349639892578, 10.008102416992188, 15.0, 12.94684886932373, 15.0, 13.831194877624512, 11.314414978027344]
---
header: 
  seq: 45
  stamp: 
    secs: 0
    nsecs:         0
  frame_id: "map"
x: [-13.0, -10.03924560546875, -6.924110412597656, -5.049327850341797, -3.291391372680664, -1.3360378742218018, 0.5546683073043823, 2.3751220703125]
y: [10.300000190734863, 10.682609558105469, 10.731463432312012, 10.965192794799805, 11.289053916931152, 11.06239128112793, 10.793661117553711, 11.027772903442383]
v: [15.0, 7.801349639892578, 10.008102416992188, 15.0, 12.94684886932373, 15.0, 13.831194877624512, 11.314414978027344]
---
header: 
  seq: 46
  stamp: 
    secs: 0
    nsecs:         0
  frame_id: "map"
x: [-13.0, -10.03924560546875, -6.924110412597656, -5.049327850341797, -3.291391372680664, -1.3360378742218018, 0.5546683073043823, 2.3751220703125]
y: [10.300000190734863, 10.682609558105469, 10.731463432312012, 10.965192794799805, 11.289053916931152, 11.06239128112793, 10.793661117553711, 11.027772903442383]
v: [15.0, 7.801349639892578, 10.008102416992188, 15.0, 12.94684886932373, 15.0, 13.831194877624512, 11.314414978027344]
---
header: 
  seq: 47
  stamp: 
    secs: 0
    nsecs:         0
  frame_id: "map"
x: [-13.0, -10.03924560546875, -6.924110412597656, -5.049327850341797, -3.291391372680664, -1.3360378742218018, 0.5546683073043823, 2.3751220703125]
y: [10.300000190734863, 10.682609558105469, 10.731463432312012, 10.965192794799805, 11.289053916931152, 11.06239128112793, 10.793661117553711, 11.027772903442383]
v: [15.0, 7.801349639892578, 10.008102416992188, 15.0, 12.94684886932373, 15.0, 13.831194877624512, 11.314414978027344]
---
header: 
  seq: 48
  stamp: 
    secs: 0
    nsecs:         0
  frame_id: "map"
x: [-13.0, -10.03924560546875, -6.924110412597656, -5.049327850341797, -3.291391372680664, -1.3360378742218018, 0.5546683073043823, 2.3751220703125, 5.902624130249023]
y: [10.300000190734863, 10.682609558105469, 10.731463432312012, 10.965192794799805, 11.289053916931152, 11.06239128112793, 10.793661117553711, 11.027772903442383, 11.74045181274414]
v: [15.0, 7.801349639892578, 10.008102416992188, 15.0, 12.94684886932373, 15.0, 13.831194877624512, 15.0, 8.809432029724121]
---
header: 
  seq: 49
  stamp: 
    secs: 0
    nsecs:         0
  frame_id: "map"
x: [-13.0, -10.03924560546875, -6.924110412597656, -5.049327850341797, -3.291391372680664, -1.3360378742218018, 0.5546683073043823, 2.3751220703125, 5.902624130249023]
y: [10.300000190734863, 10.682609558105469, 10.731463432312012, 10.965192794799805, 11.289053916931152, 11.06239128112793, 10.793661117553711, 11.027772903442383, 11.74045181274414]
v: [15.0, 7.801349639892578, 10.008102416992188, 15.0, 12.94684886932373, 15.0, 13.831194877624512, 15.0, 8.809432029724121]
---
header: 
  seq: 50
  stamp: 
    secs: 0
    nsecs:         0
  frame_id: "map"
x: [-13.0, -10.03924560546875, -6.924110412597656, -5.049327850341797, -3.291391372680664, -1.3360378742218018, 0.5546683073043823, 2.3751220703125, 5.902624130249023]
y: [10.300000190734863, 10.682609558105469, 10.731463432312012, 10.965192794799805, 11.289053916931152, 11.06239128112793, 10.793661117553711, 11.027772903442383, 11.74045181274414]
v: [15.0, 7.801349639892578, 10.008102416992188, 15.0, 12.94684886932373, 15.0, 13.831194877624512, 15.0, 8.809432029724121]
---
header: 
  seq: 51
  stamp: 
    secs: 0
    nsecs:         0
  frame_id: "map"
x: [-13.0, -10.03924560546875, -6.924110412597656, -5.049327850341797, -3.291391372680664, -1.3360378742218018, 0.5546683073043823, 2.3751220703125, 5.902624130249023, 7.657683372497559]
y: [10.300000190734863, 10.682609558105469, 10.731463432312012, 10.965192794799805, 11.289053916931152, 11.06239128112793, 10.793661117553711, 11.027772903442383, 11.74045181274414, 12.375720977783203]
v: [15.0, 7.801349639892578, 10.008102416992188, 15.0, 12.94684886932373, 15.0, 13.831194877624512, 15.0, 13.109771728515625, 10.467782020568848]
---
header: 
  seq: 52
  stamp: 
    secs: 0
    nsecs:         0
  frame_id: "map"
x: [-13.0, -10.03924560546875, -6.924110412597656, -5.049327850341797, -3.291391372680664, -1.3360378742218018, 0.5546683073043823, 2.3751220703125, 5.902624130249023, 7.657683372497559]
y: [10.300000190734863, 10.682609558105469, 10.731463432312012, 10.965192794799805, 11.289053916931152, 11.06239128112793, 10.793661117553711, 11.027772903442383, 11.74045181274414, 12.375720977783203]
v: [15.0, 7.801349639892578, 10.008102416992188, 15.0, 12.94684886932373, 15.0, 13.831194877624512, 15.0, 13.109771728515625, 10.467782020568848]
---
header: 
  seq: 53
  stamp: 
    secs: 0
    nsecs:         0
  frame_id: "map"
x: [-13.0, -10.03924560546875, -6.924110412597656, -5.049327850341797, -3.291391372680664, -1.3360378742218018, 0.5546683073043823, 2.3751220703125, 5.902624130249023, 7.657683372497559]
y: [10.300000190734863, 10.682609558105469, 10.731463432312012, 10.965192794799805, 11.289053916931152, 11.06239128112793, 10.793661117553711, 11.027772903442383, 11.74045181274414, 12.375720977783203]
v: [15.0, 7.801349639892578, 10.008102416992188, 15.0, 12.94684886932373, 15.0, 13.831194877624512, 15.0, 13.109771728515625, 10.467782020568848]
---
header: 
  seq: 54
  stamp: 
    secs: 0
    nsecs:         0
  frame_id: "map"
x: [-13.0, -10.03924560546875, -6.924110412597656, -5.049327850341797, -3.291391372680664, -1.3360378742218018, 0.5546683073043823, 2.3751220703125, 5.902624130249023, 7.657683372497559]
y: [10.300000190734863, 10.682609558105469, 10.731463432312012, 10.965192794799805, 11.289053916931152, 11.06239128112793, 10.793661117553711, 11.027772903442383, 11.74045181274414, 12.375720977783203]
v: [15.0, 7.801349639892578, 10.008102416992188, 15.0, 12.94684886932373, 15.0, 13.831194877624512, 15.0, 13.109771728515625, 10.467782020568848]
---
header: 
  seq: 55
  stamp: 
    secs: 0
    nsecs:         0
  frame_id: "map"
x: [-13.0, -10.03924560546875, -6.924110412597656, -5.049327850341797, -3.291391372680664, -1.3360378742218018, 0.5546683073043823, 2.3751220703125, 5.902624130249023, 7.657683372497559]
y: [10.300000190734863, 10.682609558105469, 10.731463432312012, 10.965192794799805, 11.289053916931152, 11.06239128112793, 10.793661117553711, 11.027772903442383, 11.74045181274414, 12.375720977783203]
v: [15.0, 7.801349639892578, 10.008102416992188, 15.0, 12.94684886932373, 15.0, 13.831194877624512, 15.0, 13.109771728515625, 10.467782020568848]
---
header: 
  seq: 56
  stamp: 
    secs: 0
    nsecs:         0
  frame_id: "map"
x: [-13.0, -10.03924560546875, -6.924110412597656, -5.049327850341797, -3.291391372680664, -1.3360378742218018, 0.5546683073043823, 2.3751220703125, 5.902624130249023, 7.657683372497559]
y: [10.300000190734863, 10.682609558105469, 10.731463432312012, 10.965192794799805, 11.289053916931152, 11.06239128112793, 10.793661117553711, 11.027772903442383, 11.74045181274414, 12.375720977783203]
v: [15.0, 7.801349639892578, 10.008102416992188, 15.0, 12.94684886932373, 15.0, 13.831194877624512, 15.0, 13.109771728515625, 10.467782020568848]
---
header: 
  seq: 57
  stamp: 
    secs: 0
    nsecs:         0
  frame_id: "map"
x: [-13.0, -10.03924560546875, -6.924110412597656, -5.049327850341797, -3.291391372680664, -1.3360378742218018, 0.5546683073043823, 2.3751220703125, 5.902624130249023, 7.657683372497559]
y: [10.300000190734863, 10.682609558105469, 10.731463432312012, 10.965192794799805, 11.289053916931152, 11.06239128112793, 10.793661117553711, 11.027772903442383, 11.74045181274414, 12.375720977783203]
v: [15.0, 7.801349639892578, 10.008102416992188, 15.0, 12.94684886932373, 15.0, 13.831194877624512, 15.0, 13.109771728515625, 10.467782020568848]
---
header: 
  seq: 58
  stamp: 
    secs: 0
    nsecs:         0
  frame_id: "map"
x: [-13.0, -10.03924560546875, -6.924110412597656, -5.049327850341797, -3.291391372680664, -1.3360378742218018, 0.5546683073043823, 2.3751220703125, 5.902624130249023, 7.657683372497559]
y: [10.300000190734863, 10.682609558105469, 10.731463432312012, 10.965192794799805, 11.289053916931152, 11.06239128112793, 10.793661117553711, 11.027772903442383, 11.74045181274414, 12.375720977783203]
v: [15.0, 7.801349639892578, 10.008102416992188, 15.0, 12.94684886932373, 15.0, 13.831194877624512, 15.0, 13.109771728515625, 10.467782020568848]
---
header: 
  seq: 59
  stamp: 
    secs: 0
    nsecs:         0
  frame_id: "map"
x: [-13.0, -10.03924560546875, -6.924110412597656, -5.049327850341797, -3.291391372680664, -1.3360378742218018, 0.5546683073043823, 2.3751220703125, 5.902624130249023, 7.657683372497559, 9.390848159790039]
y: [10.300000190734863, 10.682609558105469, 10.731463432312012, 10.965192794799805, 11.289053916931152, 11.06239128112793, 10.793661117553711, 11.027772903442383, 11.74045181274414, 12.375720977783203, 13.137937545776367]
v: [15.0, 7.801349639892578, 10.008102416992188, 15.0, 12.94684886932373, 15.0, 13.831194877624512, 15.0, 13.109771728515625, 15.0, 9.596633911132812]
---
header: 
  seq: 60
  stamp: 
    secs: 0
    nsecs:         0
  frame_id: "map"
x: [-13.0, -10.03924560546875, -6.924110412597656, -5.049327850341797, -3.291391372680664, -1.3360378742218018, 0.5546683073043823, 2.3751220703125, 5.902624130249023, 7.657683372497559, 9.390848159790039]
y: [10.300000190734863, 10.682609558105469, 10.731463432312012, 10.965192794799805, 11.289053916931152, 11.06239128112793, 10.793661117553711, 11.027772903442383, 11.74045181274414, 12.375720977783203, 13.137937545776367]
v: [15.0, 7.801349639892578, 10.008102416992188, 15.0, 12.94684886932373, 15.0, 13.831194877624512, 15.0, 13.109771728515625, 15.0, 9.596633911132812]
---
header: 
  seq: 61
  stamp: 
    secs: 0
    nsecs:         0
  frame_id: "map"
x: [-13.0, -10.03924560546875, -6.924110412597656, -5.049327850341797, -3.291391372680664, -1.3360378742218018, 0.5546683073043823, 2.3751220703125, 5.902624130249023, 7.657683372497559, 9.390848159790039]
y: [10.300000190734863, 10.682609558105469, 10.731463432312012, 10.965192794799805, 11.289053916931152, 11.06239128112793, 10.793661117553711, 11.027772903442383, 11.74045181274414, 12.375720977783203, 13.137937545776367]
v: [15.0, 7.801349639892578, 10.008102416992188, 15.0, 12.94684886932373, 15.0, 13.831194877624512, 15.0, 13.109771728515625, 15.0, 9.596633911132812]
---
header: 
  seq: 62
  stamp: 
    secs: 0
    nsecs:         0
  frame_id: "map"
x: [-13.0, -10.03924560546875, -6.924110412597656, -5.049327850341797, -3.291391372680664, -1.3360378742218018, 0.5546683073043823, 2.3751220703125, 5.902624130249023, 7.657683372497559, 9.390848159790039, 10.594172477722168]
y: [10.300000190734863, 10.682609558105469, 10.731463432312012, 10.965192794799805, 11.289053916931152, 11.06239128112793, 10.793661117553711, 11.027772903442383, 11.74045181274414, 12.375720977783203, 13.137937545776367, 13.731545448303223]
v: [15.0, 7.801349639892578, 10.008102416992188, 15.0, 12.94684886932373, 15.0, 13.831194877624512, 15.0, 13.109771728515625, 15.0, 15.0, 11.363011360168457]
---
header: 
  seq: 63
  stamp: 
    secs: 0
    nsecs:         0
  frame_id: "map"
x: [-13.0, -10.03924560546875, -6.924110412597656, -5.049327850341797, -3.291391372680664, -1.3360378742218018, 0.5546683073043823, 2.3751220703125, 5.902624130249023, 7.657683372497559, 9.390848159790039, 10.594172477722168]
y: [10.300000190734863, 10.682609558105469, 10.731463432312012, 10.965192794799805, 11.289053916931152, 11.06239128112793, 10.793661117553711, 11.027772903442383, 11.74045181274414, 12.375720977783203, 13.137937545776367, 13.731545448303223]
v: [15.0, 7.801349639892578, 10.008102416992188, 15.0, 12.94684886932373, 15.0, 13.831194877624512, 15.0, 13.109771728515625, 15.0, 15.0, 11.363011360168457]
---
header: 
  seq: 64
  stamp: 
    secs: 0
    nsecs:         0
  frame_id: "map"
x: [-13.0, -10.03924560546875, -6.924110412597656, -5.049327850341797, -3.291391372680664, -1.3360378742218018, 0.5546683073043823, 2.3751220703125, 5.902624130249023, 7.657683372497559, 9.390848159790039, 10.594172477722168]
y: [10.300000190734863, 10.682609558105469, 10.731463432312012, 10.965192794799805, 11.289053916931152, 11.06239128112793, 10.793661117553711, 11.027772903442383, 11.74045181274414, 12.375720977783203, 13.137937545776367, 13.731545448303223]
v: [15.0, 7.801349639892578, 10.008102416992188, 15.0, 12.94684886932373, 15.0, 13.831194877624512, 15.0, 13.109771728515625, 15.0, 15.0, 11.363011360168457]
---
header: 
  seq: 65
  stamp: 
    secs: 0
    nsecs:         0
  frame_id: "map"
x: [-13.0, -10.03924560546875, -6.924110412597656, -5.049327850341797, -3.291391372680664, -1.3360378742218018, 0.5546683073043823, 2.3751220703125, 5.902624130249023, 7.657683372497559, 9.390848159790039, 10.594172477722168]
y: [10.300000190734863, 10.682609558105469, 10.731463432312012, 10.965192794799805, 11.289053916931152, 11.06239128112793, 10.793661117553711, 11.027772903442383, 11.74045181274414, 12.375720977783203, 13.137937545776367, 13.731545448303223]
v: [15.0, 7.801349639892578, 10.008102416992188, 15.0, 12.94684886932373, 15.0, 13.831194877624512, 15.0, 13.109771728515625, 15.0, 15.0, 11.363011360168457]
---
header: 
  seq: 66
  stamp: 
    secs: 0
    nsecs:         0
  frame_id: "map"
x: [-13.0, -10.03924560546875, -6.924110412597656, -5.049327850341797, -3.291391372680664, -1.3360378742218018, 0.5546683073043823, 2.3751220703125, 5.902624130249023, 7.657683372497559, 9.390848159790039, 10.594172477722168]
y: [10.300000190734863, 10.682609558105469, 10.731463432312012, 10.965192794799805, 11.289053916931152, 11.06239128112793, 10.793661117553711, 11.027772903442383, 11.74045181274414, 12.375720977783203, 13.137937545776367, 13.731545448303223]
v: [15.0, 7.801349639892578, 10.008102416992188, 15.0, 12.94684886932373, 15.0, 13.831194877624512, 15.0, 13.109771728515625, 15.0, 15.0, 11.363011360168457]
---
header: 
  seq: 67
  stamp: 
    secs: 0
    nsecs:         0
  frame_id: "map"
x: [-13.0, -10.03924560546875, -6.924110412597656, -5.049327850341797, -3.291391372680664, -1.3360378742218018, 0.5546683073043823, 2.3751220703125, 5.902624130249023, 7.657683372497559, 9.390848159790039, 10.594172477722168]
y: [10.300000190734863, 10.682609558105469, 10.731463432312012, 10.965192794799805, 11.289053916931152, 11.06239128112793, 10.793661117553711, 11.027772903442383, 11.74045181274414, 12.375720977783203, 13.137937545776367, 13.731545448303223]
v: [15.0, 7.801349639892578, 10.008102416992188, 15.0, 12.94684886932373, 15.0, 13.831194877624512, 15.0, 13.109771728515625, 15.0, 15.0, 11.363011360168457]
---
header: 
  seq: 68
  stamp: 
    secs: 0
    nsecs:         0
  frame_id: "map"
x: [-13.0, -10.03924560546875, -6.924110412597656, -5.049327850341797, -3.291391372680664, -1.3360378742218018, 0.5546683073043823, 2.3751220703125, 5.902624130249023, 7.657683372497559, 9.390848159790039, 10.594172477722168]
y: [10.300000190734863, 10.682609558105469, 10.731463432312012, 10.965192794799805, 11.289053916931152, 11.06239128112793, 10.793661117553711, 11.027772903442383, 11.74045181274414, 12.375720977783203, 13.137937545776367, 13.731545448303223]
v: [15.0, 7.801349639892578, 10.008102416992188, 15.0, 12.94684886932373, 15.0, 13.831194877624512, 15.0, 13.109771728515625, 15.0, 15.0, 11.363011360168457]
---
header: 
  seq: 69
  stamp: 
    secs: 0
    nsecs:         0
  frame_id: "map"
x: [-13.0, -10.03924560546875, -6.924110412597656, -5.049327850341797, -3.291391372680664, -1.3360378742218018, 0.5546683073043823, 2.3751220703125, 5.902624130249023, 7.657683372497559, 9.390848159790039, 10.594172477722168]
y: [10.300000190734863, 10.682609558105469, 10.731463432312012, 10.965192794799805, 11.289053916931152, 11.06239128112793, 10.793661117553711, 11.027772903442383, 11.74045181274414, 12.375720977783203, 13.137937545776367, 13.731545448303223]
v: [15.0, 7.801349639892578, 10.008102416992188, 15.0, 12.94684886932373, 15.0, 13.831194877624512, 15.0, 13.109771728515625, 15.0, 15.0, 11.363011360168457]
---
header: 
  seq: 70
  stamp: 
    secs: 0
    nsecs:         0
  frame_id: "map"
x: [-13.0, -10.03924560546875, -6.924110412597656, -5.049327850341797, -3.291391372680664, -1.3360378742218018, 0.5546683073043823, 2.3751220703125, 5.902624130249023, 7.657683372497559, 9.390848159790039, 10.594172477722168, 11.89877700805664]
y: [10.300000190734863, 10.682609558105469, 10.731463432312012, 10.965192794799805, 11.289053916931152, 11.06239128112793, 10.793661117553711, 11.027772903442383, 11.74045181274414, 12.375720977783203, 13.137937545776367, 13.731545448303223, 14.23257827758789]
v: [15.0, 7.801349639892578, 10.008102416992188, 15.0, 12.94684886932373, 15.0, 13.831194877624512, 15.0, 13.109771728515625, 15.0, 15.0, 15.0, 9.93427848815918]
---
header: 
  seq: 71
  stamp: 
    secs: 0
    nsecs:         0
  frame_id: "map"
x: [-13.0, -10.03924560546875, -6.924110412597656, -5.049327850341797, -3.291391372680664, -1.3360378742218018, 0.5546683073043823, 2.3751220703125, 5.902624130249023, 7.657683372497559, 9.390848159790039, 10.594172477722168, 11.89877700805664]
y: [10.300000190734863, 10.682609558105469, 10.731463432312012, 10.965192794799805, 11.289053916931152, 11.06239128112793, 10.793661117553711, 11.027772903442383, 11.74045181274414, 12.375720977783203, 13.137937545776367, 13.731545448303223, 14.23257827758789]
v: [15.0, 7.801349639892578, 10.008102416992188, 15.0, 12.94684886932373, 15.0, 13.831194877624512, 15.0, 13.109771728515625, 15.0, 15.0, 15.0, 9.93427848815918]
---
header: 
  seq: 72
  stamp: 
    secs: 0
    nsecs:         0
  frame_id: "map"
x: [-13.0, -10.03924560546875, -6.924110412597656, -5.049327850341797, -3.291391372680664, -1.3360378742218018, 0.5546683073043823, 2.3751220703125, 5.902624130249023, 7.657683372497559, 9.390848159790039, 10.594172477722168, 11.89877700805664]
y: [10.300000190734863, 10.682609558105469, 10.731463432312012, 10.965192794799805, 11.289053916931152, 11.06239128112793, 10.793661117553711, 11.027772903442383, 11.74045181274414, 12.375720977783203, 13.137937545776367, 13.731545448303223, 14.23257827758789]
v: [15.0, 7.801349639892578, 10.008102416992188, 15.0, 12.94684886932373, 15.0, 13.831194877624512, 15.0, 13.109771728515625, 15.0, 15.0, 15.0, 9.93427848815918]
---
header: 
  seq: 73
  stamp: 
    secs: 0
    nsecs:         0
  frame_id: "map"
x: [-13.0, -10.03924560546875, -6.924110412597656, -5.049327850341797, -3.291391372680664, -1.3360378742218018, 0.5546683073043823, 2.3751220703125, 5.902624130249023, 7.657683372497559, 9.390848159790039, 10.594172477722168, 11.89877700805664]
y: [10.300000190734863, 10.682609558105469, 10.731463432312012, 10.965192794799805, 11.289053916931152, 11.06239128112793, 10.793661117553711, 11.027772903442383, 11.74045181274414, 12.375720977783203, 13.137937545776367, 13.731545448303223, 14.23257827758789]
v: [15.0, 7.801349639892578, 10.008102416992188, 15.0, 12.94684886932373, 15.0, 13.831194877624512, 15.0, 13.109771728515625, 15.0, 15.0, 15.0, 9.93427848815918]
---
header: 
  seq: 74
  stamp: 
    secs: 0
    nsecs:         0
  frame_id: "map"
x: [-13.0, -10.03924560546875, -6.924110412597656, -5.049327850341797, -3.291391372680664, -1.3360378742218018, 0.5546683073043823, 2.3751220703125, 5.902624130249023, 7.657683372497559, 9.390848159790039, 10.594172477722168, 11.89877700805664, 13.217435836791992]
y: [10.300000190734863, 10.682609558105469, 10.731463432312012, 10.965192794799805, 11.289053916931152, 11.06239128112793, 10.793661117553711, 11.027772903442383, 11.74045181274414, 12.375720977783203, 13.137937545776367, 13.731545448303223, 14.23257827758789, 14.785173416137695]
v: [15.0, 7.801349639892578, 10.008102416992188, 15.0, 12.94684886932373, 15.0, 13.831194877624512, 15.0, 13.109771728515625, 15.0, 15.0, 15.0, 15.0, 10.715472221374512]
---
header: 
  seq: 75
  stamp: 
    secs: 0
    nsecs:         0
  frame_id: "map"
x: [-13.0, -10.03924560546875, -6.924110412597656, -5.049327850341797, -3.291391372680664, -1.3360378742218018, 0.5546683073043823, 2.3751220703125, 5.902624130249023, 7.657683372497559, 9.390848159790039, 10.594172477722168, 11.89877700805664, 13.217435836791992]
y: [10.300000190734863, 10.682609558105469, 10.731463432312012, 10.965192794799805, 11.289053916931152, 11.06239128112793, 10.793661117553711, 11.027772903442383, 11.74045181274414, 12.375720977783203, 13.137937545776367, 13.731545448303223, 14.23257827758789, 14.785173416137695]
v: [15.0, 7.801349639892578, 10.008102416992188, 15.0, 12.94684886932373, 15.0, 13.831194877624512, 15.0, 13.109771728515625, 15.0, 15.0, 15.0, 15.0, 10.715472221374512]
---
header: 
  seq: 76
  stamp: 
    secs: 0
    nsecs:         0
  frame_id: "map"
x: [-13.0, -10.03924560546875, -6.924110412597656, -5.049327850341797, -3.291391372680664, -1.3360378742218018, 0.5546683073043823, 2.3751220703125, 5.902624130249023, 7.657683372497559, 9.390848159790039, 10.594172477722168, 11.89877700805664, 13.217435836791992]
y: [10.300000190734863, 10.682609558105469, 10.731463432312012, 10.965192794799805, 11.289053916931152, 11.06239128112793, 10.793661117553711, 11.027772903442383, 11.74045181274414, 12.375720977783203, 13.137937545776367, 13.731545448303223, 14.23257827758789, 14.785173416137695]
v: [15.0, 7.801349639892578, 10.008102416992188, 15.0, 12.94684886932373, 15.0, 13.831194877624512, 15.0, 13.109771728515625, 15.0, 15.0, 15.0, 15.0, 10.715472221374512]
---
header: 
  seq: 77
  stamp: 
    secs: 0
    nsecs:         0
  frame_id: "map"
x: [-13.0, -10.03924560546875, -6.924110412597656, -5.049327850341797, -3.291391372680664, -1.3360378742218018, 0.5546683073043823, 2.3751220703125, 5.902624130249023, 7.657683372497559, 9.390848159790039, 10.594172477722168, 11.89877700805664, 13.217435836791992]
y: [10.300000190734863, 10.682609558105469, 10.731463432312012, 10.965192794799805, 11.289053916931152, 11.06239128112793, 10.793661117553711, 11.027772903442383, 11.74045181274414, 12.375720977783203, 13.137937545776367, 13.731545448303223, 14.23257827758789, 14.785173416137695]
v: [15.0, 7.801349639892578, 10.008102416992188, 15.0, 12.94684886932373, 15.0, 13.831194877624512, 15.0, 13.109771728515625, 15.0, 15.0, 15.0, 15.0, 10.715472221374512]
---
header: 
  seq: 78
  stamp: 
    secs: 0
    nsecs:         0
  frame_id: "map"
x: [-13.0, -10.03924560546875, -6.924110412597656, -5.049327850341797, -3.291391372680664, -1.3360378742218018, 0.5546683073043823, 2.3751220703125, 5.902624130249023, 7.657683372497559, 9.390848159790039, 10.594172477722168, 11.89877700805664, 13.217435836791992]
y: [10.300000190734863, 10.682609558105469, 10.731463432312012, 10.965192794799805, 11.289053916931152, 11.06239128112793, 10.793661117553711, 11.027772903442383, 11.74045181274414, 12.375720977783203, 13.137937545776367, 13.731545448303223, 14.23257827758789, 14.785173416137695]
v: [15.0, 7.801349639892578, 10.008102416992188, 15.0, 12.94684886932373, 15.0, 13.831194877624512, 15.0, 13.109771728515625, 15.0, 15.0, 15.0, 15.0, 10.715472221374512]
---
header: 
  seq: 79
  stamp: 
    secs: 0
    nsecs:         0
  frame_id: "map"
x: [-13.0, -10.03924560546875, -6.924110412597656, -5.049327850341797, -3.291391372680664, -1.3360378742218018, 0.5546683073043823, 2.3751220703125, 5.902624130249023, 7.657683372497559, 9.390848159790039, 10.594172477722168, 11.89877700805664, 13.217435836791992, 14.579924583435059]
y: [10.300000190734863, 10.682609558105469, 10.731463432312012, 10.965192794799805, 11.289053916931152, 11.06239128112793, 10.793661117553711, 11.027772903442383, 11.74045181274414, 12.375720977783203, 13.137937545776367, 13.731545448303223, 14.23257827758789, 14.785173416137695, 14.556686401367188]
v: [15.0, 7.801349639892578, 10.008102416992188, 15.0, 12.94684886932373, 15.0, 13.831194877624512, 15.0, 13.109771728515625, 15.0, 15.0, 15.0, 15.0, 12.306099891662598, 8.438539505004883]
---
header: 
  seq: 80
  stamp: 
    secs: 0
    nsecs:         0
  frame_id: "map"
x: [-13.0, -10.03924560546875, -6.924110412597656, -5.049327850341797, -3.291391372680664, -1.3360378742218018, 0.5546683073043823, 2.3751220703125, 5.902624130249023, 7.657683372497559, 9.390848159790039, 10.594172477722168, 11.89877700805664, 13.217435836791992, 14.579924583435059]
y: [10.300000190734863, 10.682609558105469, 10.731463432312012, 10.965192794799805, 11.289053916931152, 11.06239128112793, 10.793661117553711, 11.027772903442383, 11.74045181274414, 12.375720977783203, 13.137937545776367, 13.731545448303223, 14.23257827758789, 14.785173416137695, 14.556686401367188]
v: [15.0, 7.801349639892578, 10.008102416992188, 15.0, 12.94684886932373, 15.0, 13.831194877624512, 15.0, 13.109771728515625, 15.0, 15.0, 15.0, 15.0, 12.306099891662598, 8.438539505004883]
---
header: 
  seq: 81
  stamp: 
    secs: 0
    nsecs:         0
  frame_id: "map"
x: [-13.0, -10.03924560546875, -6.924110412597656, -5.049327850341797, -3.291391372680664, -1.3360378742218018, 0.5546683073043823, 2.3751220703125, 5.902624130249023, 7.657683372497559, 9.390848159790039, 10.594172477722168, 11.89877700805664, 13.217435836791992, 14.579924583435059]
y: [10.300000190734863, 10.682609558105469, 10.731463432312012, 10.965192794799805, 11.289053916931152, 11.06239128112793, 10.793661117553711, 11.027772903442383, 11.74045181274414, 12.375720977783203, 13.137937545776367, 13.731545448303223, 14.23257827758789, 14.785173416137695, 14.556686401367188]
v: [15.0, 7.801349639892578, 10.008102416992188, 15.0, 12.94684886932373, 15.0, 13.831194877624512, 15.0, 13.109771728515625, 15.0, 15.0, 15.0, 15.0, 12.306099891662598, 8.438539505004883]
---
header: 
  seq: 82
  stamp: 
    secs: 0
    nsecs:         0
  frame_id: "map"
x: [-13.0, -10.03924560546875, -6.924110412597656, -5.049327850341797, -3.291391372680664, -1.3360378742218018, 0.5546683073043823, 2.3751220703125, 5.902624130249023, 7.657683372497559, 9.390848159790039, 10.594172477722168, 11.89877700805664, 13.217435836791992, 14.579924583435059]
y: [10.300000190734863, 10.682609558105469, 10.731463432312012, 10.965192794799805, 11.289053916931152, 11.06239128112793, 10.793661117553711, 11.027772903442383, 11.74045181274414, 12.375720977783203, 13.137937545776367, 13.731545448303223, 14.23257827758789, 14.785173416137695, 14.556686401367188]
v: [15.0, 7.801349639892578, 10.008102416992188, 15.0, 12.94684886932373, 15.0, 13.831194877624512, 15.0, 13.109771728515625, 15.0, 15.0, 15.0, 15.0, 12.306099891662598, 8.438539505004883]
---
header: 
  seq: 83
  stamp: 
    secs: 0
    nsecs:         0
  frame_id: "map"
x: [-13.0, -10.03924560546875, -6.924110412597656, -5.049327850341797, -3.291391372680664, -1.3360378742218018, 0.5546683073043823, 2.3751220703125, 5.902624130249023, 7.657683372497559, 9.390848159790039, 10.594172477722168, 11.89877700805664, 13.217435836791992, 14.579924583435059]
y: [10.300000190734863, 10.682609558105469, 10.731463432312012, 10.965192794799805, 11.289053916931152, 11.06239128112793, 10.793661117553711, 11.027772903442383, 11.74045181274414, 12.375720977783203, 13.137937545776367, 13.731545448303223, 14.23257827758789, 14.785173416137695, 14.556686401367188]
v: [15.0, 7.801349639892578, 10.008102416992188, 15.0, 12.94684886932373, 15.0, 13.831194877624512, 15.0, 13.109771728515625, 15.0, 15.0, 15.0, 15.0, 12.306099891662598, 8.438539505004883]
---
header: 
  seq: 84
  stamp: 
    secs: 0
    nsecs:         0
  frame_id: "map"
x: [-13.0, -10.03924560546875, -6.924110412597656, -5.049327850341797, -3.291391372680664, -1.3360378742218018, 0.5546683073043823, 2.3751220703125, 5.902624130249023, 7.657683372497559, 9.390848159790039, 10.594172477722168, 11.89877700805664, 13.217435836791992, 14.579924583435059]
y: [10.300000190734863, 10.682609558105469, 10.731463432312012, 10.965192794799805, 11.289053916931152, 11.06239128112793, 10.793661117553711, 11.027772903442383, 11.74045181274414, 12.375720977783203, 13.137937545776367, 13.731545448303223, 14.23257827758789, 14.785173416137695, 14.556686401367188]
v: [15.0, 7.801349639892578, 10.008102416992188, 15.0, 12.94684886932373, 15.0, 13.831194877624512, 15.0, 13.109771728515625, 15.0, 15.0, 15.0, 15.0, 12.306099891662598, 8.438539505004883]
---
header: 
  seq: 85
  stamp: 
    secs: 0
    nsecs:         0
  frame_id: "map"
x: [-13.0, -10.03924560546875, -6.924110412597656, -5.049327850341797, -3.291391372680664, -1.3360378742218018, 0.5546683073043823, 2.3751220703125, 5.902624130249023, 7.657683372497559, 9.390848159790039, 10.594172477722168, 11.89877700805664, 13.217435836791992, 14.579924583435059, 15.828897476196289]
y: [10.300000190734863, 10.682609558105469, 10.731463432312012, 10.965192794799805, 11.289053916931152, 11.06239128112793, 10.793661117553711, 11.027772903442383, 11.74045181274414, 12.375720977783203, 13.137937545776367, 13.731545448303223, 14.23257827758789, 14.785173416137695, 14.556686401367188, 13.9322509765625]
v: [15.0, 7.801349639892578, 10.008102416992188, 15.0, 12.94684886932373, 15.0, 13.831194877624512, 15.0, 13.109771728515625, 15.0, 15.0, 15.0, 15.0, 12.306099891662598, 10.603386878967285, 3.7554750442504883]
---
header: 
  seq: 86
  stamp: 
    secs: 0
    nsecs:         0
  frame_id: "map"
x: [-13.0, -10.03924560546875, -6.924110412597656, -5.049327850341797, -3.291391372680664, -1.3360378742218018, 0.5546683073043823, 2.3751220703125, 5.902624130249023, 7.657683372497559, 9.390848159790039, 10.594172477722168, 11.89877700805664, 13.217435836791992, 14.579924583435059, 15.828897476196289]
y: [10.300000190734863, 10.682609558105469, 10.731463432312012, 10.965192794799805, 11.289053916931152, 11.06239128112793, 10.793661117553711, 11.027772903442383, 11.74045181274414, 12.375720977783203, 13.137937545776367, 13.731545448303223, 14.23257827758789, 14.785173416137695, 14.556686401367188, 13.9322509765625]
v: [15.0, 7.801349639892578, 10.008102416992188, 15.0, 12.94684886932373, 15.0, 13.831194877624512, 15.0, 13.109771728515625, 15.0, 15.0, 15.0, 15.0, 12.306099891662598, 10.603386878967285, 3.7554750442504883]
---
header: 
  seq: 87
  stamp: 
    secs: 0
    nsecs:         0
  frame_id: "map"
x: [-13.0, -10.03924560546875, -6.924110412597656, -5.049327850341797, -3.291391372680664, -1.3360378742218018, 0.5546683073043823, 2.3751220703125, 5.902624130249023, 7.657683372497559, 9.390848159790039, 10.594172477722168, 11.89877700805664, 13.217435836791992, 14.579924583435059, 15.828897476196289]
y: [10.300000190734863, 10.682609558105469, 10.731463432312012, 10.965192794799805, 11.289053916931152, 11.06239128112793, 10.793661117553711, 11.027772903442383, 11.74045181274414, 12.375720977783203, 13.137937545776367, 13.731545448303223, 14.23257827758789, 14.785173416137695, 14.556686401367188, 13.9322509765625]
v: [15.0, 7.801349639892578, 10.008102416992188, 15.0, 12.94684886932373, 15.0, 13.831194877624512, 15.0, 13.109771728515625, 15.0, 15.0, 15.0, 15.0, 12.306099891662598, 10.603386878967285, 3.7554750442504883]
---
header: 
  seq: 88
  stamp: 
    secs: 0
    nsecs:         0
  frame_id: "map"
x: [-13.0, -10.03924560546875, -6.924110412597656, -5.049327850341797, -3.291391372680664, -1.3360378742218018, 0.5546683073043823, 2.3751220703125, 5.902624130249023, 7.657683372497559, 9.390848159790039, 10.594172477722168, 11.89877700805664, 13.217435836791992, 14.579924583435059, 15.828897476196289]
y: [10.300000190734863, 10.682609558105469, 10.731463432312012, 10.965192794799805, 11.289053916931152, 11.06239128112793, 10.793661117553711, 11.027772903442383, 11.74045181274414, 12.375720977783203, 13.137937545776367, 13.731545448303223, 14.23257827758789, 14.785173416137695, 14.556686401367188, 13.9322509765625]
v: [15.0, 7.801349639892578, 10.008102416992188, 15.0, 12.94684886932373, 15.0, 13.831194877624512, 15.0, 13.109771728515625, 15.0, 15.0, 15.0, 15.0, 12.306099891662598, 10.603386878967285, 3.7554750442504883]
---
header: 
  seq: 89
  stamp: 
    secs: 0
    nsecs:         0
  frame_id: "map"
x: [-13.0, -10.03924560546875, -6.924110412597656, -5.049327850341797, -3.291391372680664, -1.3360378742218018, 0.5546683073043823, 2.3751220703125, 5.902624130249023, 7.657683372497559, 9.390848159790039, 10.594172477722168, 11.89877700805664, 13.217435836791992, 14.579924583435059, 15.828897476196289]
y: [10.300000190734863, 10.682609558105469, 10.731463432312012, 10.965192794799805, 11.289053916931152, 11.06239128112793, 10.793661117553711, 11.027772903442383, 11.74045181274414, 12.375720977783203, 13.137937545776367, 13.731545448303223, 14.23257827758789, 14.785173416137695, 14.556686401367188, 13.9322509765625]
v: [15.0, 7.801349639892578, 10.008102416992188, 15.0, 12.94684886932373, 15.0, 13.831194877624512, 15.0, 13.109771728515625, 15.0, 15.0, 15.0, 15.0, 12.306099891662598, 10.603386878967285, 3.7554750442504883]
---
header: 
  seq: 90
  stamp: 
    secs: 0
    nsecs:         0
  frame_id: "map"
x: [-13.0, -10.03924560546875, -6.924110412597656, -5.049327850341797, -3.291391372680664, -1.3360378742218018, 0.5546683073043823, 2.3751220703125, 5.902624130249023, 7.657683372497559, 9.390848159790039, 10.594172477722168, 11.89877700805664, 13.217435836791992, 14.579924583435059, 15.828897476196289]
y: [10.300000190734863, 10.682609558105469, 10.731463432312012, 10.965192794799805, 11.289053916931152, 11.06239128112793, 10.793661117553711, 11.027772903442383, 11.74045181274414, 12.375720977783203, 13.137937545776367, 13.731545448303223, 14.23257827758789, 14.785173416137695, 14.556686401367188, 13.9322509765625]
v: [15.0, 7.801349639892578, 10.008102416992188, 15.0, 12.94684886932373, 15.0, 13.831194877624512, 15.0, 13.109771728515625, 15.0, 15.0, 15.0, 15.0, 12.306099891662598, 10.603386878967285, 3.7554750442504883]
---
header: 
  seq: 91
  stamp: 
    secs: 0
    nsecs:         0
  frame_id: "map"
x: [-13.0, -10.03924560546875, -6.924110412597656, -5.049327850341797, -3.291391372680664, -1.3360378742218018, 0.5546683073043823, 2.3751220703125, 5.902624130249023, 7.657683372497559, 9.390848159790039, 10.594172477722168, 11.89877700805664, 13.217435836791992, 14.579924583435059, 15.828897476196289, 17.575366973876953]
y: [10.300000190734863, 10.682609558105469, 10.731463432312012, 10.965192794799805, 11.289053916931152, 11.06239128112793, 10.793661117553711, 11.027772903442383, 11.74045181274414, 12.375720977783203, 13.137937545776367, 13.731545448303223, 14.23257827758789, 14.785173416137695, 14.556686401367188, 13.9322509765625, 12.427953720092773]
v: [15.0, 7.801349639892578, 10.008102416992188, 15.0, 12.94684886932373, 15.0, 13.831194877624512, 15.0, 13.109771728515625, 15.0, 15.0, 15.0, 15.0, 12.306099891662598, 10.603386878967285, 6.49453592300415, 4.903908729553223]
---
header: 
  seq: 92
  stamp: 
    secs: 0
    nsecs:         0
  frame_id: "map"
x: [-13.0, -10.03924560546875, -6.924110412597656, -5.049327850341797, -3.291391372680664, -1.3360378742218018, 0.5546683073043823, 2.3751220703125, 5.902624130249023, 7.657683372497559, 9.390848159790039, 10.594172477722168, 11.89877700805664, 13.217435836791992, 14.579924583435059, 15.828897476196289, 17.575366973876953]
y: [10.300000190734863, 10.682609558105469, 10.731463432312012, 10.965192794799805, 11.289053916931152, 11.06239128112793, 10.793661117553711, 11.027772903442383, 11.74045181274414, 12.375720977783203, 13.137937545776367, 13.731545448303223, 14.23257827758789, 14.785173416137695, 14.556686401367188, 13.9322509765625, 12.427953720092773]
v: [15.0, 7.801349639892578, 10.008102416992188, 15.0, 12.94684886932373, 15.0, 13.831194877624512, 15.0, 13.109771728515625, 15.0, 15.0, 15.0, 15.0, 12.306099891662598, 10.603386878967285, 6.49453592300415, 4.903908729553223]
---
header: 
  seq: 93
  stamp: 
    secs: 0
    nsecs:         0
  frame_id: "map"
x: [-13.0, -10.03924560546875, -6.924110412597656, -5.049327850341797, -3.291391372680664, -1.3360378742218018, 0.5546683073043823, 2.3751220703125, 5.902624130249023, 7.657683372497559, 9.390848159790039, 10.594172477722168, 11.89877700805664, 13.217435836791992, 14.579924583435059, 15.828897476196289, 17.575366973876953]
y: [10.300000190734863, 10.682609558105469, 10.731463432312012, 10.965192794799805, 11.289053916931152, 11.06239128112793, 10.793661117553711, 11.027772903442383, 11.74045181274414, 12.375720977783203, 13.137937545776367, 13.731545448303223, 14.23257827758789, 14.785173416137695, 14.556686401367188, 13.9322509765625, 12.427953720092773]
v: [15.0, 7.801349639892578, 10.008102416992188, 15.0, 12.94684886932373, 15.0, 13.831194877624512, 15.0, 13.109771728515625, 15.0, 15.0, 15.0, 15.0, 12.306099891662598, 10.603386878967285, 6.49453592300415, 4.903908729553223]
---
header: 
  seq: 94
  stamp: 
    secs: 0
    nsecs:         0
  frame_id: "map"
x: [-13.0, -10.03924560546875, -6.924110412597656, -5.049327850341797, -3.291391372680664, -1.3360378742218018, 0.5546683073043823, 2.3751220703125, 5.902624130249023, 7.657683372497559, 9.390848159790039, 10.594172477722168, 11.89877700805664, 13.217435836791992, 14.579924583435059, 15.828897476196289, 17.575366973876953]
y: [10.300000190734863, 10.682609558105469, 10.731463432312012, 10.965192794799805, 11.289053916931152, 11.06239128112793, 10.793661117553711, 11.027772903442383, 11.74045181274414, 12.375720977783203, 13.137937545776367, 13.731545448303223, 14.23257827758789, 14.785173416137695, 14.556686401367188, 13.9322509765625, 12.427953720092773]
v: [15.0, 7.801349639892578, 10.008102416992188, 15.0, 12.94684886932373, 15.0, 13.831194877624512, 15.0, 13.109771728515625, 15.0, 15.0, 15.0, 15.0, 12.306099891662598, 10.603386878967285, 6.49453592300415, 4.903908729553223]
---
header: 
  seq: 95
  stamp: 
    secs: 0
    nsecs:         0
  frame_id: "map"
x: [-13.0, -10.03924560546875, -6.924110412597656, -5.049327850341797, -3.291391372680664, -1.3360378742218018, 0.5546683073043823, 2.3751220703125, 5.902624130249023, 7.657683372497559, 9.390848159790039, 10.594172477722168, 11.89877700805664, 13.217435836791992, 14.579924583435059, 15.828897476196289, 17.575366973876953, 18.753372192382812]
y: [10.300000190734863, 10.682609558105469, 10.731463432312012, 10.965192794799805, 11.289053916931152, 11.06239128112793, 10.793661117553711, 11.027772903442383, 11.74045181274414, 12.375720977783203, 13.137937545776367, 13.731545448303223, 14.23257827758789, 14.785173416137695, 14.556686401367188, 13.9322509765625, 12.427953720092773, 11.459146499633789]
v: [15.0, 7.801349639892578, 10.008102416992188, 15.0, 12.94684886932373, 15.0, 13.831194877624512, 15.0, 13.109771728515625, 15.0, 15.0, 15.0, 15.0, 12.306099891662598, 10.603386878967285, 6.49453592300415, 14.073073387145996, 11.908226013183594]
---
header: 
  seq: 96
  stamp: 
    secs: 0
    nsecs:         0
  frame_id: "map"
x: [-13.0, -10.03924560546875, -6.924110412597656, -5.049327850341797, -3.291391372680664, -1.3360378742218018, 0.5546683073043823, 2.3751220703125, 5.902624130249023, 7.657683372497559, 9.390848159790039, 10.594172477722168, 11.89877700805664, 13.217435836791992, 14.579924583435059, 15.828897476196289, 17.575366973876953, 18.753372192382812]
y: [10.300000190734863, 10.682609558105469, 10.731463432312012, 10.965192794799805, 11.289053916931152, 11.06239128112793, 10.793661117553711, 11.027772903442383, 11.74045181274414, 12.375720977783203, 13.137937545776367, 13.731545448303223, 14.23257827758789, 14.785173416137695, 14.556686401367188, 13.9322509765625, 12.427953720092773, 11.459146499633789]
v: [15.0, 7.801349639892578, 10.008102416992188, 15.0, 12.94684886932373, 15.0, 13.831194877624512, 15.0, 13.109771728515625, 15.0, 15.0, 15.0, 15.0, 12.306099891662598, 10.603386878967285, 6.49453592300415, 14.073073387145996, 11.908226013183594]
---
header: 
  seq: 97
  stamp: 
    secs: 0
    nsecs:         0
  frame_id: "map"
x: [-13.0, -10.03924560546875, -6.924110412597656, -5.049327850341797, -3.291391372680664, -1.3360378742218018, 0.5546683073043823, 2.3751220703125, 5.902624130249023, 7.657683372497559, 9.390848159790039, 10.594172477722168, 11.89877700805664, 13.217435836791992, 14.579924583435059, 15.828897476196289, 17.575366973876953, 18.753372192382812]
y: [10.300000190734863, 10.682609558105469, 10.731463432312012, 10.965192794799805, 11.289053916931152, 11.06239128112793, 10.793661117553711, 11.027772903442383, 11.74045181274414, 12.375720977783203, 13.137937545776367, 13.731545448303223, 14.23257827758789, 14.785173416137695, 14.556686401367188, 13.9322509765625, 12.427953720092773, 11.459146499633789]
v: [15.0, 7.801349639892578, 10.008102416992188, 15.0, 12.94684886932373, 15.0, 13.831194877624512, 15.0, 13.109771728515625, 15.0, 15.0, 15.0, 15.0, 12.306099891662598, 10.603386878967285, 6.49453592300415, 14.073073387145996, 11.908226013183594]
---
header: 
  seq: 98
  stamp: 
    secs: 0
    nsecs:         0
  frame_id: "map"
x: [-13.0, -10.03924560546875, -6.924110412597656, -5.049327850341797, -3.291391372680664, -1.3360378742218018, 0.5546683073043823, 2.3751220703125, 5.902624130249023, 7.657683372497559, 9.390848159790039, 10.594172477722168, 11.89877700805664, 13.217435836791992, 14.579924583435059, 15.828897476196289, 17.575366973876953, 18.753372192382812]
y: [10.300000190734863, 10.682609558105469, 10.731463432312012, 10.965192794799805, 11.289053916931152, 11.06239128112793, 10.793661117553711, 11.027772903442383, 11.74045181274414, 12.375720977783203, 13.137937545776367, 13.731545448303223, 14.23257827758789, 14.785173416137695, 14.556686401367188, 13.9322509765625, 12.427953720092773, 11.459146499633789]
v: [15.0, 7.801349639892578, 10.008102416992188, 15.0, 12.94684886932373, 15.0, 13.831194877624512, 15.0, 13.109771728515625, 15.0, 15.0, 15.0, 15.0, 12.306099891662598, 10.603386878967285, 6.49453592300415, 14.073073387145996, 11.908226013183594]
---
header: 
  seq: 99
  stamp: 
    secs: 0
    nsecs:         0
  frame_id: "map"
x: [-13.0, -10.03924560546875, -6.924110412597656, -5.049327850341797, -3.291391372680664, -1.3360378742218018, 0.5546683073043823, 2.3751220703125, 5.902624130249023, 7.657683372497559, 9.390848159790039, 10.594172477722168, 11.89877700805664, 13.217435836791992, 14.579924583435059, 15.828897476196289, 17.575366973876953, 18.753372192382812]
y: [10.300000190734863, 10.682609558105469, 10.731463432312012, 10.965192794799805, 11.289053916931152, 11.06239128112793, 10.793661117553711, 11.027772903442383, 11.74045181274414, 12.375720977783203, 13.137937545776367, 13.731545448303223, 14.23257827758789, 14.785173416137695, 14.556686401367188, 13.9322509765625, 12.427953720092773, 11.459146499633789]
v: [15.0, 7.801349639892578, 10.008102416992188, 15.0, 12.94684886932373, 15.0, 13.831194877624512, 15.0, 13.109771728515625, 15.0, 15.0, 15.0, 15.0, 12.306099891662598, 10.603386878967285, 6.49453592300415, 14.073073387145996, 11.908226013183594]
---
header: 
  seq: 100
  stamp: 
    secs: 0
    nsecs:         0
  frame_id: "map"
