header:
  seq: 27
  stamp:
    secs: 0
    nsecs:         0
  frame_id: "map"
x: [6.0000, 6.0000, -1.7667, -1.2054, 2.7609, 3.1781, 7.2786, 7.4856, 12.0350, 12.1317, 16.5392, 16.7907, 21.0336, 21.0160]
y: [3.0000, -3.0000, 1.4703, -2.4342, 1.7154, -1.9323, 1.7270, -1.8135, 1.7770, -1.6840, 1.8575, -1.6340, 1.9058, -1.5777]
colour: [ORANGE, ORANGE, BLUE, YELLOW, BLUE, YELLOW, BLUE, YELLOW, BLUE, YELLOW, BLUE, YELLOW, BLUE, YELLOW]
---
header:
  seq: 28
  stamp:
    secs: 0
    nsecs:         0
  frame_id: "map"
x: [6.0000, 6.0000, -1.7667, -1.2054, 2.7609, 3.1781, 7.2786, 7.4856, 12.0350, 12.1317, 16.5392, 16.7907, 21.0336, 21.0160]
y: [3.0000, -3.0000, 1.4703, -2.4342, 1.7154, -1.9323, 1.7270, -1.8135, 1.7770, -1.6840, 1.8575, -1.6340, 1.9058, -1.5777]
colour: [ORANGE, ORANGE, BLUE, YELLOW, BLUE, YELLOW, BLUE, YELLOW, BLUE, YELLOW, BLUE, YELLOW, BLUE, YELLOW]
---
header:
  seq: 29
  stamp:
    secs: 0
    nsecs:         0
  frame_id: "map"
x: [6.0000, 6.0000, -1.7667, -1.2054, 2.7609, 3.1781, 7.2786, 7.4856, 12.0350, 12.1317, 16.5392, 16.7907, 21.0336, 21.0160, 25.8245]
y: [3.0000, -3.0000, 1.4703, -2.4342, 1.7154, -1.9323, 1.7270, -1.8135, 1.7770, -1.6840, 1.8575, -1.6340, 1.9058, -1.5777, 1.8237]
colour: [ORANGE, ORANGE, BLUE, YELLOW, BLUE, YELLOW, BLUE, YELLOW, BLUE, YELLOW, BLUE, YELLOW, BLUE, YELLOW, BLUE]
---
header:
  seq: 30
  stamp:
    secs: 0
    nsecs:         0
  frame_id: "map"
x: [6.0000, 6.0000, -1.7667, -1.2054, 2.7609, 3.1781, 7.2786, 7.4856, 12.0350, 12.1317, 16.5392, 16.7907, 21.0336, 21.0160, 25.8245]
y: [3.0000, -3.0000, 1.4703, -2.4342, 1.7154, -1.9323, 1.7270, -1.8135, 1.7770, -1.6840, 1.8575, -1.6340, 1.9058, -1.5777, 1.8237]
colour: [ORANGE, ORANGE, BLUE, YELLOW, BLUE, YELLOW, BLUE, YELLOW, BLUE, YELLOW, BLUE, YELLOW, BLUE, YELLOW, BLUE]
---
header:
  seq: 31
  stamp:
    secs: 0
    nsecs:         0
  frame_id: "map"
x: [6.0000, 6.0000, -1.7667, -1.2054, 2.7609, 3.1781, 7.2786, 7.4856, 12.0350, 12.1317, 16.5392, 16.7907, 21.0336, 21.0160, 25.8245, 25.9493]
y: [3.0000, -3.0000, 1.4703, -2.4342, 1.7154, -1.9323, 1.7270, -1.8135, 1.7770, -1.6840, 1.8575, -1.6340, 1.9058, -1.5777, 1.8237, -1.6844]
colour: [ORANGE, ORANGE, BLUE, YELLOW, BLUE, YELLOW, BLUE, YELLOW, BLUE, YELLOW, BLUE, YELLOW, BLUE, YELLOW, BLUE, YELLOW]
---
header:
  seq: 32
  stamp:
    secs: 0
    nsecs:         0
  frame_id: "map"
x: [6.0000, 6.0000, -1.7667, -1.2054, 2.7609, 3.1781, 7.2786, 7.4856, 12.0350, 12.1317, 16.5392, 16.7907, 21.0336, 21.0160, 25.8245, 25.9493]
y: [3.0000, -3.0000, 1.4703, -2.4342, 1.7154, -1.9323, 1.7270, -1.8135, 1.7770, -1.6840, 1.8575, -1.6340, 1.9058, -1.5777, 1.8237, -1.6844]
colour: [ORANGE, ORANGE, BLUE, YELLOW, BLUE, YELLOW, BLUE, YELLOW, BLUE, YELLOW, BLUE, YELLOW, BLUE, YELLOW, BLUE, YELLOW]
---
header:
  seq: 33
  stamp:
    secs: 0
    nsecs:         0
  frame_id: "map"
x: [6.0000, 6.0000, -1.7667, -1.2054, 2.7609, 3.1781, 7.2786, 7.4856, 12.0350, 12.1317, 16.5392, 16.7907, 21.0336, 21.0160, 25.8245, 25.9493, 29.0081]
y: [3.0000, -3.0000, 1.4703, -2.4342, 1.7154, -1.9323, 1.7270, -1.8135, 1.7770, -1.6840, 1.8575, -1.6340, 1.9058, -1.5777, 1.8237, -1.6844, 1.6882]
colour: [ORANGE, ORANGE, BLUE, YELLOW, BLUE, YELLOW, BLUE, YELLOW, BLUE, YELLOW, BLUE, YELLOW, BLUE, YELLOW, BLUE, YELLOW, BLUE]
---
header:
  seq: 34
  stamp:
    secs: 0
    nsecs:         0
  frame_id: "map"
x: [6.0000, 6.0000, -1.7667, -1.2054, 2.7609, 3.1781, 7.2786, 7.4856, 12.0350, 12.1317, 16.5392, 16.7907, 21.0336, 21.0160, 25.8245, 25.9493, 29.0081]
y: [3.0000, -3.0000, 1.4703, -2.4342, 1.7154, -1.9323, 1.7270, -1.8135, 1.7770, -1.6840, 1.8575, -1.6340, 1.9058, -1.5777, 1.8237, -1.6844, 1.6882]
colour: [ORANGE, ORANGE, BLUE, YELLOW, BLUE, YELLOW, BLUE, YELLOW, BLUE, YELLOW, BLUE, YELLOW, BLUE, YELLOW, BLUE, YELLOW, BLUE]
---
header:
  seq: 35
  stamp:
    secs: 0
    nsecs:         0
  frame_id: "map"
x: [6.0000, 6.0000, -1.7667, -1.2054, 2.7609, 3.1781, 7.2786, 7.4856, 12.0350, 12.1317, 16.5392, 16.7907, 21.0336, 21.0160, 25.8245, 25.9493, 29.0081, 29.0481]
y: [3.0000, -3.0000, 1.4703, -2.4342, 1.7154, -1.9323, 1.7270, -1.8135, 1.7770, -1.6840, 1.8575, -1.6340, 1.9058, -1.5777, 1.8237, -1.6844, 1.6882, -1.7289]
colour: [ORANGE, ORANGE, BLUE, YELLOW, BLUE, YELLOW, BLUE, YELLOW, BLUE, YELLOW, BLUE, YELLOW, BLUE, YELLOW, BLUE, YELLOW, BLUE, YELLOW]
---
header:
  seq: 36
  stamp:
    secs: 0
    nsecs:         0
  frame_id: "map"
x: [6.0000, 6.0000, -1.7667, -1.2054, 2.7609, 3.1781, 7.2786, 7.4856, 12.0350, 12.1317, 16.5392, 16.7907, 21.0336, 21.0160, 25.8245, 25.9493, 29.0081, 29.0481]
y: [3.0000, -3.0000, 1.4703, -2.4342, 1.7154, -1.9323, 1.7270, -1.8135, 1.7770, -1.6840, 1.8575, -1.6340, 1.9058, -1.5777, 1.8237, -1.6844, 1.6882, -1.7289]
colour: [ORANGE, ORANGE, BLUE, YELLOW, BLUE, YELLOW, BLUE, YELLOW, BLUE, YELLOW, BLUE, YELLOW, BLUE, YELLOW, BLUE, YELLOW, BLUE, YELLOW]
---
header:
  seq: 37
  stamp:
    secs: 0
    nsecs:         0
  frame_id: "map"
x: [6.0000, 6.0000, -1.7667, -1.2054, 2.7609, 3.1781, 7.2786, 7.4856, 12.0350, 12.1317, 16.5392, 16.7907, 21.0336, 21.0160, 25.8245, 25.9493, 29.0081, 29.0481, 32.8540]
y: [3.0000, -3.0000, 1.4703, -2.4342, 1.7154, -1.9323, 1.7270, -1.8135, 1.7770, -1.6840, 1.8575, -1.6340, 1.9058, -1.5777, 1.8237, -1.6844, 1.6882, -1.7289, 1.5324]
colour: [ORANGE, ORANGE, BLUE, YELLOW, BLUE, YELLOW, BLUE, YELLOW, BLUE, YELLOW, BLUE, YELLOW, BLUE, YELLOW, BLUE, YELLOW, BLUE, YELLOW, BLUE]
---
header:
  seq: 38
  stamp:
    secs: 0
    nsecs:         0
  frame_id: "map"
x: [6.0000, 6.0000, -1.7667, -1.2054, 2.7609, 3.1781, 7.2786, 7.4856, 12.0350, 12.1317, 16.5392, 16.7907, 21.0336, 21.0160, 25.8245, 25.9493, 29.0081, 29.0481, 32.8540]
y: [3.0000, -3.0000, 1.4703, -2.4342, 1.7154, -1.9323, 1.7270, -1.8135, 1.7770, -1.6840, 1.8575, -1.6340, 1.9058, -1.5777, 1.8237, -1.6844, 1.6882, -1.7289, 1.5324]
colour: [ORANGE, ORANGE, BLUE, YELLOW, BLUE, YELLOW, BLUE, YELLOW, BLUE, YELLOW, BLUE, YELLOW, BLUE, YELLOW, BLUE, YELLOW, BLUE, YELLOW, BLUE]
---
header:
  seq: 39
  stamp:
    secs: 0
    nsecs:         0
  frame_id: "map"
x: [6.0000, 6.0000, -1.7667, -1.2054, 2.7609, 3.1781, 7.2786, 7.4856, 12.0350, 12.1317, 16.5392, 16.7907, 21.0336, 21.0160, 25.8245, 25.9493, 29.0081, 29.0481, 32.8540, 32.6120]
y: [3.0000, -3.0000, 1.4703, -2.4342, 1.7154, -1.9323, 1.7270, -1.8135, 1.7770, -1.6840, 1.8575, -1.6340, 1.9058, -1.5777, 1.8237, -1.6844, 1.6882, -1.7289, 1.5324, -1.8370]
colour: [ORANGE, ORANGE, BLUE, YELLOW, BLUE, YELLOW, BLUE, YELLOW, BLUE, YELLOW, BLUE, YELLOW, BLUE, YELLOW, BLUE, YELLOW, BLUE, YELLOW, BLUE, YELLOW]
---
header:
  seq: 40
  stamp:
    secs: 0
    nsecs:         0
  frame_id: "map"
x: [6.0000, 6.0000, -1.7667, -1.2054, 2.7609, 3.1781, 7.2786, 7.4856, 12.0350, 12.1317, 16.5392, 16.7907, 21.0336, 21.0160, 25.8245, 25.9493, 29.0081, 29.0481, 32.8540, 32.6120]
y: [3.0000, -3.0000, 1.4703, -2.4342, 1.7154, -1.9323, 1.7270, -1.8135, 1.7770, -1.6840, 1.8575, -1.6340, 1.9058, -1.5777, 1.8237, -1.6844, 1.6882, -1.7289, 1.5324, -1.8370]
colour: [ORANGE, ORANGE, BLUE, YELLOW, BLUE, YELLOW, BLUE, YELLOW, BLUE, YELLOW, BLUE, YELLOW, BLUE, YELLOW, BLUE, YELLOW, BLUE, YELLOW, BLUE, YELLOW]
---
header:
  seq: 41
  stamp:
    secs: 0
    nsecs:         0
  frame_id: "map"
x: [6.0000, 6.0000, -1.7667, -1.2054, 2.7609, 3.1781, 7.2786, 7.4856, 12.0350, 12.1317, 16.5392, 16.7907, 21.0336, 21.0160, 25.8245, 25.9493, 29.0081, 29.0481, 32.8540, 32.6120, 36.0541]
y: [3.0000, -3.0000, 1.4703, -2.4342, 1.7154, -1.9323, 1.7270, -1.8135, 1.7770, -1.6840, 1.8575, -1.6340, 1.9058, -1.5777, 1.8237, -1.6844, 1.6882, -1.7289, 1.5324, -1.8370, 1.4060]
colour: [ORANGE, ORANGE, BLUE, YELLOW, BLUE, YELLOW, BLUE, YELLOW, BLUE, YELLOW, BLUE, YELLOW, BLUE, YELLOW, BLUE, YELLOW, BLUE, YELLOW, BLUE, YELLOW, BLUE]
---
header:
  seq: 42
  stamp:
    secs: 0
    nsecs:         0
  frame_id: "map"
x: [6.0000, 6.0000, -1.7667, -1.2054, 2.7609, 3.1781, 7.2786, 7.4856, 12.0350, 12.1317, 16.5392, 16.7907, 21.0336, 21.0160, 25.8245, 25.9493, 29.0081, 29.0481, 32.8540, 32.6120, 36.0541]
y: [3.0000, -3.0000, 1.4703, -2.4342, 1.7154, -1.9323, 1.7270, -1.8135, 1.7770, -1.6840, 1.8575, -1.6340, 1.9058, -1.5777, 1.8237, -1.6844, 1.6882, -1.7289, 1.5324, -1.8370, 1.4060]
colour: [ORANGE, ORANGE, BLUE, YELLOW, BLUE, YELLOW, BLUE, YELLOW, BLUE, YELLOW, BLUE, YELLOW, BLUE, YELLOW, BLUE, YELLOW, BLUE, YELLOW, BLUE, YELLOW, BLUE]
---
header:
  seq: 43
  stamp:
    secs: 0
    nsecs:         0
  frame_id: "map"
x: [6.0000, 6.0000, -1.7667, -1.2054, 2.7609, 3.1781, 7.2786, 7.4856, 12.0350, 12.1317, 16.5392, 16.7907, 21.0336, 21.0160, 25.8245, 25.9493, 29.0081, 29.0481, 32.8540, 32.6120, 36.0541, 35.9588]
y: [3.0000, -3.0000, 1.4703, -2.4342, 1.7154, -1.9323, 1.7270, -1.8135, 1.7770, -1.6840, 1.8575, -1.6340, 1.9058, -1.5777, 1.8237, -1.6844, 1.6882, -1.7289, 1.5324, -1.8370, 1.4060, -2.0252]
colour: [ORANGE, ORANGE, BLUE, YELLOW, BLUE, YELLOW, BLUE, YELLOW, BLUE, YELLOW, BLUE, YELLOW, BLUE, YELLOW, BLUE, YELLOW, BLUE, YELLOW, BLUE, YELLOW, BLUE, YELLOW]
---
header:
  seq: 44
  stamp:
    secs: 0
    nsecs:         0
  frame_id: "map"
x: [6.0000, 6.0000, -1.7667, -1.2054, 2.7609, 3.1781, 7.2786, 7.4856, 12.0350, 12.1317, 16.5392, 16.7907, 21.0336, 21.0160, 25.8245, 25.9493, 29.0081, 29.0481, 32.8540, 32.6120, 36.0541, 35.9588]
y: [3.0000, -3.0000, 1.4703, -2.4342, 1.7154, -1.9323, 1.7270, -1.8135, 1.7770, -1.6840, 1.8575, -1.6340, 1.9058, -1.5777, 1.8237, -1.6844, 1.6882, -1.7289, 1.5324, -1.8370, 1.4060, -2.0252]
colour: [ORANGE, ORANGE, BLUE, YELLOW, BLUE, YELLOW, BLUE, YELLOW, BLUE, YELLOW, BLUE, YELLOW, BLUE, YELLOW, BLUE, YELLOW, BLUE, YELLOW, BLUE, YELLOW, BLUE, YELLOW]
---
header:
  seq: 45
  stamp:
    secs: 0
    nsecs:         0
  frame_id: "map"
x: [6.0000, 6.0000, -1.7667, -1.2054, 2.7609, 3.1781, 7.2786, 7.4856, 12.0350, 12.1317, 16.5392, 16.7907, 21.0336, 21.0160, 25.8245, 25.9493, 29.0081, 29.0481, 32.8540, 32.6120, 36.0541, 35.9588, 39.6403]
y: [3.0000, -3.0000, 1.4703, -2.4342, 1.7154, -1.9323, 1.7270, -1.8135, 1.7770, -1.6840, 1.8575, -1.6340, 1.9058, -1.5777, 1.8237, -1.6844, 1.6882, -1.7289, 1.5324, -1.8370, 1.4060, -2.0252, 1.3329]
colour: [ORANGE, ORANGE, BLUE, YELLOW, BLUE, YELLOW, BLUE, YELLOW, BLUE, YELLOW, BLUE, YELLOW, BLUE, YELLOW, BLUE, YELLOW, BLUE, YELLOW, BLUE, YELLOW, BLUE, YELLOW, BLUE]
---
header:
  seq: 46
  stamp:
    secs: 0
    nsecs:         0
  frame_id: "map"
x: [6.0000, 6.0000, -1.7667, -1.2054, 2.7609, 3.1781, 7.2786, 7.4856, 12.0350, 12.1317, 16.5392, 16.7907, 21.0336, 21.0160, 25.8245, 25.9493, 29.0081, 29.0481, 32.8540, 32.6120, 36.0541, 35.9588, 39.6403]
y: [3.0000, -3.0000, 1.4703, -2.4342, 1.7154, -1.9323, 1.7270, -1.8135, 1.7770, -1.6840, 1.8575, -1.6340, 1.9058, -1.5777, 1.8237, -1.6844, 1.6882, -1.7289, 1.5324, -1.8370, 1.4060, -2.0252, 1.3329]
colour: [ORANGE, ORANGE, BLUE, YELLOW, BLUE, YELLOW, BLUE, YELLOW, BLUE, YELLOW, BLUE, YELLOW, BLUE, YELLOW, BLUE, YELLOW, BLUE, YELLOW, BLUE, YELLOW, BLUE, YELLOW, BLUE]
---
header:
  seq: 47
  stamp:
    secs: 0
    nsecs:         0
  frame_id: "map"
x: [6.0000, 6.0000, -1.7667, -1.2054, 2.7609, 3.1781, 7.2786, 7.4856, 12.0350, 12.1317, 16.5392, 16.7907, 21.0336, 21.0160, 25.8245, 25.9493, 29.0081, 29.0481, 32.8540, 32.6120, 36.0541, 35.9588, 39.6403, 39.9083]
y: [3.0000, -3.0000, 1.4703, -2.4342, 1.7154, -1.9323, 1.7270, -1.8135, 1.7770, -1.6840, 1.8575, -1.6340, 1.9058, -1.5777, 1.8237, -1.6844, 1.6882, -1.7289, 1.5324, -1.8370, 1.4060, -2.0252, 1.3329, -3.0469]
colour: [ORANGE, ORANGE, BLUE, YELLOW, BLUE, YELLOW, BLUE, YELLOW, BLUE, YELLOW, BLUE, YELLOW, BLUE, YELLOW, BLUE, YELLOW, BLUE, YELLOW, BLUE, YELLOW, BLUE, YELLOW, BLUE, YELLOW]
---
header:
  seq: 48
  stamp:
    secs: 0
    nsecs:         0
  frame_id: "map"
x: [6.0000, 6.0000, -1.7667, -1.2054, 2.7609, 3.1781, 7.2786, 7.4856, 12.0350, 12.1317, 16.5392, 16.7907, 21.0336, 21.0160, 25.8245, 25.9493, 29.0081, 29.0481, 32.8540, 32.6120, 36.0541, 35.9588, 39.6403, 39.9083]
y: [3.0000, -3.0000, 1.4703, -2.4342, 1.7154, -1.9323, 1.7270, -1.8135, 1.7770, -1.6840, 1.8575, -1.6340, 1.9058, -1.5777, 1.8237, -1.6844, 1.6882, -1.7289, 1.5324, -1.8370, 1.4060, -2.0252, 1.3329, -3.0469]
colour: [ORANGE, ORANGE, BLUE, YELLOW, BLUE, YELLOW, BLUE, YELLOW, BLUE, YELLOW, BLUE, YELLOW, BLUE, YELLOW, BLUE, YELLOW, BLUE, YELLOW, BLUE, YELLOW, BLUE, YELLOW, BLUE, YELLOW]
---
header:
  seq: 49
  stamp:
    secs: 0
    nsecs:         0
  frame_id: "map"
x: [6.0000, 6.0000, -1.7667, -1.2054, 2.7609, 3.1781, 7.2786, 7.4856, 12.0350, 12.1317, 16.5392, 16.7907, 21.0336, 21.0160, 25.8245, 25.9493, 29.0081, 29.0481, 32.8540, 32.6120, 36.0541, 35.9588, 39.6403, 39.9083, 41.8411]
y: [3.0000, -3.0000, 1.4703, -2.4342, 1.7154, -1.9323, 1.7270, -1.8135, 1.7770, -1.6840, 1.8575, -1.6340, 1.9058, -1.5777, 1.8237, -1.6844, 1.6882, -1.7289, 1.5324, -1.8370, 1.4060, -2.0252, 1.3329, -3.0469, 0.4617]
colour: [ORANGE, ORANGE, BLUE, YELLOW, BLUE, YELLOW, BLUE, YELLOW, BLUE, YELLOW, BLUE, YELLOW, BLUE, YELLOW, BLUE, YELLOW, BLUE, YELLOW, BLUE, YELLOW, BLUE, YELLOW, BLUE, YELLOW, BLUE]
---
header:
  seq: 50
  stamp:
    secs: 0
    nsecs:         0
  frame_id: "map"
x: [6.0000, 6.0000, -1.7667, -1.2054, 2.7609, 3.1781, 7.2786, 7.4856, 12.0350, 12.1317, 16.5392, 16.7907, 21.0336, 21.0160, 25.8245, 25.9493, 29.0081, 29.0481, 32.8540, 32.6120, 36.0541, 35.9588, 39.6403, 39.9083, 41.8411]
y: [3.0000, -3.0000, 1.4703, -2.4342, 1.7154, -1.9323, 1.7270, -1.8135, 1.7770, -1.6840, 1.8575, -1.6340, 1.9058, -1.5777, 1.8237, -1.6844, 1.6882, -1.7289, 1.5324, -1.8370, 1.4060, -2.0252, 1.3329, -3.0469, 0.4617]
colour: [ORANGE, ORANGE, BLUE, YELLOW, BLUE, YELLOW, BLUE, YELLOW, BLUE, YELLOW, BLUE, YELLOW, BLUE, YELLOW, BLUE, YELLOW, BLUE, YELLOW, BLUE, YELLOW, BLUE, YELLOW, BLUE, YELLOW, BLUE]
---
header:
  seq: 51
  stamp:
    secs: 0
    nsecs:         0
  frame_id: "map"
x: [6.0000, 6.0000, -1.7667, -1.2054, 2.7609, 3.1781, 7.2786, 7.4856, 12.0350, 12.1317, 16.5392, 16.7907, 21.0336, 21.0160, 25.8245, 25.9493, 29.0081, 29.0481, 32.8540, 32.6120, 36.0541, 35.9588, 39.6403, 39.9083, 41.8411, 42.1979]
y: [3.0000, -3.0000, 1.4703, -2.4342, 1.7154, -1.9323, 1.7270, -1.8135, 1.7770, -1.6840, 1.8575, -1.6340, 1.9058, -1.5777, 1.8237, -1.6844, 1.6882, -1.7289, 1.5324, -1.8370, 1.4060, -2.0252, 1.3329, -3.0469, 0.4617, -5.7312]
colour: [ORANGE, ORANGE, BLUE, YELLOW, BLUE, YELLOW, BLUE, YELLOW, BLUE, YELLOW, BLUE, YELLOW, BLUE, YELLOW, BLUE, YELLOW, BLUE, YELLOW, BLUE, YELLOW, BLUE, YELLOW, BLUE, YELLOW, BLUE, YELLOW]
---
header:
  seq: 52
  stamp:
    secs: 0
    nsecs:         0
  frame_id: "map"
x: [6.0000, 6.0000, -1.7667, -1.2054, 2.7609, 3.1781, 7.2786, 7.4856, 12.0350, 12.1317, 16.5392, 16.7907, 21.0336, 21.0160, 25.8245, 25.9493, 29.0081, 29.0481, 32.8540, 32.6120, 36.0541, 35.9588, 39.6403, 39.9083, 41.8411, 42.1979]
y: [3.0000, -3.0000, 1.4703, -2.4342, 1.7154, -1.9323, 1.7270, -1.8135, 1.7770, -1.6840, 1.8575, -1.6340, 1.9058, -1.5777, 1.8237, -1.6844, 1.6882, -1.7289, 1.5324, -1.8370, 1.4060, -2.0252, 1.3329, -3.0469, 0.4617, -5.7312]
colour: [ORANGE, ORANGE, BLUE, YELLOW, BLUE, YELLOW, BLUE, YELLOW, BLUE, YELLOW, BLUE, YELLOW, BLUE, YELLOW, BLUE, YELLOW, BLUE, YELLOW, BLUE, YELLOW, BLUE, YELLOW, BLUE, YELLOW, BLUE, YELLOW]
---
header:
  seq: 53
  stamp:
    secs: 0
    nsecs:         0
  frame_id: "map"
x: [6.0000, 6.0000, -1.7667, -1.2054, 2.7609, 3.1781, 7.2786, 7.4856, 12.0350, 12.1317, 16.5392, 16.7907, 21.0336, 21.0160, 25.8245, 25.9493, 29.0081, 29.0481, 32.8540, 32.6120, 36.0541, 35.9588, 39.6403, 39.9083, 41.8411, 42.1979, 43.7949]
y: [3.0000, -3.0000, 1.4703, -2.4342, 1.7154, -1.9323, 1.7270, -1.8135, 1.7770, -1.6840, 1.8575, -1.6340, 1.9058, -1.5777, 1.8237, -1.6844, 1.6882, -1.7289, 1.5324, -1.8370, 1.4060, -2.0252, 1.3329, -3.0469, 0.4617, -5.7312, -0.8243]
colour: [ORANGE, ORANGE, BLUE, YELLOW, BLUE, YELLOW, BLUE, YELLOW, BLUE, YELLOW, BLUE, YELLOW, BLUE, YELLOW, BLUE, YELLOW, BLUE, YELLOW, BLUE, YELLOW, BLUE, YELLOW, BLUE, YELLOW, BLUE, YELLOW, BLUE]
---
header:
  seq: 54
  stamp:
    secs: 0
    nsecs:         0
  frame_id: "map"
x: [6.0000, 6.0000, -1.7667, -1.2054, 2.7609, 3.1781, 7.2786, 7.4856, 12.0350, 12.1317, 16.5392, 16.7907, 21.0336, 21.0160, 25.8245, 25.9493, 29.0081, 29.0481, 32.8540, 32.6120, 36.0541, 35.9588, 39.6403, 39.9083, 41.8411, 42.1979, 43.7949]
y: [3.0000, -3.0000, 1.4703, -2.4342, 1.7154, -1.9323, 1.7270, -1.8135, 1.7770, -1.6840, 1.8575, -1.6340, 1.9058, -1.5777, 1.8237, -1.6844, 1.6882, -1.7289, 1.5324, -1.8370, 1.4060, -2.0252, 1.3329, -3.0469, 0.4617, -5.7312, -0.8243]
colour: [ORANGE, ORANGE, BLUE, YELLOW, BLUE, YELLOW, BLUE, YELLOW, BLUE, YELLOW, BLUE, YELLOW, BLUE, YELLOW, BLUE, YELLOW, BLUE, YELLOW, BLUE, YELLOW, BLUE, YELLOW, BLUE, YELLOW, BLUE, YELLOW, BLUE]
---
header:
  seq: 55
  stamp:
    secs: 0
    nsecs:         0
  frame_id: "map"
x: [6.0000, 6.0000, -1.7667, -1.2054, 2.7609, 3.1781, 7.2786, 7.4856, 12.0350, 12.1317, 16.5392, 16.7907, 21.0336, 21.0160, 25.8245, 25.9493, 29.0081, 29.0481, 32.8540, 32.6120, 36.0541, 35.9588, 39.6403, 39.9083, 41.8411, 42.1979, 43.7949, 42.6440]
y: [3.0000, -3.0000, 1.4703, -2.4342, 1.7154, -1.9323, 1.7270, -1.8135, 1.7770, -1.6840, 1.8575, -1.6340, 1.9058, -1.5777, 1.8237, -1.6844, 1.6882, -1.7289, 1.5324, -1.8370, 1.4060, -2.0252, 1.3329, -3.0469, 0.4617, -5.7312, -0.8243, -7.4576]
colour: [ORANGE, ORANGE, BLUE, YELLOW, BLUE, YELLOW, BLUE, YELLOW, BLUE, YELLOW, BLUE, YELLOW, BLUE, YELLOW, BLUE, YELLOW, BLUE, YELLOW, BLUE, YELLOW, BLUE, YELLOW, BLUE, YELLOW, BLUE, YELLOW, BLUE, YELLOW]
---
header:
  seq: 56
  stamp:
    secs: 0
    nsecs:         0
  frame_id: "map"
x: [6.0000, 6.0000, -1.7667, -1.2054, 2.7609, 3.1781, 7.2786, 7.4856, 12.0350, 12.1317, 16.5392, 16.7907, 21.0336, 21.0160, 25.8245, 25.9493, 29.0081, 29.0481, 32.8540, 32.6120, 36.0541, 35.9588, 39.6403, 39.9083, 41.8411, 42.1979, 43.7949, 42.6440]
y: [3.0000, -3.0000, 1.4703, -2.4342, 1.7154, -1.9323, 1.7270, -1.8135, 1.7770, -1.6840, 1.8575, -1.6340, 1.9058, -1.5777, 1.8237, -1.6844, 1.6882, -1.7289, 1.5324, -1.8370, 1.4060, -2.0252, 1.3329, -3.0469, 0.4617, -5.7312, -0.8243, -7.4576]
colour: [ORANGE, ORANGE, BLUE, YELLOW, BLUE, YELLOW, BLUE, YELLOW, BLUE, YELLOW, BLUE, YELLOW, BLUE, YELLOW, BLUE, YELLOW, BLUE, YELLOW, BLUE, YELLOW, BLUE, YELLOW, BLUE, YELLOW, BLUE, YELLOW, BLUE, YELLOW]
---
header:
  seq: 57
  stamp:
    secs: 0
    nsecs:         0
  frame_id: "map"
x: [6.0000, 6.0000, -1.7667, -1.2054, 2.7609, 3.1781, 7.2786, 7.4856, 12.0350, 12.1317, 16.5392, 16.7907, 21.0336, 21.0160, 25.8245, 25.9493, 29.0081, 29.0481, 32.8540, 32.6120, 36.0541, 35.9588, 39.6403, 39.9083, 41.8411, 42.1979, 43.7949, 42.6440, 45.3121]
y: [3.0000, -3.0000, 1.4703, -2.4342, 1.7154, -1.9323, 1.7270, -1.8135, 1.7770, -1.6840, 1.8575, -1.6340, 1.9058, -1.5777, 1.8237, -1.6844, 1.6882, -1.7289, 1.5324, -1.8370, 1.4060, -2.0252, 1.3329, -3.0469, 0.4617, -5.7312, -0.8243, -7.4576, -2.6312]
colour: [ORANGE, ORANGE, BLUE, YELLOW, BLUE, YELLOW, BLUE, YELLOW, BLUE, YELLOW, BLUE, YELLOW, BLUE, YELLOW, BLUE, YELLOW, BLUE, YELLOW, BLUE, YELLOW, BLUE, YELLOW, BLUE, YELLOW, BLUE, YELLOW, BLUE, YELLOW, BLUE]
---
header:
  seq: 58
  stamp:
    secs: 0
    nsecs:         0
  frame_id: "map"
x: [6.0000, 6.0000, -1.7667, -1.2054, 2.7609, 3.1781, 7.2786, 7.4856, 12.0350, 12.1317, 16.5392, 16.7907, 21.0336, 21.0160, 25.8245, 25.9493, 29.0081, 29.0481, 32.8540, 32.6120, 36.0541, 35.9588, 39.6403, 39.9083, 41.8411, 42.1979, 43.7949, 42.6440, 45.3121]
y: [3.0000, -3.0000, 1.4703, -2.4342, 1.7154, -1.9323, 1.7270, -1.8135, 1.7770, -1.6840, 1.8575, -1.6340, 1.9058, -1.5777, 1.8237, -1.6844, 1.6882, -1.7289, 1.5324, -1.8370, 1.4060, -2.0252, 1.3329, -3.0469, 0.4617, -5.7312, -0.8243, -7.4576, -2.6312]
colour: [ORANGE, ORANGE, BLUE, YELLOW, BLUE, YELLOW, BLUE, YELLOW, BLUE, YELLOW, BLUE, YELLOW, BLUE, YELLOW, BLUE, YELLOW, BLUE, YELLOW, BLUE, YELLOW, BLUE, YELLOW, BLUE, YELLOW, BLUE, YELLOW, BLUE, YELLOW, BLUE]
---
header:
  seq: 59
  stamp:
    secs: 0
    nsecs:         0
  frame_id: "map"
x: [6.0000, 6.0000, -1.7667, -1.2054, 2.7609, 3.1781, 7.2786, 7.4856, 12.0350, 12.1317, 16.5392, 16.7907, 21.0336, 21.0160, 25.8245, 25.9493, 29.0081, 29.0481, 32.8540, 32.6120, 36.0541, 35.9588, 39.6403, 39.9083, 41.8411, 42.1979, 43.7949, 42.6440, 45.3121, 42.6222]
y: [3.0000, -3.0000, 1.4703, -2.4342, 1.7154, -1.9323, 1.7270, -1.8135, 1.7770, -1.6840, 1.8575, -1.6340, 1.9058, -1.5777, 1.8237, -1.6844, 1.6882, -1.7289, 1.5324, -1.8370, 1.4060, -2.0252, 1.3329, -3.0469, 0.4617, -5.7312, -0.8243, -7.4576, -2.6312, -9.8456]
colour: [ORANGE, ORANGE, BLUE, YELLOW, BLUE, YELLOW, BLUE, YELLOW, BLUE, YELLOW, BLUE, YELLOW, BLUE, YELLOW, BLUE, YELLOW, BLUE, YELLOW, BLUE, YELLOW, BLUE, YELLOW, BLUE, YELLOW, BLUE, YELLOW, BLUE, YELLOW, BLUE, YELLOW]
---
header:
  seq: 60
  stamp:
    secs: 0
    nsecs:         0
  frame_id: "map"
x: [6.0000, 6.0000, -1.7667, -1.2054, 2.7609, 3.1781, 7.2786, 7.4856, 12.0350, 12.1317, 16.5392, 16.7907, 21.0336, 21.0160, 25.8245, 25.9493, 29.0081, 29.0481, 32.8540, 32.6120, 36.0541, 35.9588, 39.6403, 39.9083, 41.8411, 42.1979, 43.7949, 42.6440, 45.3121, 42.6222]
y: [3.0000, -3.0000, 1.4703, -2.4342, 1.7154, -1.9323, 1.7270, -1.8135, 1.7770, -1.6840, 1.8575, -1.6340, 1.9058, -1.5777, 1.8237, -1.6844, 1.6882, -1.7289, 1.5324, -1.8370, 1.4060, -2.0252, 1.3329, -3.0469, 0.4617, -5.7312, -0.8243, -7.4576, -2.6312, -9.8456]
colour: [ORANGE, ORANGE, BLUE, YELLOW, BLUE, YELLOW, BLUE, YELLOW, BLUE, YELLOW, BLUE, YELLOW, BLUE, YELLOW, BLUE, YELLOW, BLUE, YELLOW, BLUE, YELLOW, BLUE, YELLOW, BLUE, YELLOW, BLUE, YELLOW, BLUE, YELLOW, BLUE, YELLOW]
---
header:
  seq: 61
  stamp:
    secs: 0
    nsecs:         0
  frame_id: "map"
x: [6.0000, 6.0000, -1.7667, -1.2054, 2.7609, 3.1781, 7.2786, 7.4856, 12.0350, 12.1317, 16.5392, 16.7907, 21.0336, 21.0160, 25.8245, 25.9493, 29.0081, 29.0481, 32.8540, 32.6120, 36.0541, 35.9588, 39.6403, 39.9083, 41.8411, 42.1979, 43.7949, 42.6440, 45.3121, 42.6222, 46.1554]
y: [3.0000, -3.0000, 1.4703, -2.4342, 1.7154, -1.9323, 1.7270, -1.8135, 1.7770, -1.6840, 1.8575, -1.6340, 1.9058, -1.5777, 1.8237, -1.6844, 1.6882, -1.7289, 1.5324, -1.8370, 1.4060, -2.0252, 1.3329, -3.0469, 0.4617, -5.7312, -0.8243, -7.4576, -2.6312, -9.8456, -4.6250]
colour: [ORANGE, ORANGE, BLUE, YELLOW, BLUE, YELLOW, BLUE, YELLOW, BLUE, YELLOW, BLUE, YELLOW, BLUE, YELLOW, BLUE, YELLOW, BLUE, YELLOW, BLUE, YELLOW, BLUE, YELLOW, BLUE, YELLOW, BLUE, YELLOW, BLUE, YELLOW, BLUE, YELLOW, BLUE]
---
header:
  seq: 62
  stamp:
    secs: 0
    nsecs:         0
  frame_id: "map"
x: [6.0000, 6.0000, -1.7667, -1.2054, 2.7609, 3.1781, 7.2786, 7.4856, 12.0350, 12.1317, 16.5392, 16.7907, 21.0336, 21.0160, 25.8245, 25.9493, 29.0081, 29.0481, 32.8540, 32.6120, 36.0541, 35.9588, 39.6403, 39.9083, 41.8411, 42.1979, 43.7949, 42.6440, 45.3121, 42.6222, 46.1554]
y: [3.0000, -3.0000, 1.4703, -2.4342, 1.7154, -1.9323, 1.7270, -1.8135, 1.7770, -1.6840, 1.8575, -1.6340, 1.9058, -1.5777, 1.8237, -1.6844, 1.6882, -1.7289, 1.5324, -1.8370, 1.4060, -2.0252, 1.3329, -3.0469, 0.4617, -5.7312, -0.8243, -7.4576, -2.6312, -9.8456, -4.6250]
colour: [ORANGE, ORANGE, BLUE, YELLOW, BLUE, YELLOW, BLUE, YELLOW, BLUE, YELLOW, BLUE, YELLOW, BLUE, YELLOW, BLUE, YELLOW, BLUE, YELLOW, BLUE, YELLOW, BLUE, YELLOW, BLUE, YELLOW, BLUE, YELLOW, BLUE, YELLOW, BLUE, YELLOW, BLUE]
---
header:
  seq: 63
  stamp:
    secs: 0
    nsecs:         0
  frame_id: "map"
x: [6.0000, 6.0000, -1.7667, -1.2054, 2.7609, 3.1781, 7.2786, 7.4856, 12.0350, 12.1317, 16.5392, 16.7907, 21.0336, 21.0160, 25.8245, 25.9493, 29.0081, 29.0481, 32.8540, 32.6120, 36.0541, 35.9588, 39.6403, 39.9083, 41.8411, 42.1979, 43.7949, 42.6440, 45.3121, 42.6222, 46.1554, 42.5241]
y: [3.0000, -3.0000, 1.4703, -2.4342, 1.7154, -1.9323, 1.7270, -1.8135, 1.7770, -1.6840, 1.8575, -1.6340, 1.9058, -1.5777, 1.8237, -1.6844, 1.6882, -1.7289, 1.5324, -1.8370, 1.4060, -2.0252, 1.3329, -3.0469, 0.4617, -5.7312, -0.8243, -7.4576, -2.6312, -9.8456, -4.6250, -11.4708]
colour: [ORANGE, ORANGE, BLUE, YELLOW, BLUE, YELLOW, BLUE, YELLOW, BLUE, YELLOW, BLUE, YELLOW, BLUE, YELLOW, BLUE, YELLOW, BLUE, YELLOW, BLUE, YELLOW, BLUE, YELLOW, BLUE, YELLOW, BLUE, YELLOW, BLUE, YELLOW, BLUE, YELLOW, BLUE, YELLOW]
---
header:
  seq: 64
  stamp:
    secs: 0
    nsecs:         0
  frame_id: "map"
x: [6.0000, 6.0000, -1.7667, -1.2054, 2.7609, 3.1781, 7.2786, 7.4856, 12.0350, 12.1317, 16.5392, 16.7907, 21.0336, 21.0160, 25.8245, 25.9493, 29.0081, 29.0481, 32.8540, 32.6120, 36.0541, 35.9588, 39.6403, 39.9083, 41.8411, 42.1979, 43.7949, 42.6440, 45.3121, 42.6222, 46.1554, 42.5241]
y: [3.0000, -3.0000, 1.4703, -2.4342, 1.7154, -1.9323, 1.7270, -1.8135, 1.7770, -1.6840, 1.8575, -1.6340, 1.9058, -1.5777, 1.8237, -1.6844, 1.6882, -1.7289, 1.5324, -1.8370, 1.4060, -2.0252, 1.3329, -3.0469, 0.4617, -5.7312, -0.8243, -7.4576, -2.6312, -9.8456, -4.6250, -11.4708]
colour: [ORANGE, ORANGE, BLUE, YELLOW, BLUE, YELLOW, BLUE, YELLOW, BLUE, YELLOW, BLUE, YELLOW, BLUE, YELLOW, BLUE, YELLOW, BLUE, YELLOW, BLUE, YELLOW, BLUE, YELLOW, BLUE, YELLOW, BLUE, YELLOW, BLUE, YELLOW, BLUE, YELLOW, BLUE, YELLOW]
---
header:
  seq: 65
  stamp:
    secs: 0
    nsecs:         0
  frame_id: "map"
x: [6.0000, 6.0000, -1.7667, -1.2054, 2.7609, 3.1781, 7.2786, 7.4856, 12.0350, 12.1317, 16.5392, 16.7907, 21.0336, 21.0160, 25.8245, 25.9493, 29.0081, 29.0481, 32.8540, 32.6120, 36.0541, 35.9588, 39.6403, 39.9083, 41.8411, 42.1979, 43.7949, 42.6440, 45.3121, 42.6222, 46.1554, 42.5241, 46.4221]
y: [3.0000, -3.0000, 1.4703, -2.4342, 1.7154, -1.9323, 1.7270, -1.8135, 1.7770, -1.6840, 1.8575, -1.6340, 1.9058, -1.5777, 1.8237, -1.6844, 1.6882, -1.7289, 1.5324, -1.8370, 1.4060, -2.0252, 1.3329, -3.0469, 0.4617, -5.7312, -0.8243, -7.4576, -2.6312, -9.8456, -4.6250, -11.4708, -7.1025]
colour: [ORANGE, ORANGE, BLUE, YELLOW, BLUE, YELLOW, BLUE, YELLOW, BLUE, YELLOW, BLUE, YELLOW, BLUE, YELLOW, BLUE, YELLOW, BLUE, YELLOW, BLUE, YELLOW, BLUE, YELLOW, BLUE, YELLOW, BLUE, YELLOW, BLUE, YELLOW, BLUE, YELLOW, BLUE, YELLOW, BLUE]
---
header:
  seq: 66
  stamp:
    secs: 0
    nsecs:         0
  frame_id: "map"
x: [6.0000, 6.0000, -1.7667, -1.2054, 2.7609, 3.1781, 7.2786, 7.4856, 12.0350, 12.1317, 16.5392, 16.7907, 21.0336, 21.0160, 25.8245, 25.9493, 29.0081, 29.0481, 32.8540, 32.6120, 36.0541, 35.9588, 39.6403, 39.9083, 41.8411, 42.1979, 43.7949, 42.6440, 45.3121, 42.6222, 46.1554, 42.5241, 46.4221]
y: [3.0000, -3.0000, 1.4703, -2.4342, 1.7154, -1.9323, 1.7270, -1.8135, 1.7770, -1.6840, 1.8575, -1.6340, 1.9058, -1.5777, 1.8237, -1.6844, 1.6882, -1.7289, 1.5324, -1.8370, 1.4060, -2.0252, 1.3329, -3.0469, 0.4617, -5.7312, -0.8243, -7.4576, -2.6312, -9.8456, -4.6250, -11.4708, -7.1025]
colour: [ORANGE, ORANGE, BLUE, YELLOW, BLUE, YELLOW, BLUE, YELLOW, BLUE, YELLOW, BLUE, YELLOW, BLUE, YELLOW, BLUE, YELLOW, BLUE, YELLOW, BLUE, YELLOW, BLUE, YELLOW, BLUE, YELLOW, BLUE, YELLOW, BLUE, YELLOW, BLUE, YELLOW, BLUE, YELLOW, BLUE]
---
header:
  seq: 67
  stamp:
    secs: 0
    nsecs:         0
  frame_id: "map"
x: [6.0000, 6.0000, -1.7667, -1.2054, 2.7609, 3.1781, 7.2786, 7.4856, 12.0350, 12.1317, 16.5392, 16.7907, 21.0336, 21.0160, 25.8245, 25.9493, 29.0081, 29.0481, 32.8540, 32.6120, 36.0541, 35.9588, 39.6403, 39.9083, 41.8411, 42.1979, 43.7949, 42.6440, 45.3121, 42.6222, 46.1554, 42.5241, 46.4221, 42.1597]
y: [3.0000, -3.0000, 1.4703, -2.4342, 1.7154, -1.9323, 1.7270, -1.8135, 1.7770, -1.6840, 1.8575, -1.6340, 1.9058, -1.5777, 1.8237, -1.6844, 1.6882, -1.7289, 1.5324, -1.8370, 1.4060, -2.0252, 1.3329, -3.0469, 0.4617, -5.7312, -0.8243, -7.4576, -2.6312, -9.8456, -4.6250, -11.4708, -7.1025, -13.4860]
colour: [ORANGE, ORANGE, BLUE, YELLOW, BLUE, YELLOW, BLUE, YELLOW, BLUE, YELLOW, BLUE, YELLOW, BLUE, YELLOW, BLUE, YELLOW, BLUE, YELLOW, BLUE, YELLOW, BLUE, YELLOW, BLUE, YELLOW, BLUE, YELLOW, BLUE, YELLOW, BLUE, YELLOW, BLUE, YELLOW, BLUE, YELLOW]
---
header:
  seq: 68
  stamp:
    secs: 0
    nsecs:         0
  frame_id: "map"
x: [6.0000, 6.0000, -1.7667, -1.2054, 2.7609, 3.1781, 7.2786, 7.4856, 12.0350, 12.1317, 16.5392, 16.7907, 21.0336, 21.0160, 25.8245, 25.9493, 29.0081, 29.0481, 32.8540, 32.6120, 36.0541, 35.9588, 39.6403, 39.9083, 41.8411, 42.1979, 43.7949, 42.6440, 45.3121, 42.6222, 46.1554, 42.5241, 46.4221, 42.1597]
y: [3.0000, -3.0000, 1.4703, -2.4342, 1.7154, -1.9323, 1.7270, -1.8135, 1.7770, -1.6840, 1.8575, -1.6340, 1.9058, -1.5777, 1.8237, -1.6844, 1.6882, -1.7289, 1.5324, -1.8370, 1.4060, -2.0252, 1.3329, -3.0469, 0.4617, -5.7312, -0.8243, -7.4576, -2.6312, -9.8456, -4.6250, -11.4708, -7.1025, -13.4860]
colour: [ORANGE, ORANGE, BLUE, YELLOW, BLUE, YELLOW, BLUE, YELLOW, BLUE, YELLOW, BLUE, YELLOW, BLUE, YELLOW, BLUE, YELLOW, BLUE, YELLOW, BLUE, YELLOW, BLUE, YELLOW, BLUE, YELLOW, BLUE, YELLOW, BLUE, YELLOW, BLUE, YELLOW, BLUE, YELLOW, BLUE, YELLOW]
---
header:
  seq: 69
  stamp:
    secs: 0
    nsecs:         0
  frame_id: "map"
x: [6.0000, 6.0000, -1.7667, -1.2054, 2.7609, 3.1781, 7.2786, 7.4856, 12.0350, 12.1317, 16.5392, 16.7907, 21.0336, 21.0160, 25.8245, 25.9493, 29.0081, 29.0481, 32.8540, 32.6120, 36.0541, 35.9588, 39.6403, 39.9083, 41.8411, 42.1979, 43.7949, 42.6440, 45.3121, 42.6222, 46.1554, 42.5241, 46.4221, 42.1597, 46.5322]
y: [3.0000, -3.0000, 1.4703, -2.4342, 1.7154, -1.9323, 1.7270, -1.8135, 1.7770, -1.6840, 1.8575, -1.6340, 1.9058, -1.5777, 1.8237, -1.6844, 1.6882, -1.7289, 1.5324, -1.8370, 1.4060, -2.0252, 1.3329, -3.0469, 0.4617, -5.7312, -0.8243, -7.4576, -2.6312, -9.8456, -4.6250, -11.4708, -7.1025, -13.4860, -9.6071]
colour: [ORANGE, ORANGE, BLUE, YELLOW, BLUE, YELLOW, BLUE, YELLOW, BLUE, YELLOW, BLUE, YELLOW, BLUE, YELLOW, BLUE, YELLOW, BLUE, YELLOW, BLUE, YELLOW, BLUE, YELLOW, BLUE, YELLOW, BLUE, YELLOW, BLUE, YELLOW, BLUE, YELLOW, BLUE, YELLOW, BLUE, YELLOW, BLUE]
---
header:
  seq: 70
  stamp:
    secs: 0
    nsecs:         0
  frame_id: "map"
x: [6.0000, 6.0000, -1.7667, -1.2054, 2.7609, 3.1781, 7.2786, 7.4856, 12.0350, 12.1317, 16.5392, 16.7907, 21.0336, 21.0160, 25.8245, 25.9493, 29.0081, 29.0481, 32.8540, 32.6120, 36.0541, 35.9588, 39.6403, 39.9083, 41.8411, 42.1979, 43.7949, 42.6440, 45.3121, 42.6222, 46.1554, 42.5241, 46.4221, 42.1597, 46.5322]
y: [3.0000, -3.0000, 1.4703, -2.4342, 1.7154, -1.9323, 1.7270, -1.8135, 1.7770, -1.6840, 1.8575, -1.6340, 1.9058, -1.5777, 1.8237, -1.6844, 1.6882, -1.7289, 1.5324, -1.8370, 1.4060, -2.0252, 1.3329, -3.0469, 0.4617, -5.7312, -0.8243, -7.4576, -2.6312, -9.8456, -4.6250, -11.4708, -7.1025, -13.4860, -9.6071]
colour: [ORANGE, ORANGE, BLUE, YELLOW, BLUE, YELLOW, BLUE, YELLOW, BLUE, YELLOW, BLUE, YELLOW, BLUE, YELLOW, BLUE, YELLOW, BLUE, YELLOW, BLUE, YELLOW, BLUE, YELLOW, BLUE, YELLOW, BLUE, YELLOW, BLUE, YELLOW, BLUE, YELLOW, BLUE, YELLOW, BLUE, YELLOW, BLUE]
---
header:
  seq: 71
  stamp:
    secs: 0
    nsecs:         0
  frame_id: "map"
x: [6.0000, 6.0000, -1.7667, -1.2054, 2.7609, 3.1781, 7.2786, 7.4856, 12.0350, 12.1317, 16.5392, 16.7907, 21.0336, 21.0160, 25.8245, 25.9493, 29.0081, 29.0481, 32.8540, 32.6120, 36.0541, 35.9588, 39.6403, 39.9083, 41.8411, 42.1979, 43.7949, 42.6440, 45.3121, 42.6222, 46.1554, 42.5241, 46.4221, 42.1597, 46.5322, 41.4562]
y: [3.0000, -3.0000, 1.4703, -2.4342, 1.7154, -1.9323, 1.7270, -1.8135, 1.7770, -1.6840, 1.8575, -1.6340, 1.9058, -1.5777, 1.8237, -1.6844, 1.6882, -1.7289, 1.5324, -1.8370, 1.4060, -2.0252, 1.3329, -3.0469, 0.4617, -5.7312, -0.8243, -7.4576, -2.6312, -9.8456, -4.6250, -11.4708, -7.1025, -13.4860, -9.6071, -15.1819]
colour: [ORANGE, ORANGE, BLUE, YELLOW, BLUE, YELLOW, BLUE, YELLOW, BLUE, YELLOW, BLUE, YELLOW, BLUE, YELLOW, BLUE, YELLOW, BLUE, YELLOW, BLUE, YELLOW, BLUE, YELLOW, BLUE, YELLOW, BLUE, YELLOW, BLUE, YELLOW, BLUE, YELLOW, BLUE, YELLOW, BLUE, YELLOW, BLUE, YELLOW]
---
header:
  seq: 72
  stamp:
    secs: 0
    nsecs:         0
  frame_id: "map"
x: [6.0000, 6.0000, -1.7667, -1.2054, 2.7609, 3.1781, 7.2786, 7.4856, 12.0350, 12.1317, 16.5392, 16.7907, 21.0336, 21.0160, 25.8245, 25.9493, 29.0081, 29.0481, 32.8540, 32.6120, 36.0541, 35.9588, 39.6403, 39.9083, 41.8411, 42.1979, 43.7949, 42.6440, 45.3121, 42.6222, 46.1554, 42.5241, 46.4221, 42.1597, 46.5322, 41.4562]
y: [3.0000, -3.0000, 1.4703, -2.4342, 1.7154, -1.9323, 1.7270, -1.8135, 1.7770, -1.6840, 1.8575, -1.6340, 1.9058, -1.5777, 1.8237, -1.6844, 1.6882, -1.7289, 1.5324, -1.8370, 1.4060, -2.0252, 1.3329, -3.0469, 0.4617, -5.7312, -0.8243, -7.4576, -2.6312, -9.8456, -4.6250, -11.4708, -7.1025, -13.4860, -9.6071, -15.1819]
colour: [ORANGE, ORANGE, BLUE, YELLOW, BLUE, YELLOW, BLUE, YELLOW, BLUE, YELLOW, BLUE, YELLOW, BLUE, YELLOW, BLUE, YELLOW, BLUE, YELLOW, BLUE, YELLOW, BLUE, YELLOW, BLUE, YELLOW, BLUE, YELLOW, BLUE, YELLOW, BLUE, YELLOW, BLUE, YELLOW, BLUE, YELLOW, BLUE, YELLOW]
---
header:
  seq: 73
  stamp:
    secs: 0
    nsecs:         0
  frame_id: "map"
x: [6.0000, 6.0000, -1.7667, -1.2054, 2.7609, 3.1781, 7.2786, 7.4856, 12.0350, 12.1317, 16.5392, 16.7907, 21.0336, 21.0160, 25.8245, 25.9493, 29.0081, 29.0481, 32.8540, 32.6120, 36.0541, 35.9588, 39.6403, 39.9083, 41.8411, 42.1979, 43.7949, 42.6440, 45.3121, 42.6222, 46.1554, 42.5241, 46.4221, 42.1597, 46.5322, 41.4562, 46.3761]
y: [3.0000, -3.0000, 1.4703, -2.4342, 1.7154, -1.9323, 1.7270, -1.8135, 1.7770, -1.6840, 1.8575, -1.6340, 1.9058, -1.5777, 1.8237, -1.6844, 1.6882, -1.7289, 1.5324, -1.8370, 1.4060, -2.0252, 1.3329, -3.0469, 0.4617, -5.7312, -0.8243, -7.4576, -2.6312, -9.8456, -4.6250, -11.4708, -7.1025, -13.4860, -9.6071, -15.1819, -11.9525]
colour: [ORANGE, ORANGE, BLUE, YELLOW, BLUE, YELLOW, BLUE, YELLOW, BLUE, YELLOW, BLUE, YELLOW, BLUE, YELLOW, BLUE, YELLOW, BLUE, YELLOW, BLUE, YELLOW, BLUE, YELLOW, BLUE, YELLOW, BLUE, YELLOW, BLUE, YELLOW, BLUE, YELLOW, BLUE, YELLOW, BLUE, YELLOW, BLUE, YELLOW, BLUE]
---
header:
  seq: 74
  stamp:
    secs: 0
    nsecs:         0
  frame_id: "map"
x: [6.0000, 6.0000, -1.7667, -1.2054, 2.7609, 3.1781, 7.2786, 7.4856, 12.0350, 12.1317, 16.5392, 16.7907, 21.0336, 21.0160, 25.8245, 25.9493, 29.0081, 29.0481, 32.8540, 32.6120, 36.0541, 35.9588, 39.6403, 39.9083, 41.8411, 42.1979, 43.7949, 42.6440, 45.3121, 42.6222, 46.1554, 42.5241, 46.4221, 42.1597, 46.5322, 41.4562, 46.3761]
y: [3.0000, -3.0000, 1.4703, -2.4342, 1.7154, -1.9323, 1.7270, -1.8135, 1.7770, -1.6840, 1.8575, -1.6340, 1.9058, -1.5777, 1.8237, -1.6844, 1.6882, -1.7289, 1.5324, -1.8370, 1.4060, -2.0252, 1.3329, -3.0469, 0.4617, -5.7312, -0.8243, -7.4576, -2.6312, -9.8456, -4.6250, -11.4708, -7.1025, -13.4860, -9.6071, -15.1819, -11.9525]
colour: [ORANGE, ORANGE, BLUE, YELLOW, BLUE, YELLOW, BLUE, YELLOW, BLUE, YELLOW, BLUE, YELLOW, BLUE, YELLOW, BLUE, YELLOW, BLUE, YELLOW, BLUE, YELLOW, BLUE, YELLOW, BLUE, YELLOW, BLUE, YELLOW, BLUE, YELLOW, BLUE, YELLOW, BLUE, YELLOW, BLUE, YELLOW, BLUE, YELLOW, BLUE]
---
header:
  seq: 75
  stamp:
    secs: 0
    nsecs:         0
  frame_id: "map"
x: [6.0000, 6.0000, -1.7667, -1.2054, 2.7609, 3.1781, 7.2786, 7.4856, 12.0350, 12.1317, 16.5392, 16.7907, 21.0336, 21.0160, 25.8245, 25.9493, 29.0081, 29.0481, 32.8540, 32.6120, 36.0541, 35.9588, 39.6403, 39.9083, 41.8411, 42.1979, 43.7949, 42.6440, 45.3121, 42.6222, 46.1554, 42.5241, 46.4221, 42.1597, 46.5322, 41.4562, 46.3761, 40.5326]
y: [3.0000, -3.0000, 1.4703, -2.4342, 1.7154, -1.9323, 1.7270, -1.8135, 1.7770, -1.6840, 1.8575, -1.6340, 1.9058, -1.5777, 1.8237, -1.6844, 1.6882, -1.7289, 1.5324, -1.8370, 1.4060, -2.0252, 1.3329, -3.0469, 0.4617, -5.7312, -0.8243, -7.4576, -2.6312, -9.8456, -4.6250, -11.4708, -7.1025, -13.4860, -9.6071, -15.1819, -11.9525, -16.8798]
colour: [ORANGE, ORANGE, BLUE, YELLOW, BLUE, YELLOW, BLUE, YELLOW, BLUE, YELLOW, BLUE, YELLOW, BLUE, YELLOW, BLUE, YELLOW, BLUE, YELLOW, BLUE, YELLOW, BLUE, YELLOW, BLUE, YELLOW, BLUE, YELLOW, BLUE, YELLOW, BLUE, YELLOW, BLUE, YELLOW, BLUE, YELLOW, BLUE, YELLOW, BLUE, YELLOW]
---
header:
  seq: 76
  stamp:
    secs: 0
    nsecs:         0
  frame_id: "map"
x: [6.0000, 6.0000, -1.7667, -1.2054, 2.7609, 3.1781, 7.2786, 7.4856, 12.0350, 12.1317, 16.5392, 16.7907, 21.0336, 21.0160, 25.8245, 25.9493, 29.0081, 29.0481, 32.8540, 32.6120, 36.0541, 35.9588, 39.6403, 39.9083, 41.8411, 42.1979, 43.7949, 42.6440, 45.3121, 42.6222, 46.1554, 42.5241, 46.4221, 42.1597, 46.5322, 41.4562, 46.3761, 40.5326]
y: [3.0000, -3.0000, 1.4703, -2.4342, 1.7154, -1.9323, 1.7270, -1.8135, 1.7770, -1.6840, 1.8575, -1.6340, 1.9058, -1.5777, 1.8237, -1.6844, 1.6882, -1.7289, 1.5324, -1.8370, 1.4060, -2.0252, 1.3329, -3.0469, 0.4617, -5.7312, -0.8243, -7.4576, -2.6312, -9.8456, -4.6250, -11.4708, -7.1025, -13.4860, -9.6071, -15.1819, -11.9525, -16.8798]
colour: [ORANGE, ORANGE, BLUE, YELLOW, BLUE, YELLOW, BLUE, YELLOW, BLUE, YELLOW, BLUE, YELLOW, BLUE, YELLOW, BLUE, YELLOW, BLUE, YELLOW, BLUE, YELLOW, BLUE, YELLOW, BLUE, YELLOW, BLUE, YELLOW, BLUE, YELLOW, BLUE, YELLOW, BLUE, YELLOW, BLUE, YELLOW, BLUE, YELLOW, BLUE, YELLOW]
---
header:
  seq: 77
  stamp:
    secs: 0
    nsecs:         0
  frame_id: "map"
x: [6.0000, 6.0000, -1.7667, -1.2054, 2.7609, 3.1781, 7.2786, 7.4856, 12.0350, 12.1317, 16.5392, 16.7907, 21.0336, 21.0160, 25.8245, 25.9493, 29.0081, 29.0481, 32.8540, 32.6120, 36.0541, 35.9588, 39.6403, 39.9083, 41.8411, 42.1979, 43.7949, 42.6440, 45.3121, 42.6222, 46.1554, 42.5241, 46.4221, 42.1597, 46.5322, 41.4562, 46.3761, 40.5326, 45.8402]
y: [3.0000, -3.0000, 1.4703, -2.4342, 1.7154, -1.9323, 1.7270, -1.8135, 1.7770, -1.6840, 1.8575, -1.6340, 1.9058, -1.5777, 1.8237, -1.6844, 1.6882, -1.7289, 1.5324, -1.8370, 1.4060, -2.0252, 1.3329, -3.0469, 0.4617, -5.7312, -0.8243, -7.4576, -2.6312, -9.8456, -4.6250, -11.4708, -7.1025, -13.4860, -9.6071, -15.1819, -11.9525, -16.8798, -14.4087]
colour: [ORANGE, ORANGE, BLUE, YELLOW, BLUE, YELLOW, BLUE, YELLOW, BLUE, YELLOW, BLUE, YELLOW, BLUE, YELLOW, BLUE, YELLOW, BLUE, YELLOW, BLUE, YELLOW, BLUE, YELLOW, BLUE, YELLOW, BLUE, YELLOW, BLUE, YELLOW, BLUE, YELLOW, BLUE, YELLOW, BLUE, YELLOW, BLUE, YELLOW, BLUE, YELLOW, BLUE]
---
header:
  seq: 78
  stamp:
    secs: 0
    nsecs:         0
  frame_id: "map"
x: [6.0000, 6.0000, -1.7667, -1.2054, 2.7609, 3.1781, 7.2786, 7.4856, 12.0350, 12.1317, 16.5392, 16.7907, 21.0336, 21.0160, 25.8245, 25.9493, 29.0081, 29.0481, 32.8540, 32.6120, 36.0541, 35.9588, 39.6403, 39.9083, 41.8411, 42.1979, 43.7949, 42.6440, 45.3121, 42.6222, 46.1554, 42.5241, 46.4221, 42.1597, 46.5322, 41.4562, 46.3761, 40.5326, 45.8402]
y: [3.0000, -3.0000, 1.4703, -2.4342, 1.7154, -1.9323, 1.7270, -1.8135, 1.7770, -1.6840, 1.8575, -1.6340, 1.9058, -1.5777, 1.8237, -1.6844, 1.6882, -1.7289, 1.5324, -1.8370, 1.4060, -2.0252, 1.3329, -3.0469, 0.4617, -5.7312, -0.8243, -7.4576, -2.6312, -9.8456, -4.6250, -11.4708, -7.1025, -13.4860, -9.6071, -15.1819, -11.9525, -16.8798, -14.4087]
colour: [ORANGE, ORANGE, BLUE, YELLOW, BLUE, YELLOW, BLUE, YELLOW, BLUE, YELLOW, BLUE, YELLOW, BLUE, YELLOW, BLUE, YELLOW, BLUE, YELLOW, BLUE, YELLOW, BLUE, YELLOW, BLUE, YELLOW, BLUE, YELLOW, BLUE, YELLOW, BLUE, YELLOW, BLUE, YELLOW, BLUE, YELLOW, BLUE, YELLOW, BLUE, YELLOW, BLUE]
---
header:
  seq: 79
  stamp:
    secs: 0
    nsecs:         0
  frame_id: "map"
x: [6.0000, 6.0000, -1.7667, -1.2054, 2.7609, 3.1781, 7.2786, 7.4856, 12.0350, 12.1317, 16.5392, 16.7907, 21.0336, 21.0160, 25.8245, 25.9493, 29.0081, 29.0481, 32.8540, 32.6120, 36.0541, 35.9588, 39.6403, 39.9083, 41.8411, 42.1979, 43.7949, 42.6440, 45.3121, 42.6222, 46.1554, 42.5241, 46.4221, 42.1597, 46.5322, 41.4562, 46.3761, 40.5326, 45.8402, 38.5181]
y: [3.0000, -3.0000, 1.4703, -2.4342, 1.7154, -1.9323, 1.7270, -1.8135, 1.7770, -1.6840, 1.8575, -1.6340, 1.9058, -1.5777, 1.8237, -1.6844, 1.6882, -1.7289, 1.5324, -1.8370, 1.4060, -2.0252, 1.3329, -3.0469, 0.4617, -5.7312, -0.8243, -7.4576, -2.6312, -9.8456, -4.6250, -11.4708, -7.1025, -13.4860, -9.6071, -15.1819, -11.9525, -16.8798, -14.4087, -18.9989]
colour: [ORANGE, ORANGE, BLUE, YELLOW, BLUE, YELLOW, BLUE, YELLOW, BLUE, YELLOW, BLUE, YELLOW, BLUE, YELLOW, BLUE, YELLOW, BLUE, YELLOW, BLUE, YELLOW, BLUE, YELLOW, BLUE, YELLOW, BLUE, YELLOW, BLUE, YELLOW, BLUE, YELLOW, BLUE, YELLOW, BLUE, YELLOW, BLUE, YELLOW, BLUE, YELLOW, BLUE, YELLOW]
---
header:
  seq: 80
  stamp:
    secs: 0
    nsecs:         0
  frame_id: "map"
x: [6.0000, 6.0000, -1.7667, -1.2054, 2.7609, 3.1781, 7.2786, 7.4856, 12.0350, 12.1317, 16.5392, 16.7907, 21.0336, 21.0160, 25.8245, 25.9493, 29.0081, 29.0481, 32.8540, 32.6120, 36.0541, 35.9588, 39.6403, 39.9083, 41.8411, 42.1979, 43.7949, 42.6440, 45.3121, 42.6222, 46.1554, 42.5241, 46.4221, 42.1597, 46.5322, 41.4562, 46.3761, 40.5326, 45.8402, 38.5181]
y: [3.0000, -3.0000, 1.4703, -2.4342, 1.7154, -1.9323, 1.7270, -1.8135, 1.7770, -1.6840, 1.8575, -1.6340, 1.9058, -1.5777, 1.8237, -1.6844, 1.6882, -1.7289, 1.5324, -1.8370, 1.4060, -2.0252, 1.3329, -3.0469, 0.4617, -5.7312, -0.8243, -7.4576, -2.6312, -9.8456, -4.6250, -11.4708, -7.1025, -13.4860, -9.6071, -15.1819, -11.9525, -16.8798, -14.4087, -18.9989]
colour: [ORANGE, ORANGE, BLUE, YELLOW, BLUE, YELLOW, BLUE, YELLOW, BLUE, YELLOW, BLUE, YELLOW, BLUE, YELLOW, BLUE, YELLOW, BLUE, YELLOW, BLUE, YELLOW, BLUE, YELLOW, BLUE, YELLOW, BLUE, YELLOW, BLUE, YELLOW, BLUE, YELLOW, BLUE, YELLOW, BLUE, YELLOW, BLUE, YELLOW, BLUE, YELLOW, BLUE, YELLOW]
---
header:
  seq: 81
  stamp:
    secs: 0
    nsecs:         0
  frame_id: "map"
x: [6.0000, 6.0000, -1.7667, -1.2054, 2.7609, 3.1781, 7.2786, 7.4856, 12.0350, 12.1317, 16.5392, 16.7907, 21.0336, 21.0160, 25.8245, 25.9493, 29.0081, 29.0481, 32.8540, 32.6120, 36.0541, 35.9588, 39.6403, 39.9083, 41.8411, 42.1979, 43.7949, 42.6440, 45.3121, 42.6222, 46.1554, 42.5241, 46.4221, 42.1597, 46.5322, 41.4562, 46.3761, 40.5326, 45.8402, 38.5181, 45.0924]
y: [3.0000, -3.0000, 1.4703, -2.4342, 1.7154, -1.9323, 1.7270, -1.8135, 1.7770, -1.6840, 1.8575, -1.6340, 1.9058, -1.5777, 1.8237, -1.6844, 1.6882, -1.7289, 1.5324, -1.8370, 1.4060, -2.0252, 1.3329, -3.0469, 0.4617, -5.7312, -0.8243, -7.4576, -2.6312, -9.8456, -4.6250, -11.4708, -7.1025, -13.4860, -9.6071, -15.1819, -11.9525, -16.8798, -14.4087, -18.9989, -16.5198]
colour: [ORANGE, ORANGE, BLUE, YELLOW, BLUE, YELLOW, BLUE, YELLOW, BLUE, YELLOW, BLUE, YELLOW, BLUE, YELLOW, BLUE, YELLOW, BLUE, YELLOW, BLUE, YELLOW, BLUE, YELLOW, BLUE, YELLOW, BLUE, YELLOW, BLUE, YELLOW, BLUE, YELLOW, BLUE, YELLOW, BLUE, YELLOW, BLUE, YELLOW, BLUE, YELLOW, BLUE, YELLOW, BLUE]
---
header:
  seq: 82
  stamp:
    secs: 0
    nsecs:         0
  frame_id: "map"
x: [6.0000, 6.0000, -1.7667, -1.2054, 2.7609, 3.1781, 7.2786, 7.4856, 12.0350, 12.1317, 16.5392, 16.7907, 21.0336, 21.0160, 25.8245, 25.9493, 29.0081, 29.0481, 32.8540, 32.6120, 36.0541, 35.9588, 39.6403, 39.9083, 41.8411, 42.1979, 43.7949, 42.6440, 45.3121, 42.6222, 46.1554, 42.5241, 46.4221, 42.1597, 46.5322, 41.4562, 46.3761, 40.5326, 45.8402, 38.5181, 45.0924]
y: [3.0000, -3.0000, 1.4703, -2.4342, 1.7154, -1.9323, 1.7270, -1.8135, 1.7770, -1.6840, 1.8575, -1.6340, 1.9058, -1.5777, 1.8237, -1.6844, 1.6882, -1.7289, 1.5324, -1.8370, 1.4060, -2.0252, 1.3329, -3.0469, 0.4617, -5.7312, -0.8243, -7.4576, -2.6312, -9.8456, -4.6250, -11.4708, -7.1025, -13.4860, -9.6071, -15.1819, -11.9525, -16.8798, -14.4087, -18.9989, -16.5198]
colour: [ORANGE, ORANGE, BLUE, YELLOW, BLUE, YELLOW, BLUE, YELLOW, BLUE, YELLOW, BLUE, YELLOW, BLUE, YELLOW, BLUE, YELLOW, BLUE, YELLOW, BLUE, YELLOW, BLUE, YELLOW, BLUE, YELLOW, BLUE, YELLOW, BLUE, YELLOW, BLUE, YELLOW, BLUE, YELLOW, BLUE, YELLOW, BLUE, YELLOW, BLUE, YELLOW, BLUE, YELLOW, BLUE]
---
header:
  seq: 83
  stamp:
    secs: 0
    nsecs:         0
  frame_id: "map"
x: [6.0000, 6.0000, -1.7667, -1.2054, 2.7609, 3.1781, 7.2786, 7.4856, 12.0350, 12.1317, 16.5392, 16.7907, 21.0336, 21.0160, 25.8245, 25.9493, 29.0081, 29.0481, 32.8540, 32.6120, 36.0541, 35.9588, 39.6403, 39.9083, 41.8411, 42.1979, 43.7949, 42.6440, 45.3121, 42.6222, 46.1554, 42.5241, 46.4221, 42.1597, 46.5322, 41.4562, 46.3761, 40.5326, 45.8402, 38.5181, 45.0924, 36.2040]
y: [3.0000, -3.0000, 1.4703, -2.4342, 1.7154, -1.9323, 1.7270, -1.8135, 1.7770, -1.6840, 1.8575, -1.6340, 1.9058, -1.5777, 1.8237, -1.6844, 1.6882, -1.7289, 1.5324, -1.8370, 1.4060, -2.0252, 1.3329, -3.0469, 0.4617, -5.7312, -0.8243, -7.4576, -2.6312, -9.8456, -4.6250, -11.4708, -7.1025, -13.4860, -9.6071, -15.1819, -11.9525, -16.8798, -14.4087, -18.9989, -16.5198, -20.4709]
colour: [ORANGE, ORANGE, BLUE, YELLOW, BLUE, YELLOW, BLUE, YELLOW, BLUE, YELLOW, BLUE, YELLOW, BLUE, YELLOW, BLUE, YELLOW, BLUE, YELLOW, BLUE, YELLOW, BLUE, YELLOW, BLUE, YELLOW, BLUE, YELLOW, BLUE, YELLOW, BLUE, YELLOW, BLUE, YELLOW, BLUE, YELLOW, BLUE, YELLOW, BLUE, YELLOW, BLUE, YELLOW, BLUE, YELLOW]
---
header:
  seq: 84
  stamp:
    secs: 0
    nsecs:         0
  frame_id: "map"
x: [6.0000, 6.0000, -1.7667, -1.2054, 2.7609, 3.1781, 7.2786, 7.4856, 12.0350, 12.1317, 16.5392, 16.7907, 21.0336, 21.0160, 25.8245, 25.9493, 29.0081, 29.0481, 32.8540, 32.6120, 36.0541, 35.9588, 39.6403, 39.9083, 41.8411, 42.1979, 43.7949, 42.6440, 45.3121, 42.6222, 46.1554, 42.5241, 46.4221, 42.1597, 46.5322, 41.4562, 46.3761, 40.5326, 45.8402, 38.5181, 45.0924, 36.2040]
y: [3.0000, -3.0000, 1.4703, -2.4342, 1.7154, -1.9323, 1.7270, -1.8135, 1.7770, -1.6840, 1.8575, -1.6340, 1.9058, -1.5777, 1.8237, -1.6844, 1.6882, -1.7289, 1.5324, -1.8370, 1.4060, -2.0252, 1.3329, -3.0469, 0.4617, -5.7312, -0.8243, -7.4576, -2.6312, -9.8456, -4.6250, -11.4708, -7.1025, -13.4860, -9.6071, -15.1819, -11.9525, -16.8798, -14.4087, -18.9989, -16.5198, -20.4709]
colour: [ORANGE, ORANGE, BLUE, YELLOW, BLUE, YELLOW, BLUE, YELLOW, BLUE, YELLOW, BLUE, YELLOW, BLUE, YELLOW, BLUE, YELLOW, BLUE, YELLOW, BLUE, YELLOW, BLUE, YELLOW, BLUE, YELLOW, BLUE, YELLOW, BLUE, YELLOW, BLUE, YELLOW, BLUE, YELLOW, BLUE, YELLOW, BLUE, YELLOW, BLUE, YELLOW, BLUE, YELLOW, BLUE, YELLOW]
---
header:
  seq: 85
  stamp:
    secs: 0
    nsecs:         0
  frame_id: "map"
x: [6.0000, 6.0000, -1.7667, -1.2054, 2.7609, 3.1781, 7.2786, 7.4856, 12.0350, 12.1317, 16.5392, 16.7907, 21.0336, 21.0160, 25.8245, 25.9493, 29.0081, 29.0481, 32.8540, 32.6120, 36.0541, 35.9588, 39.6403, 39.9083, 41.8411, 42.1979, 43.7949, 42.6440, 45.3121, 42.6222, 46.1554, 42.5241, 46.4221, 42.1597, 46.5322, 41.4562, 46.3761, 40.5326, 45.8402, 38.5181, 45.0924, 36.2040, 43.6631]
y: [3.0000, -3.0000, 1.4703, -2.4342, 1.7154, -1.9323, 1.7270, -1.8135, 1.7770, -1.6840, 1.8575, -1.6340, 1.9058, -1.5777, 1.8237, -1.6844, 1.6882, -1.7289, 1.5324, -1.8370, 1.4060, -2.0252, 1.3329, -3.0469, 0.4617, -5.7312, -0.8243, -7.4576, -2.6312, -9.8456, -4.6250, -11.4708, -7.1025, -13.4860, -9.6071, -15.1819, -11.9525, -16.8798, -14.4087, -18.9989, -16.5198, -20.4709, -19.0953]
colour: [ORANGE, ORANGE, BLUE, YELLOW, BLUE, YELLOW, BLUE, YELLOW, BLUE, YELLOW, BLUE, YELLOW, BLUE, YELLOW, BLUE, YELLOW, BLUE, YELLOW, BLUE, YELLOW, BLUE, YELLOW, BLUE, YELLOW, BLUE, YELLOW, BLUE, YELLOW, BLUE, YELLOW, BLUE, YELLOW, BLUE, YELLOW, BLUE, YELLOW, BLUE, YELLOW, BLUE, YELLOW, BLUE, YELLOW, BLUE]
---
header:
  seq: 86
  stamp:
    secs: 0
    nsecs:         0
  frame_id: "map"
x: [6.0000, 6.0000, -1.7667, -1.2054, 2.7609, 3.1781, 7.2786, 7.4856, 12.0350, 12.1317, 16.5392, 16.7907, 21.0336, 21.0160, 25.8245, 25.9493, 29.0081, 29.0481, 32.8540, 32.6120, 36.0541, 35.9588, 39.6403, 39.9083, 41.8411, 42.1979, 43.7949, 42.6440, 45.3121, 42.6222, 46.1554, 42.5241, 46.4221, 42.1597, 46.5322, 41.4562, 46.3761, 40.5326, 45.8402, 38.5181, 45.0924, 36.2040, 43.6631]
y: [3.0000, -3.0000, 1.4703, -2.4342, 1.7154, -1.9323, 1.7270, -1.8135, 1.7770, -1.6840, 1.8575, -1.6340, 1.9058, -1.5777, 1.8237, -1.6844, 1.6882, -1.7289, 1.5324, -1.8370, 1.4060, -2.0252, 1.3329, -3.0469, 0.4617, -5.7312, -0.8243, -7.4576, -2.6312, -9.8456, -4.6250, -11.4708, -7.1025, -13.4860, -9.6071, -15.1819, -11.9525, -16.8798, -14.4087, -18.9989, -16.5198, -20.4709, -19.0953]
colour: [ORANGE, ORANGE, BLUE, YELLOW, BLUE, YELLOW, BLUE, YELLOW, BLUE, YELLOW, BLUE, YELLOW, BLUE, YELLOW, BLUE, YELLOW, BLUE, YELLOW, BLUE, YELLOW, BLUE, YELLOW, BLUE, YELLOW, BLUE, YELLOW, BLUE, YELLOW, BLUE, YELLOW, BLUE, YELLOW, BLUE, YELLOW, BLUE, YELLOW, BLUE, YELLOW, BLUE, YELLOW, BLUE, YELLOW, BLUE]
---
header:
  seq: 87
  stamp:
    secs: 0
    nsecs:         0
  frame_id: "map"
x: [6.0000, 6.0000, -1.7667, -1.2054, 2.7609, 3.1781, 7.2786, 7.4856, 12.0350, 12.1317, 16.5392, 16.7907, 21.0336, 21.0160, 25.8245, 25.9493, 29.0081, 29.0481, 32.8540, 32.6120, 36.0541, 35.9588, 39.6403, 39.9083, 41.8411, 42.1979, 43.7949, 42.6440, 45.3121, 42.6222, 46.1554, 42.5241, 46.4221, 42.1597, 46.5322, 41.4562, 46.3761, 40.5326, 45.8402, 38.5181, 45.0924, 36.2040, 43.6631, 32.7587]
y: [3.0000, -3.0000, 1.4703, -2.4342, 1.7154, -1.9323, 1.7270, -1.8135, 1.7770, -1.6840, 1.8575, -1.6340, 1.9058, -1.5777, 1.8237, -1.6844, 1.6882, -1.7289, 1.5324, -1.8370, 1.4060, -2.0252, 1.3329, -3.0469, 0.4617, -5.7312, -0.8243, -7.4576, -2.6312, -9.8456, -4.6250, -11.4708, -7.1025, -13.4860, -9.6071, -15.1819, -11.9525, -16.8798, -14.4087, -18.9989, -16.5198, -20.4709, -19.0953, -21.9738]
colour: [ORANGE, ORANGE, BLUE, YELLOW, BLUE, YELLOW, BLUE, YELLOW, BLUE, YELLOW, BLUE, YELLOW, BLUE, YELLOW, BLUE, YELLOW, BLUE, YELLOW, BLUE, YELLOW, BLUE, YELLOW, BLUE, YELLOW, BLUE, YELLOW, BLUE, YELLOW, BLUE, YELLOW, BLUE, YELLOW, BLUE, YELLOW, BLUE, YELLOW, BLUE, YELLOW, BLUE, YELLOW, BLUE, YELLOW, BLUE, YELLOW]
---
header:
  seq: 88
  stamp:
    secs: 0
    nsecs:         0
  frame_id: "map"
x: [6.0000, 6.0000, -1.7667, -1.2054, 2.7609, 3.1781, 7.2786, 7.4856, 12.0350, 12.1317, 16.5392, 16.7907, 21.0336, 21.0160, 25.8245, 25.9493, 29.0081, 29.0481, 32.8540, 32.6120, 36.0541, 35.9588, 39.6403, 39.9083, 41.8411, 42.1979, 43.7949, 42.6440, 45.3121, 42.6222, 46.1554, 42.5241, 46.4221, 42.1597, 46.5322, 41.4562, 46.3761, 40.5326, 45.8402, 38.5181, 45.0924, 36.2040, 43.6631, 32.7587]
y: [3.0000, -3.0000, 1.4703, -2.4342, 1.7154, -1.9323, 1.7270, -1.8135, 1.7770, -1.6840, 1.8575, -1.6340, 1.9058, -1.5777, 1.8237, -1.6844, 1.6882, -1.7289, 1.5324, -1.8370, 1.4060, -2.0252, 1.3329, -3.0469, 0.4617, -5.7312, -0.8243, -7.4576, -2.6312, -9.8456, -4.6250, -11.4708, -7.1025, -13.4860, -9.6071, -15.1819, -11.9525, -16.8798, -14.4087, -18.9989, -16.5198, -20.4709, -19.0953, -21.9738]
colour: [ORANGE, ORANGE, BLUE, YELLOW, BLUE, YELLOW, BLUE, YELLOW, BLUE, YELLOW, BLUE, YELLOW, BLUE, YELLOW, BLUE, YELLOW, BLUE, YELLOW, BLUE, YELLOW, BLUE, YELLOW, BLUE, YELLOW, BLUE, YELLOW, BLUE, YELLOW, BLUE, YELLOW, BLUE, YELLOW, BLUE, YELLOW, BLUE, YELLOW, BLUE, YELLOW, BLUE, YELLOW, BLUE, YELLOW, BLUE, YELLOW]
---
header:
  seq: 89
  stamp:
    secs: 0
    nsecs:         0
  frame_id: "map"
x: [6.0000, 6.0000, -1.7667, -1.2054, 2.7609, 3.1781, 7.2786, 7.4856, 12.0350, 12.1317, 16.5392, 16.7907, 21.0336, 21.0160, 25.8245, 25.9493, 29.0081, 29.0481, 32.8540, 32.6120, 36.0541, 35.9588, 39.6403, 39.9083, 41.8411, 42.1979, 43.7949, 42.6440, 45.3121, 42.6222, 46.1554, 42.5241, 46.4221, 42.1597, 46.5322, 41.4562, 46.3761, 40.5326, 45.8402, 38.5181, 45.0924, 36.2040, 43.6631, 32.7587, 41.3715]
y: [3.0000, -3.0000, 1.4703, -2.4342, 1.7154, -1.9323, 1.7270, -1.8135, 1.7770, -1.6840, 1.8575, -1.6340, 1.9058, -1.5777, 1.8237, -1.6844, 1.6882, -1.7289, 1.5324, -1.8370, 1.4060, -2.0252, 1.3329, -3.0469, 0.4617, -5.7312, -0.8243, -7.4576, -2.6312, -9.8456, -4.6250, -11.4708, -7.1025, -13.4860, -9.6071, -15.1819, -11.9525, -16.8798, -14.4087, -18.9989, -16.5198, -20.4709, -19.0953, -21.9738, -21.7455]
colour: [ORANGE, ORANGE, BLUE, YELLOW, BLUE, YELLOW, BLUE, YELLOW, BLUE, YELLOW, BLUE, YELLOW, BLUE, YELLOW, BLUE, YELLOW, BLUE, YELLOW, BLUE, YELLOW, BLUE, YELLOW, BLUE, YELLOW, BLUE, YELLOW, BLUE, YELLOW, BLUE, YELLOW, BLUE, YELLOW, BLUE, YELLOW, BLUE, YELLOW, BLUE, YELLOW, BLUE, YELLOW, BLUE, YELLOW, BLUE, YELLOW, BLUE]
---
header:
  seq: 90
  stamp:
    secs: 0
    nsecs:         0
  frame_id: "map"
x: [6.0000, 6.0000, -1.7667, -1.2054, 2.7609, 3.1781, 7.2786, 7.4856, 12.0350, 12.1317, 16.5392, 16.7907, 21.0336, 21.0160, 25.8245, 25.9493, 29.0081, 29.0481, 32.8540, 32.6120, 36.0541, 35.9588, 39.6403, 39.9083, 41.8411, 42.1979, 43.7949, 42.6440, 45.3121, 42.6222, 46.1554, 42.5241, 46.4221, 42.1597, 46.5322, 41.4562, 46.3761, 40.5326, 45.8402, 38.5181, 45.0924, 36.2040, 43.6631, 32.7587, 41.3715]
y: [3.0000, -3.0000, 1.4703, -2.4342, 1.7154, -1.9323, 1.7270, -1.8135, 1.7770, -1.6840, 1.8575, -1.6340, 1.9058, -1.5777, 1.8237, -1.6844, 1.6882, -1.7289, 1.5324, -1.8370, 1.4060, -2.0252, 1.3329, -3.0469, 0.4617, -5.7312, -0.8243, -7.4576, -2.6312, -9.8456, -4.6250, -11.4708, -7.1025, -13.4860, -9.6071, -15.1819, -11.9525, -16.8798, -14.4087, -18.9989, -16.5198, -20.4709, -19.0953, -21.9738, -21.7455]
colour: [ORANGE, ORANGE, BLUE, YELLOW, BLUE, YELLOW, BLUE, YELLOW, BLUE, YELLOW, BLUE, YELLOW, BLUE, YELLOW, BLUE, YELLOW, BLUE, YELLOW, BLUE, YELLOW, BLUE, YELLOW, BLUE, YELLOW, BLUE, YELLOW, BLUE, YELLOW, BLUE, YELLOW, BLUE, YELLOW, BLUE, YELLOW, BLUE, YELLOW, BLUE, YELLOW, BLUE, YELLOW, BLUE, YELLOW, BLUE, YELLOW, BLUE]
---
header:
  seq: 91
  stamp:
    secs: 0
    nsecs:         0
  frame_id: "map"
x: [6.0000, 6.0000, -1.7667, -1.2054, 2.7609, 3.1781, 7.2786, 7.4856, 12.0350, 12.1317, 16.5392, 16.7907, 21.0336, 21.0160, 25.8245, 25.9493, 29.0081, 29.0481, 32.8540, 32.6120, 36.0541, 35.9588, 39.6403, 39.9083, 41.8411, 42.1979, 43.7949, 42.6440, 45.3121, 42.6222, 46.1554, 42.5241, 46.4221, 42.1597, 46.5322, 41.4562, 46.3761, 40.5326, 45.8402, 38.5181, 45.0924, 36.2040, 43.6631, 32.7587, 41.3715, 28.4736]
y: [3.0000, -3.0000, 1.4703, -2.4342, 1.7154, -1.9323, 1.7270, -1.8135, 1.7770, -1.6840, 1.8575, -1.6340, 1.9058, -1.5777, 1.8237, -1.6844, 1.6882, -1.7289, 1.5324, -1.8370, 1.4060, -2.0252, 1.3329, -3.0469, 0.4617, -5.7312, -0.8243, -7.4576, -2.6312, -9.8456, -4.6250, -11.4708, -7.1025, -13.4860, -9.6071, -15.1819, -11.9525, -16.8798, -14.4087, -18.9989, -16.5198, -20.4709, -19.0953, -21.9738, -21.7455, -23.4818]
colour: [ORANGE, ORANGE, BLUE, YELLOW, BLUE, YELLOW, BLUE, YELLOW, BLUE, YELLOW, BLUE, YELLOW, BLUE, YELLOW, BLUE, YELLOW, BLUE, YELLOW, BLUE, YELLOW, BLUE, YELLOW, BLUE, YELLOW, BLUE, YELLOW, BLUE, YELLOW, BLUE, YELLOW, BLUE, YELLOW, BLUE, YELLOW, BLUE, YELLOW, BLUE, YELLOW, BLUE, YELLOW, BLUE, YELLOW, BLUE, YELLOW, BLUE, YELLOW]
---
header:
  seq: 92
  stamp:
    secs: 0
    nsecs:         0
  frame_id: "map"
x: [6.0000, 6.0000, -1.7667, -1.2054, 2.7609, 3.1781, 7.2786, 7.4856, 12.0350, 12.1317, 16.5392, 16.7907, 21.0336, 21.0160, 25.8245, 25.9493, 29.0081, 29.0481, 32.8540, 32.6120, 36.0541, 35.9588, 39.6403, 39.9083, 41.8411, 42.1979, 43.7949, 42.6440, 45.3121, 42.6222, 46.1554, 42.5241, 46.4221, 42.1597, 46.5322, 41.4562, 46.3761, 40.5326, 45.8402, 38.5181, 45.0924, 36.2040, 43.6631, 32.7587, 41.3715, 28.4736]
y: [3.0000, -3.0000, 1.4703, -2.4342, 1.7154, -1.9323, 1.7270, -1.8135, 1.7770, -1.6840, 1.8575, -1.6340, 1.9058, -1.5777, 1.8237, -1.6844, 1.6882, -1.7289, 1.5324, -1.8370, 1.4060, -2.0252, 1.3329, -3.0469, 0.4617, -5.7312, -0.8243, -7.4576, -2.6312, -9.8456, -4.6250, -11.4708, -7.1025, -13.4860, -9.6071, -15.1819, -11.9525, -16.8798, -14.4087, -18.9989, -16.5198, -20.4709, -19.0953, -21.9738, -21.7455, -23.4818]
colour: [ORANGE, ORANGE, BLUE, YELLOW, BLUE, YELLOW, BLUE, YELLOW, BLUE, YELLOW, BLUE, YELLOW, BLUE, YELLOW, BLUE, YELLOW, BLUE, YELLOW, BLUE, YELLOW, BLUE, YELLOW, BLUE, YELLOW, BLUE, YELLOW, BLUE, YELLOW, BLUE, YELLOW, BLUE, YELLOW, BLUE, YELLOW, BLUE, YELLOW, BLUE, YELLOW, BLUE, YELLOW, BLUE, YELLOW, BLUE, YELLOW, BLUE, YELLOW]
---
header:
  seq: 93
  stamp:
    secs: 0
    nsecs:         0
  frame_id: "map"
x: [6.0000, 6.0000, -1.7667, -1.2054, 2.7609, 3.1781, 7.2786, 7.4856, 12.0350, 12.1317, 16.5392, 16.7907, 21.0336, 21.0160, 25.8245, 25.9493, 29.0081, 29.0481, 32.8540, 32.6120, 36.0541, 35.9588, 39.6403, 39.9083, 41.8411, 42.1979, 43.7949, 42.6440, 45.3121, 42.6222, 46.1554, 42.5241, 46.4221, 42.1597, 46.5322, 41.4562, 46.3761, 40.5326, 45.8402, 38.5181, 45.0924, 36.2040, 43.6631, 32.7587, 41.3715, 28.4736, 37.8901]
y: [3.0000, -3.0000, 1.4703, -2.4342, 1.7154, -1.9323, 1.7270, -1.8135, 1.7770, -1.6840, 1.8575, -1.6340, 1.9058, -1.5777, 1.8237, -1.6844, 1.6882, -1.7289, 1.5324, -1.8370, 1.4060, -2.0252, 1.3329, -3.0469, 0.4617, -5.7312, -0.8243, -7.4576, -2.6312, -9.8456, -4.6250, -11.4708, -7.1025, -13.4860, -9.6071, -15.1819, -11.9525, -16.8798, -14.4087, -18.9989, -16.5198, -20.4709, -19.0953, -21.9738, -21.7455, -23.4818, -24.0830]
colour: [ORANGE, ORANGE, BLUE, YELLOW, BLUE, YELLOW, BLUE, YELLOW, BLUE, YELLOW, BLUE, YELLOW, BLUE, YELLOW, BLUE, YELLOW, BLUE, YELLOW, BLUE, YELLOW, BLUE, YELLOW, BLUE, YELLOW, BLUE, YELLOW, BLUE, YELLOW, BLUE, YELLOW, BLUE, YELLOW, BLUE, YELLOW, BLUE, YELLOW, BLUE, YELLOW, BLUE, YELLOW, BLUE, YELLOW, BLUE, YELLOW, BLUE, YELLOW, BLUE]
---
header:
  seq: 94
  stamp:
    secs: 0
    nsecs:         0
  frame_id: "map"
x: [6.0000, 6.0000, -1.7667, -1.2054, 2.7609, 3.1781, 7.2786, 7.4856, 12.0350, 12.1317, 16.5392, 16.7907, 21.0336, 21.0160, 25.8245, 25.9493, 29.0081, 29.0481, 32.8540, 32.6120, 36.0541, 35.9588, 39.6403, 39.9083, 41.8411, 42.1979, 43.7949, 42.6440, 45.3121, 42.6222, 46.1554, 42.5241, 46.4221, 42.1597, 46.5322, 41.4562, 46.3761, 40.5326, 45.8402, 38.5181, 45.0924, 36.2040, 43.6631, 32.7587, 41.3715, 28.4736, 37.8901]
y: [3.0000, -3.0000, 1.4703, -2.4342, 1.7154, -1.9323, 1.7270, -1.8135, 1.7770, -1.6840, 1.8575, -1.6340, 1.9058, -1.5777, 1.8237, -1.6844, 1.6882, -1.7289, 1.5324, -1.8370, 1.4060, -2.0252, 1.3329, -3.0469, 0.4617, -5.7312, -0.8243, -7.4576, -2.6312, -9.8456, -4.6250, -11.4708, -7.1025, -13.4860, -9.6071, -15.1819, -11.9525, -16.8798, -14.4087, -18.9989, -16.5198, -20.4709, -19.0953, -21.9738, -21.7455, -23.4818, -24.0830]
colour: [ORANGE, ORANGE, BLUE, YELLOW, BLUE, YELLOW, BLUE, YELLOW, BLUE, YELLOW, BLUE, YELLOW, BLUE, YELLOW, BLUE, YELLOW, BLUE, YELLOW, BLUE, YELLOW, BLUE, YELLOW, BLUE, YELLOW, BLUE, YELLOW, BLUE, YELLOW, BLUE, YELLOW, BLUE, YELLOW, BLUE, YELLOW, BLUE, YELLOW, BLUE, YELLOW, BLUE, YELLOW, BLUE, YELLOW, BLUE, YELLOW, BLUE, YELLOW, BLUE]
---
header:
  seq: 95
  stamp:
    secs: 0
    nsecs:         0
  frame_id: "map"
x: [6.0000, 6.0000, -1.7667, -1.2054, 2.7609, 3.1781, 7.2786, 7.4856, 12.0350, 12.1317, 16.5392, 16.7907, 21.0336, 21.0160, 25.8245, 25.9493, 29.0081, 29.0481, 32.8540, 32.6120, 36.0541, 35.9588, 39.6403, 39.9083, 41.8411, 42.1979, 43.7949, 42.6440, 45.3121, 42.6222, 46.1554, 42.5241, 46.4221, 42.1597, 46.5322, 41.4562, 46.3761, 40.5326, 45.8402, 38.5181, 45.0924, 36.2040, 43.6631, 32.7587, 41.3715, 28.4736, 37.8901, 25.4437]
y: [3.0000, -3.0000, 1.4703, -2.4342, 1.7154, -1.9323, 1.7270, -1.8135, 1.7770, -1.6840, 1.8575, -1.6340, 1.9058, -1.5777, 1.8237, -1.6844, 1.6882, -1.7289, 1.5324, -1.8370, 1.4060, -2.0252, 1.3329, -3.0469, 0.4617, -5.7312, -0.8243, -7.4576, -2.6312, -9.8456, -4.6250, -11.4708, -7.1025, -13.4860, -9.6071, -15.1819, -11.9525, -16.8798, -14.4087, -18.9989, -16.5198, -20.4709, -19.0953, -21.9738, -21.7455, -23.4818, -24.0830, -24.1715]
colour: [ORANGE, ORANGE, BLUE, YELLOW, BLUE, YELLOW, BLUE, YELLOW, BLUE, YELLOW, BLUE, YELLOW, BLUE, YELLOW, BLUE, YELLOW, BLUE, YELLOW, BLUE, YELLOW, BLUE, YELLOW, BLUE, YELLOW, BLUE, YELLOW, BLUE, YELLOW, BLUE, YELLOW, BLUE, YELLOW, BLUE, YELLOW, BLUE, YELLOW, BLUE, YELLOW, BLUE, YELLOW, BLUE, YELLOW, BLUE, YELLOW, BLUE, YELLOW, BLUE, YELLOW]
---
header:
  seq: 96
  stamp:
    secs: 0
    nsecs:         0
  frame_id: "map"
x: [6.0000, 6.0000, -1.7667, -1.2054, 2.7609, 3.1781, 7.2786, 7.4856, 12.0350, 12.1317, 16.5392, 16.7907, 21.0336, 21.0160, 25.8245, 25.9493, 29.0081, 29.0481, 32.8540, 32.6120, 36.0541, 35.9588, 39.6403, 39.9083, 41.8411, 42.1979, 43.7949, 42.6440, 45.3121, 42.6222, 46.1554, 42.5241, 46.4221, 42.1597, 46.5322, 41.4562, 46.3761, 40.5326, 45.8402, 38.5181, 45.0924, 36.2040, 43.6631, 32.7587, 41.3715, 28.4736, 37.8901, 25.4437]
y: [3.0000, -3.0000, 1.4703, -2.4342, 1.7154, -1.9323, 1.7270, -1.8135, 1.7770, -1.6840, 1.8575, -1.6340, 1.9058, -1.5777, 1.8237, -1.6844, 1.6882, -1.7289, 1.5324, -1.8370, 1.4060, -2.0252, 1.3329, -3.0469, 0.4617, -5.7312, -0.8243, -7.4576, -2.6312, -9.8456, -4.6250, -11.4708, -7.1025, -13.4860, -9.6071, -15.1819, -11.9525, -16.8798, -14.4087, -18.9989, -16.5198, -20.4709, -19.0953, -21.9738, -21.7455, -23.4818, -24.0830, -24.1715]
