header:
  seq: 16
  stamp:
    secs: 0
    nsecs:         0
  frame_id: "map"
x: [0.7204, 0.6892, 2.3700, 2.3700, 4.7355, 4.6733, 7.6613, 7.7858]
y: [-1.3218, 1.8650, 1.9350, -1.0416, 2.0751, -1.1117, 2.6004, -1.1117]
colour: [ORANGE, ORANGE, BLUE, YELLOW, BLUE, YELLOW, BLUE, YELLOW]
---
header:
  seq: 17
  stamp:
    secs: 0
    nsecs:         0
  frame_id: "map"
x: [0.7204, 0.6892, 2.3700, 2.3700, 4.7355, 4.6733, 7.6613, 7.7858, 7.7858]
y: [-1.3218, 1.8650, 1.9350, -1.0416, 2.0751, -1.1117, 2.6004, -1.1117, 5.0868]
colour: [ORANGE, ORANGE, BLUE, YELLOW, BLUE, YELLOW, BLUE, YELLOW, BLUE]
---
header:
  seq: 18
  stamp:
    secs: 0
    nsecs:         0
  frame_id: "map"
x: [0.7204, 0.6892, 2.3700, 2.3700, 4.7355, 4.6733, 7.6613, 7.7858, 7.7858]
y: [-1.3218, 1.8650, 1.9350, -1.0416, 2.0751, -1.1117, 2.6004, -1.1117, 5.0868]
colour: [ORANGE, ORANGE, BLUE, YELLOW, BLUE, YELLOW, BLUE, YELLOW, BLUE]
---
header:
  seq: 19
  stamp:
    secs: 0
    nsecs:         0
  frame_id: "map"
x: [0.7204, 0.6892, 2.3700, 2.3700, 4.7355, 4.6733, 7.6613, 7.7858, 7.7858, 10.4004]
y: [-1.3218, 1.8650, 1.9350, -1.0416, 2.0751, -1.1117, 2.6004, -1.1117, 5.0868, -0.3763]
colour: [ORANGE, ORANGE, BLUE, YELLOW, BLUE, YELLOW, BLUE, YELLOW, BLUE, YELLOW]
---
header:
  seq: 20
  stamp:
    secs: 0
    nsecs:         0
  frame_id: "map"
x: [0.7204, 0.6892, 2.3700, 2.3700, 4.7355, 4.6733, 7.6613, 7.7858, 7.7858, 10.4004]
y: [-1.3218, 1.8650, 1.9350, -1.0416, 2.0751, -1.1117, 2.6004, -1.1117, 5.0868, -0.3763]
colour: [ORANGE, ORANGE, BLUE, YELLOW, BLUE, YELLOW, BLUE, YELLOW, BLUE, YELLOW]
---
header:
  seq: 21
  stamp:
    secs: 0
    nsecs:         0
  frame_id: "map"
x: [0.7204, 0.6892, 2.3700, 2.3700, 4.7355, 4.6733, 7.6613, 7.7858, 7.7858, 10.4004, 7.6925]
y: [-1.3218, 1.8650, 1.9350, -1.0416, 2.0751, -1.1117, 2.6004, -1.1117, 5.0868, -0.3763, 9.0790]
colour: [ORANGE, ORANGE, BLUE, YELLOW, BLUE, YELLOW, BLUE, YELLOW, BLUE, YELLOW, BLUE]
---
header:
  seq: 22
  stamp:
    secs: 0
    nsecs:         0
  frame_id: "map"
x: [0.7204, 0.6892, 2.3700, 2.3700, 4.7355, 4.6733, 7.6613, 7.7858, 7.7858, 10.4004, 7.6925]
y: [-1.3218, 1.8650, 1.9350, -1.0416, 2.0751, -1.1117, 2.6004, -1.1117, 5.0868, -0.3763, 9.0790]
colour: [ORANGE, ORANGE, BLUE, YELLOW, BLUE, YELLOW, BLUE, YELLOW, BLUE, YELLOW, BLUE]
---
header:
  seq: 23
  stamp:
    secs: 0
    nsecs:         0
  frame_id: "map"
x: [0.7204, 0.6892, 2.3700, 2.3700, 4.7355, 4.6733, 7.6613, 7.7858, 7.7858, 10.4004, 7.6925, 11.4586]
y: [-1.3218, 1.8650, 1.9350, -1.0416, 2.0751, -1.1117, 2.6004, -1.1117, 5.0868, -0.3763, 9.0790, 0.8494]
colour: [ORANGE, ORANGE, BLUE, YELLOW, BLUE, YELLOW, BLUE, YELLOW, BLUE, YELLOW, BLUE, YELLOW]
---
header:
  seq: 24
  stamp:
    secs: 0
    nsecs:         0
  frame_id: "map"
x: [0.7204, 0.6892, 2.3700, 2.3700, 4.7355, 4.6733, 7.6613, 7.7858, 7.7858, 10.4004, 7.6925, 11.4586]
y: [-1.3218, 1.8650, 1.9350, -1.0416, 2.0751, -1.1117, 2.6004, -1.1117, 5.0868, -0.3763, 9.0790, 0.8494]
colour: [ORANGE, ORANGE, BLUE, YELLOW, BLUE, YELLOW, BLUE, YELLOW, BLUE, YELLOW, BLUE, YELLOW]
---
header:
  seq: 25
  stamp:
    secs: 0
    nsecs:         0
  frame_id: "map"
x: [0.7204, 0.6892, 2.3700, 2.3700, 4.7355, 4.6733, 7.6613, 7.7858, 7.7858, 10.4004, 7.6925, 11.4586, 7.6925]
y: [-1.3218, 1.8650, 1.9350, -1.0416, 2.0751, -1.1117, 2.6004, -1.1117, 5.0868, -0.3763, 9.0790, 0.8494, 10.9700]
colour: [ORANGE, ORANGE, BLUE, YELLOW, BLUE, YELLOW, BLUE, YELLOW, BLUE, YELLOW, BLUE, YELLOW, BLUE]
---
header:
  seq: 26
  stamp:
    secs: 0
    nsecs:         0
  frame_id: "map"
x: [0.7204, 0.6892, 2.3700, 2.3700, 4.7355, 4.6733, 7.6613, 7.7858, 7.7858, 10.4004, 7.6925, 11.4586, 7.6925]
y: [-1.3218, 1.8650, 1.9350, -1.0416, 2.0751, -1.1117, 2.6004, -1.1117, 5.0868, -0.3763, 9.0790, 0.8494, 10.9700]
colour: [ORANGE, ORANGE, BLUE, YELLOW, BLUE, YELLOW, BLUE, YELLOW, BLUE, YELLOW, BLUE, YELLOW, BLUE]
---
header:
  seq: 27
  stamp:
    secs: 0
    nsecs:         0
  frame_id: "map"
x: [0.7204, 0.6892, 2.3700, 2.3700, 4.7355, 4.6733, 7.6613, 7.7858, 7.7858, 10.4004, 7.6925, 11.4586, 7.6925, 11.5831]
y: [-1.3218, 1.8650, 1.9350, -1.0416, 2.0751, -1.1117, 2.6004, -1.1117, 5.0868, -0.3763, 9.0790, 0.8494, 10.9700, 3.5109]
colour: [ORANGE, ORANGE, BLUE, YELLOW, BLUE, YELLOW, BLUE, YELLOW, BLUE, YELLOW, BLUE, YELLOW, BLUE, YELLOW]
---
header:
  seq: 28
  stamp:
    secs: 0
    nsecs:         0
  frame_id: "map"
x: [0.7204, 0.6892, 2.3700, 2.3700, 4.7355, 4.6733, 7.6613, 7.7858, 7.7858, 10.4004, 7.6925, 11.4586, 7.6925, 11.5831]
y: [-1.3218, 1.8650, 1.9350, -1.0416, 2.0751, -1.1117, 2.6004, -1.1117, 5.0868, -0.3763, 9.0790, 0.8494, 10.9700, 3.5109]
colour: [ORANGE, ORANGE, BLUE, YELLOW, BLUE, YELLOW, BLUE, YELLOW, BLUE, YELLOW, BLUE, YELLOW, BLUE, YELLOW]
---
header:
  seq: 29
  stamp:
    secs: 0
    nsecs:         0
  frame_id: "map"
x: [0.7204, 0.6892, 2.3700, 2.3700, 4.7355, 4.6733, 7.6613, 7.7858, 7.7858, 10.4004, 7.6925, 11.4586, 7.6925, 11.5831, 6.3541]
y: [-1.3218, 1.8650, 1.9350, -1.0416, 2.0751, -1.1117, 2.6004, -1.1117, 5.0868, -0.3763, 9.0790, 0.8494, 10.9700, 3.5109, 11.3553]
colour: [ORANGE, ORANGE, BLUE, YELLOW, BLUE, YELLOW, BLUE, YELLOW, BLUE, YELLOW, BLUE, YELLOW, BLUE, YELLOW, BLUE]
---
header:
  seq: 30
  stamp:
    secs: 0
    nsecs:         0
  frame_id: "map"
x: [0.7204, 0.6892, 2.3700, 2.3700, 4.7355, 4.6733, 7.6613, 7.7858, 7.7858, 10.4004, 7.6925, 11.4586, 7.6925, 11.5831, 6.3541]
y: [-1.3218, 1.8650, 1.9350, -1.0416, 2.0751, -1.1117, 2.6004, -1.1117, 5.0868, -0.3763, 9.0790, 0.8494, 10.9700, 3.5109, 11.3553]
colour: [ORANGE, ORANGE, BLUE, YELLOW, BLUE, YELLOW, BLUE, YELLOW, BLUE, YELLOW, BLUE, YELLOW, BLUE, YELLOW, BLUE]
---
header:
  seq: 31
  stamp:
    secs: 0
    nsecs:         0
  frame_id: "map"
x: [0.7204, 0.6892, 2.3700, 2.3700, 4.7355, 4.6733, 7.6613, 7.7858, 7.7858, 10.4004, 7.6925, 11.4586, 7.6925, 11.5831, 6.3541, 11.6143]
y: [-1.3218, 1.8650, 1.9350, -1.0416, 2.0751, -1.1117, 2.6004, -1.1117, 5.0868, -0.3763, 9.0790, 0.8494, 10.9700, 3.5109, 11.3553, 5.3319]
colour: [ORANGE, ORANGE, BLUE, YELLOW, BLUE, YELLOW, BLUE, YELLOW, BLUE, YELLOW, BLUE, YELLOW, BLUE, YELLOW, BLUE, YELLOW]
---
header:
  seq: 32
  stamp:
    secs: 0
    nsecs:         0
  frame_id: "map"
x: [0.7204, 0.6892, 2.3700, 2.3700, 4.7355, 4.6733, 7.6613, 7.7858, 7.7858, 10.4004, 7.6925, 11.4586, 7.6925, 11.5831, 6.3541, 11.6143]
y: [-1.3218, 1.8650, 1.9350, -1.0416, 2.0751, -1.1117, 2.6004, -1.1117, 5.0868, -0.3763, 9.0790, 0.8494, 10.9700, 3.5109, 11.3553, 5.3319]
colour: [ORANGE, ORANGE, BLUE, YELLOW, BLUE, YELLOW, BLUE, YELLOW, BLUE, YELLOW, BLUE, YELLOW, BLUE, YELLOW, BLUE, YELLOW]
---
header:
  seq: 33
  stamp:
    secs: 0
    nsecs:         0
  frame_id: "map"
x: [0.7204, 0.6892, 2.3700, 2.3700, 4.7355, 4.6733, 7.6613, 7.7858, 7.7858, 10.4004, 7.6925, 11.4586, 7.6925, 11.5831, 6.3541, 11.6143, 3.1793]
y: [-1.3218, 1.8650, 1.9350, -1.0416, 2.0751, -1.1117, 2.6004, -1.1117, 5.0868, -0.3763, 9.0790, 0.8494, 10.9700, 3.5109, 11.3553, 5.3319, 11.4953]
colour: [ORANGE, ORANGE, BLUE, YELLOW, BLUE, YELLOW, BLUE, YELLOW, BLUE, YELLOW, BLUE, YELLOW, BLUE, YELLOW, BLUE, YELLOW, BLUE]
---
header:
  seq: 34
  stamp:
    secs: 0
    nsecs:         0
  frame_id: "map"
x: [0.7204, 0.6892, 2.3700, 2.3700, 4.7355, 4.6733, 7.6613, 7.7858, 7.7858, 10.4004, 7.6925, 11.4586, 7.6925, 11.5831, 6.3541, 11.6143, 3.1793]
y: [-1.3218, 1.8650, 1.9350, -1.0416, 2.0751, -1.1117, 2.6004, -1.1117, 5.0868, -0.3763, 9.0790, 0.8494, 10.9700, 3.5109, 11.3553, 5.3319, 11.4953]
colour: [ORANGE, ORANGE, BLUE, YELLOW, BLUE, YELLOW, BLUE, YELLOW, BLUE, YELLOW, BLUE, YELLOW, BLUE, YELLOW, BLUE, YELLOW, BLUE]
---
header:
  seq: 35
  stamp:
    secs: 0
    nsecs:         0
  frame_id: "map"
x: [0.7204, 0.6892, 2.3700, 2.3700, 4.7355, 4.6733, 7.6613, 7.7858, 7.7858, 10.4004, 7.6925, 11.4586, 7.6925, 11.5831, 6.3541, 11.6143, 3.1793, 11.7388]
y: [-1.3218, 1.8650, 1.9350, -1.0416, 2.0751, -1.1117, 2.6004, -1.1117, 5.0868, -0.3763, 9.0790, 0.8494, 10.9700, 3.5109, 11.3553, 5.3319, 11.4953, 8.9739]
colour: [ORANGE, ORANGE, BLUE, YELLOW, BLUE, YELLOW, BLUE, YELLOW, BLUE, YELLOW, BLUE, YELLOW, BLUE, YELLOW, BLUE, YELLOW, BLUE, YELLOW]
---
header:
  seq: 36
  stamp:
    secs: 0
    nsecs:         0
  frame_id: "map"
x: [0.7204, 0.6892, 2.3700, 2.3700, 4.7355, 4.6733, 7.6613, 7.7858, 7.7858, 10.4004, 7.6925, 11.4586, 7.6925, 11.5831, 6.3541, 11.6143, 3.1793, 11.7388]
y: [-1.3218, 1.8650, 1.9350, -1.0416, 2.0751, -1.1117, 2.6004, -1.1117, 5.0868, -0.3763, 9.0790, 0.8494, 10.9700, 3.5109, 11.3553, 5.3319, 11.4953, 8.9739]
colour: [ORANGE, ORANGE, BLUE, YELLOW, BLUE, YELLOW, BLUE, YELLOW, BLUE, YELLOW, BLUE, YELLOW, BLUE, YELLOW, BLUE, YELLOW, BLUE, YELLOW]
---
header:
  seq: 37
  stamp:
    secs: 0
    nsecs:         0
  frame_id: "map"
x: [0.7204, 0.6892, 2.3700, 2.3700, 4.7355, 4.6733, 7.6613, 7.7858, 7.7858, 10.4004, 7.6925, 11.4586, 7.6925, 11.5831, 6.3541, 11.6143, 3.1793, 11.7388, 0.3469]
y: [-1.3218, 1.8650, 1.9350, -1.0416, 2.0751, -1.1117, 2.6004, -1.1117, 5.0868, -0.3763, 9.0790, 0.8494, 10.9700, 3.5109, 11.3553, 5.3319, 11.4953, 8.9739, 11.3903]
colour: [ORANGE, ORANGE, BLUE, YELLOW, BLUE, YELLOW, BLUE, YELLOW, BLUE, YELLOW, BLUE, YELLOW, BLUE, YELLOW, BLUE, YELLOW, BLUE, YELLOW, BLUE]
---
header:
  seq: 38
  stamp:
    secs: 0
    nsecs:         0
  frame_id: "map"
x: [0.7204, 0.6892, 2.3700, 2.3700, 4.7355, 4.6733, 7.6613, 7.7858, 7.7858, 10.4004, 7.6925, 11.4586, 7.6925, 11.5831, 6.3541, 11.6143, 3.1793, 11.7388, 0.3469]
y: [-1.3218, 1.8650, 1.9350, -1.0416, 2.0751, -1.1117, 2.6004, -1.1117, 5.0868, -0.3763, 9.0790, 0.8494, 10.9700, 3.5109, 11.3553, 5.3319, 11.4953, 8.9739, 11.3903]
colour: [ORANGE, ORANGE, BLUE, YELLOW, BLUE, YELLOW, BLUE, YELLOW, BLUE, YELLOW, BLUE, YELLOW, BLUE, YELLOW, BLUE, YELLOW, BLUE, YELLOW, BLUE]
---
header:
  seq: 39
  stamp:
    secs: 0
    nsecs:         0
  frame_id: "map"
x: [0.7204, 0.6892, 2.3700, 2.3700, 4.7355, 4.6733, 7.6613, 7.7858, 7.7858, 10.4004, 7.6925, 11.4586, 7.6925, 11.5831, 6.3541, 11.6143, 3.1793, 11.7388, 0.3469, 11.7388]
y: [-1.3218, 1.8650, 1.9350, -1.0416, 2.0751, -1.1117, 2.6004, -1.1117, 5.0868, -0.3763, 9.0790, 0.8494, 10.9700, 3.5109, 11.3553, 5.3319, 11.4953, 8.9739, 11.3903, 10.8300]
colour: [ORANGE, ORANGE, BLUE, YELLOW, BLUE, YELLOW, BLUE, YELLOW, BLUE, YELLOW, BLUE, YELLOW, BLUE, YELLOW, BLUE, YELLOW, BLUE, YELLOW, BLUE, YELLOW]
---
header:
  seq: 40
  stamp:
    secs: 0
    nsecs:         0
  frame_id: "map"
x: [0.7204, 0.6892, 2.3700, 2.3700, 4.7355, 4.6733, 7.6613, 7.7858, 7.7858, 10.4004, 7.6925, 11.4586, 7.6925, 11.5831, 6.3541, 11.6143, 3.1793, 11.7388, 0.3469, 11.7388]
y: [-1.3218, 1.8650, 1.9350, -1.0416, 2.0751, -1.1117, 2.6004, -1.1117, 5.0868, -0.3763, 9.0790, 0.8494, 10.9700, 3.5109, 11.3553, 5.3319, 11.4953, 8.9739, 11.3903, 10.8300]
colour: [ORANGE, ORANGE, BLUE, YELLOW, BLUE, YELLOW, BLUE, YELLOW, BLUE, YELLOW, BLUE, YELLOW, BLUE, YELLOW, BLUE, YELLOW, BLUE, YELLOW, BLUE, YELLOW]
---
header:
  seq: 41
  stamp:
    secs: 0
    nsecs:         0
  frame_id: "map"
x: [0.7204, 0.6892, 2.3700, 2.3700, 4.7355, 4.6733, 7.6613, 7.7858, 7.7858, 10.4004, 7.6925, 11.4586, 7.6925, 11.5831, 6.3541, 11.6143, 3.1793, 11.7388, 0.3469, 11.7388, -1.7385]
y: [-1.3218, 1.8650, 1.9350, -1.0416, 2.0751, -1.1117, 2.6004, -1.1117, 5.0868, -0.3763, 9.0790, 0.8494, 10.9700, 3.5109, 11.3553, 5.3319, 11.4953, 8.9739, 11.3903, 10.8300, 11.4953]
colour: [ORANGE, ORANGE, BLUE, YELLOW, BLUE, YELLOW, BLUE, YELLOW, BLUE, YELLOW, BLUE, YELLOW, BLUE, YELLOW, BLUE, YELLOW, BLUE, YELLOW, BLUE, YELLOW, BLUE]
---
header:
  seq: 42
  stamp:
    secs: 0
    nsecs:         0
  frame_id: "map"
x: [0.7204, 0.6892, 2.3700, 2.3700, 4.7355, 4.6733, 7.6613, 7.7858, 7.7858, 10.4004, 7.6925, 11.4586, 7.6925, 11.5831, 6.3541, 11.6143, 3.1793, 11.7388, 0.3469, 11.7388, -1.7385]
y: [-1.3218, 1.8650, 1.9350, -1.0416, 2.0751, -1.1117, 2.6004, -1.1117, 5.0868, -0.3763, 9.0790, 0.8494, 10.9700, 3.5109, 11.3553, 5.3319, 11.4953, 8.9739, 11.3903, 10.8300, 11.4953]
colour: [ORANGE, ORANGE, BLUE, YELLOW, BLUE, YELLOW, BLUE, YELLOW, BLUE, YELLOW, BLUE, YELLOW, BLUE, YELLOW, BLUE, YELLOW, BLUE, YELLOW, BLUE, YELLOW, BLUE]
---
header:
  seq: 43
  stamp:
    secs: 0
    nsecs:         0
  frame_id: "map"
x: [0.7204, 0.6892, 2.3700, 2.3700, 4.7355, 4.6733, 7.6613, 7.7858, 7.7858, 10.4004, 7.6925, 11.4586, 7.6925, 11.5831, 6.3541, 11.6143, 3.1793, 11.7388, 0.3469, 11.7388, -1.7385, 11.2096]
y: [-1.3218, 1.8650, 1.9350, -1.0416, 2.0751, -1.1117, 2.6004, -1.1117, 5.0868, -0.3763, 9.0790, 0.8494, 10.9700, 3.5109, 11.3553, 5.3319, 11.4953, 8.9739, 11.3903, 10.8300, 11.4953, 14.5770]
colour: [ORANGE, ORANGE, BLUE, YELLOW, BLUE, YELLOW, BLUE, YELLOW, BLUE, YELLOW, BLUE, YELLOW, BLUE, YELLOW, BLUE, YELLOW, BLUE, YELLOW, BLUE, YELLOW, BLUE, YELLOW]
---
header:
  seq: 44
  stamp:
    secs: 0
    nsecs:         0
  frame_id: "map"
x: [0.7204, 0.6892, 2.3700, 2.3700, 4.7355, 4.6733, 7.6613, 7.7858, 7.7858, 10.4004, 7.6925, 11.4586, 7.6925, 11.5831, 6.3541, 11.6143, 3.1793, 11.7388, 0.3469, 11.7388, -1.7385, 11.2096]
y: [-1.3218, 1.8650, 1.9350, -1.0416, 2.0751, -1.1117, 2.6004, -1.1117, 5.0868, -0.3763, 9.0790, 0.8494, 10.9700, 3.5109, 11.3553, 5.3319, 11.4953, 8.9739, 11.3903, 10.8300, 11.4953, 14.5770]
colour: [ORANGE, ORANGE, BLUE, YELLOW, BLUE, YELLOW, BLUE, YELLOW, BLUE, YELLOW, BLUE, YELLOW, BLUE, YELLOW, BLUE, YELLOW, BLUE, YELLOW, BLUE, YELLOW, BLUE, YELLOW]
---
header:
  seq: 45
  stamp:
    secs: 0
    nsecs:         0
  frame_id: "map"
x: [0.7204, 0.6892, 2.3700, 2.3700, 4.7355, 4.6733, 7.6613, 7.7858, 7.7858, 10.4004, 7.6925, 11.4586, 7.6925, 11.5831, 6.3541, 11.6143, 3.1793, 11.7388, 0.3469, 11.7388, -1.7385, 11.2096, -2.6101]
y: [-1.3218, 1.8650, 1.9350, -1.0416, 2.0751, -1.1117, 2.6004, -1.1117, 5.0868, -0.3763, 9.0790, 0.8494, 10.9700, 3.5109, 11.3553, 5.3319, 11.4953, 8.9739, 11.3903, 10.8300, 11.4953, 14.5770, 9.9195]
colour: [ORANGE, ORANGE, BLUE, YELLOW, BLUE, YELLOW, BLUE, YELLOW, BLUE, YELLOW, BLUE, YELLOW, BLUE, YELLOW, BLUE, YELLOW, BLUE, YELLOW, BLUE, YELLOW, BLUE, YELLOW, BLUE]
---
header:
  seq: 46
  stamp:
    secs: 0
    nsecs:         0
  frame_id: "map"
x: [0.7204, 0.6892, 2.3700, 2.3700, 4.7355, 4.6733, 7.6613, 7.7858, 7.7858, 10.4004, 7.6925, 11.4586, 7.6925, 11.5831, 6.3541, 11.6143, 3.1793, 11.7388, 0.3469, 11.7388, -1.7385, 11.2096, -2.6101]
y: [-1.3218, 1.8650, 1.9350, -1.0416, 2.0751, -1.1117, 2.6004, -1.1117, 5.0868, -0.3763, 9.0790, 0.8494, 10.9700, 3.5109, 11.3553, 5.3319, 11.4953, 8.9739, 11.3903, 10.8300, 11.4953, 14.5770, 9.9195]
colour: [ORANGE, ORANGE, BLUE, YELLOW, BLUE, YELLOW, BLUE, YELLOW, BLUE, YELLOW, BLUE, YELLOW, BLUE, YELLOW, BLUE, YELLOW, BLUE, YELLOW, BLUE, YELLOW, BLUE, YELLOW, BLUE]
---
header:
  seq: 47
  stamp:
    secs: 0
    nsecs:         0
  frame_id: "map"
x: [0.7204, 0.6892, 2.3700, 2.3700, 4.7355, 4.6733, 7.6613, 7.7858, 7.7858, 10.4004, 7.6925, 11.4586, 7.6925, 11.5831, 6.3541, 11.6143, 3.1793, 11.7388, 0.3469, 11.7388, -1.7385, 11.2096, -2.6101, 8.8752]
y: [-1.3218, 1.8650, 1.9350, -1.0416, 2.0751, -1.1117, 2.6004, -1.1117, 5.0868, -0.3763, 9.0790, 0.8494, 10.9700, 3.5109, 11.3553, 5.3319, 11.4953, 8.9739, 11.3903, 10.8300, 11.4953, 14.5770, 9.9195, 15.1724]
colour: [ORANGE, ORANGE, BLUE, YELLOW, BLUE, YELLOW, BLUE, YELLOW, BLUE, YELLOW, BLUE, YELLOW, BLUE, YELLOW, BLUE, YELLOW, BLUE, YELLOW, BLUE, YELLOW, BLUE, YELLOW, BLUE, YELLOW]
---
header:
  seq: 48
  stamp:
    secs: 0
    nsecs:         0
  frame_id: "map"
x: [0.7204, 0.6892, 2.3700, 2.3700, 4.7355, 4.6733, 7.6613, 7.7858, 7.7858, 10.4004, 7.6925, 11.4586, 7.6925, 11.5831, 6.3541, 11.6143, 3.1793, 11.7388, 0.3469, 11.7388, -1.7385, 11.2096, -2.6101, 8.8752]
y: [-1.3218, 1.8650, 1.9350, -1.0416, 2.0751, -1.1117, 2.6004, -1.1117, 5.0868, -0.3763, 9.0790, 0.8494, 10.9700, 3.5109, 11.3553, 5.3319, 11.4953, 8.9739, 11.3903, 10.8300, 11.4953, 14.5770, 9.9195, 15.1724]
colour: [ORANGE, ORANGE, BLUE, YELLOW, BLUE, YELLOW, BLUE, YELLOW, BLUE, YELLOW, BLUE, YELLOW, BLUE, YELLOW, BLUE, YELLOW, BLUE, YELLOW, BLUE, YELLOW, BLUE, YELLOW, BLUE, YELLOW]
---
header:
  seq: 49
  stamp:
    secs: 0
    nsecs:         0
  frame_id: "map"
x: [0.7204, 0.6892, 2.3700, 2.3700, 4.7355, 4.6733, 7.6613, 7.7858, 7.7858, 10.4004, 7.6925, 11.4586, 7.6925, 11.5831, 6.3541, 11.6143, 3.1793, 11.7388, 0.3469, 11.7388, -1.7385, 11.2096, -2.6101, 8.8752, -2.7657]
y: [-1.3218, 1.8650, 1.9350, -1.0416, 2.0751, -1.1117, 2.6004, -1.1117, 5.0868, -0.3763, 9.0790, 0.8494, 10.9700, 3.5109, 11.3553, 5.3319, 11.4953, 8.9739, 11.3903, 10.8300, 11.4953, 14.5770, 9.9195, 15.1724, 6.8027]
colour: [ORANGE, ORANGE, BLUE, YELLOW, BLUE, YELLOW, BLUE, YELLOW, BLUE, YELLOW, BLUE, YELLOW, BLUE, YELLOW, BLUE, YELLOW, BLUE, YELLOW, BLUE, YELLOW, BLUE, YELLOW, BLUE, YELLOW, BLUE]
---
header:
  seq: 50
  stamp:
    secs: 0
    nsecs:         0
  frame_id: "map"
x: [0.7204, 0.6892, 2.3700, 2.3700, 4.7355, 4.6733, 7.6613, 7.7858, 7.7858, 10.4004, 7.6925, 11.4586, 7.6925, 11.5831, 6.3541, 11.6143, 3.1793, 11.7388, 0.3469, 11.7388, -1.7385, 11.2096, -2.6101, 8.8752, -2.7657]
y: [-1.3218, 1.8650, 1.9350, -1.0416, 2.0751, -1.1117, 2.6004, -1.1117, 5.0868, -0.3763, 9.0790, 0.8494, 10.9700, 3.5109, 11.3553, 5.3319, 11.4953, 8.9739, 11.3903, 10.8300, 11.4953, 14.5770, 9.9195, 15.1724, 6.8027]
colour: [ORANGE, ORANGE, BLUE, YELLOW, BLUE, YELLOW, BLUE, YELLOW, BLUE, YELLOW, BLUE, YELLOW, BLUE, YELLOW, BLUE, YELLOW, BLUE, YELLOW, BLUE, YELLOW, BLUE, YELLOW, BLUE, YELLOW, BLUE]
---
header:
  seq: 51
  stamp:
    secs: 0
    nsecs:         0
  frame_id: "map"
x: [0.7204, 0.6892, 2.3700, 2.3700, 4.7355, 4.6733, 7.6613, 7.7858, 7.7858, 10.4004, 7.6925, 11.4586, 7.6925, 11.5831, 6.3541, 11.6143, 3.1793, 11.7388, 0.3469, 11.7388, -1.7385, 11.2096, -2.6101, 8.8752, -2.7657, 6.2607]
y: [-1.3218, 1.8650, 1.9350, -1.0416, 2.0751, -1.1117, 2.6004, -1.1117, 5.0868, -0.3763, 9.0790, 0.8494, 10.9700, 3.5109, 11.3553, 5.3319, 11.4953, 8.9739, 11.3903, 10.8300, 11.4953, 14.5770, 9.9195, 15.1724, 6.8027, 15.2424]
colour: [ORANGE, ORANGE, BLUE, YELLOW, BLUE, YELLOW, BLUE, YELLOW, BLUE, YELLOW, BLUE, YELLOW, BLUE, YELLOW, BLUE, YELLOW, BLUE, YELLOW, BLUE, YELLOW, BLUE, YELLOW, BLUE, YELLOW, BLUE, YELLOW]
---
header:
  seq: 52
  stamp:
    secs: 0
    nsecs:         0
  frame_id: "map"
x: [0.7204, 0.6892, 2.3700, 2.3700, 4.7355, 4.6733, 7.6613, 7.7858, 7.7858, 10.4004, 7.6925, 11.4586, 7.6925, 11.5831, 6.3541, 11.6143, 3.1793, 11.7388, 0.3469, 11.7388, -1.7385, 11.2096, -2.6101, 8.8752, -2.7657, 6.2607]
y: [-1.3218, 1.8650, 1.9350, -1.0416, 2.0751, -1.1117, 2.6004, -1.1117, 5.0868, -0.3763, 9.0790, 0.8494, 10.9700, 3.5109, 11.3553, 5.3319, 11.4953, 8.9739, 11.3903, 10.8300, 11.4953, 14.5770, 9.9195, 15.1724, 6.8027, 15.2424]
colour: [ORANGE, ORANGE, BLUE, YELLOW, BLUE, YELLOW, BLUE, YELLOW, BLUE, YELLOW, BLUE, YELLOW, BLUE, YELLOW, BLUE, YELLOW, BLUE, YELLOW, BLUE, YELLOW, BLUE, YELLOW, BLUE, YELLOW, BLUE, YELLOW]
---
header:
  seq: 53
  stamp:
    secs: 0
    nsecs:         0
  frame_id: "map"
x: [0.7204, 0.6892, 2.3700, 2.3700, 4.7355, 4.6733, 7.6613, 7.7858, 7.7858, 10.4004, 7.6925, 11.4586, 7.6925, 11.5831, 6.3541, 11.6143, 3.1793, 11.7388, 0.3469, 11.7388, -1.7385, 11.2096, -2.6101, 8.8752, -2.7657, 6.2607, -2.7657]
y: [-1.3218, 1.8650, 1.9350, -1.0416, 2.0751, -1.1117, 2.6004, -1.1117, 5.0868, -0.3763, 9.0790, 0.8494, 10.9700, 3.5109, 11.3553, 5.3319, 11.4953, 8.9739, 11.3903, 10.8300, 11.4953, 14.5770, 9.9195, 15.1724, 6.8027, 15.2424, 3.9311]
colour: [ORANGE, ORANGE, BLUE, YELLOW, BLUE, YELLOW, BLUE, YELLOW, BLUE, YELLOW, BLUE, YELLOW, BLUE, YELLOW, BLUE, YELLOW, BLUE, YELLOW, BLUE, YELLOW, BLUE, YELLOW, BLUE, YELLOW, BLUE, YELLOW, BLUE]
---
header:
  seq: 54
  stamp:
    secs: 0
    nsecs:         0
  frame_id: "map"
x: [0.7204, 0.6892, 2.3700, 2.3700, 4.7355, 4.6733, 7.6613, 7.7858, 7.7858, 10.4004, 7.6925, 11.4586, 7.6925, 11.5831, 6.3541, 11.6143, 3.1793, 11.7388, 0.3469, 11.7388, -1.7385, 11.2096, -2.6101, 8.8752, -2.7657, 6.2607, -2.7657]
y: [-1.3218, 1.8650, 1.9350, -1.0416, 2.0751, -1.1117, 2.6004, -1.1117, 5.0868, -0.3763, 9.0790, 0.8494, 10.9700, 3.5109, 11.3553, 5.3319, 11.4953, 8.9739, 11.3903, 10.8300, 11.4953, 14.5770, 9.9195, 15.1724, 6.8027, 15.2424, 3.9311]
colour: [ORANGE, ORANGE, BLUE, YELLOW, BLUE, YELLOW, BLUE, YELLOW, BLUE, YELLOW, BLUE, YELLOW, BLUE, YELLOW, BLUE, YELLOW, BLUE, YELLOW, BLUE, YELLOW, BLUE, YELLOW, BLUE, YELLOW, BLUE, YELLOW, BLUE]
---
header:
  seq: 55
  stamp:
    secs: 0
    nsecs:         0
  frame_id: "map"
x: [0.7204, 0.6892, 2.3700, 2.3700, 4.7355, 4.6733, 7.6613, 7.7858, 7.7858, 10.4004, 7.6925, 11.4586, 7.6925, 11.5831, 6.3541, 11.6143, 3.1793, 11.7388, 0.3469, 11.7388, -1.7385, 11.2096, -2.6101, 8.8752, -2.7657, 6.2607, -2.7657, 3.2726]
y: [-1.3218, 1.8650, 1.9350, -1.0416, 2.0751, -1.1117, 2.6004, -1.1117, 5.0868, -0.3763, 9.0790, 0.8494, 10.9700, 3.5109, 11.3553, 5.3319, 11.4953, 8.9739, 11.3903, 10.8300, 11.4953, 14.5770, 9.9195, 15.1724, 6.8027, 15.2424, 3.9311, 15.1023]
colour: [ORANGE, ORANGE, BLUE, YELLOW, BLUE, YELLOW, BLUE, YELLOW, BLUE, YELLOW, BLUE, YELLOW, BLUE, YELLOW, BLUE, YELLOW, BLUE, YELLOW, BLUE, YELLOW, BLUE, YELLOW, BLUE, YELLOW, BLUE, YELLOW, BLUE, YELLOW]
---
header:
  seq: 56
  stamp:
    secs: 0
    nsecs:         0
  frame_id: "map"
x: [0.7204, 0.6892, 2.3700, 2.3700, 4.7355, 4.6733, 7.6613, 7.7858, 7.7858, 10.4004, 7.6925, 11.4586, 7.6925, 11.5831, 6.3541, 11.6143, 3.1793, 11.7388, 0.3469, 11.7388, -1.7385, 11.2096, -2.6101, 8.8752, -2.7657, 6.2607, -2.7657, 3.2726]
y: [-1.3218, 1.8650, 1.9350, -1.0416, 2.0751, -1.1117, 2.6004, -1.1117, 5.0868, -0.3763, 9.0790, 0.8494, 10.9700, 3.5109, 11.3553, 5.3319, 11.4953, 8.9739, 11.3903, 10.8300, 11.4953, 14.5770, 9.9195, 15.1724, 6.8027, 15.2424, 3.9311, 15.1023]
colour: [ORANGE, ORANGE, BLUE, YELLOW, BLUE, YELLOW, BLUE, YELLOW, BLUE, YELLOW, BLUE, YELLOW, BLUE, YELLOW, BLUE, YELLOW, BLUE, YELLOW, BLUE, YELLOW, BLUE, YELLOW, BLUE, YELLOW, BLUE, YELLOW, BLUE, YELLOW]
---
header:
  seq: 57
  stamp:
    secs: 0
    nsecs:         0
  frame_id: "map"
x: [0.7204, 0.6892, 2.3700, 2.3700, 4.7355, 4.6733, 7.6613, 7.7858, 7.7858, 10.4004, 7.6925, 11.4586, 7.6925, 11.5831, 6.3541, 11.6143, 3.1793, 11.7388, 0.3469, 11.7388, -1.7385, 11.2096, -2.6101, 8.8752, -2.7657, 6.2607, -2.7657, 3.2726, -2.7657]
y: [-1.3218, 1.8650, 1.9350, -1.0416, 2.0751, -1.1117, 2.6004, -1.1117, 5.0868, -0.3763, 9.0790, 0.8494, 10.9700, 3.5109, 11.3553, 5.3319, 11.4953, 8.9739, 11.3903, 10.8300, 11.4953, 14.5770, 9.9195, 15.1724, 6.8027, 15.2424, 3.9311, 15.1023, 1.7599]
colour: [ORANGE, ORANGE, BLUE, YELLOW, BLUE, YELLOW, BLUE, YELLOW, BLUE, YELLOW, BLUE, YELLOW, BLUE, YELLOW, BLUE, YELLOW, BLUE, YELLOW, BLUE, YELLOW, BLUE, YELLOW, BLUE, YELLOW, BLUE, YELLOW, BLUE, YELLOW, BLUE]
---
header:
  seq: 58
  stamp:
    secs: 0
    nsecs:         0
  frame_id: "map"
x: [0.7204, 0.6892, 2.3700, 2.3700, 4.7355, 4.6733, 7.6613, 7.7858, 7.7858, 10.4004, 7.6925, 11.4586, 7.6925, 11.5831, 6.3541, 11.6143, 3.1793, 11.7388, 0.3469, 11.7388, -1.7385, 11.2096, -2.6101, 8.8752, -2.7657, 6.2607, -2.7657, 3.2726, -2.7657]
y: [-1.3218, 1.8650, 1.9350, -1.0416, 2.0751, -1.1117, 2.6004, -1.1117, 5.0868, -0.3763, 9.0790, 0.8494, 10.9700, 3.5109, 11.3553, 5.3319, 11.4953, 8.9739, 11.3903, 10.8300, 11.4953, 14.5770, 9.9195, 15.1724, 6.8027, 15.2424, 3.9311, 15.1023, 1.7599]
colour: [ORANGE, ORANGE, BLUE, YELLOW, BLUE, YELLOW, BLUE, YELLOW, BLUE, YELLOW, BLUE, YELLOW, BLUE, YELLOW, BLUE, YELLOW, BLUE, YELLOW, BLUE, YELLOW, BLUE, YELLOW, BLUE, YELLOW, BLUE, YELLOW, BLUE, YELLOW, BLUE]
---
header:
  seq: 59
  stamp:
    secs: 0
    nsecs:         0
  frame_id: "map"
x: [0.7204, 0.6892, 2.3700, 2.3700, 4.7355, 4.6733, 7.6613, 7.7858, 7.7858, 10.4004, 7.6925, 11.4586, 7.6925, 11.5831, 6.3541, 11.6143, 3.1793, 11.7388, 0.3469, 11.7388, -1.7385, 11.2096, -2.6101, 8.8752, -2.7657, 6.2607, -2.7657, 3.2726, -2.7657, 0.4714]
y: [-1.3218, 1.8650, 1.9350, -1.0416, 2.0751, -1.1117, 2.6004, -1.1117, 5.0868, -0.3763, 9.0790, 0.8494, 10.9700, 3.5109, 11.3553, 5.3319, 11.4953, 8.9739, 11.3903, 10.8300, 11.4953, 14.5770, 9.9195, 15.1724, 6.8027, 15.2424, 3.9311, 15.1023, 1.7599, 15.1023]
colour: [ORANGE, ORANGE, BLUE, YELLOW, BLUE, YELLOW, BLUE, YELLOW, BLUE, YELLOW, BLUE, YELLOW, BLUE, YELLOW, BLUE, YELLOW, BLUE, YELLOW, BLUE, YELLOW, BLUE, YELLOW, BLUE, YELLOW, BLUE, YELLOW, BLUE, YELLOW, BLUE, YELLOW]
---
header:
  seq: 60
  stamp:
    secs: 0
    nsecs:         0
  frame_id: "map"
x: [0.7204, 0.6892, 2.3700, 2.3700, 4.7355, 4.6733, 7.6613, 7.7858, 7.7858, 10.4004, 7.6925, 11.4586, 7.6925, 11.5831, 6.3541, 11.6143, 3.1793, 11.7388, 0.3469, 11.7388, -1.7385, 11.2096, -2.6101, 8.8752, -2.7657, 6.2607, -2.7657, 3.2726, -2.7657, 0.4714]
y: [-1.3218, 1.8650, 1.9350, -1.0416, 2.0751, -1.1117, 2.6004, -1.1117, 5.0868, -0.3763, 9.0790, 0.8494, 10.9700, 3.5109, 11.3553, 5.3319, 11.4953, 8.9739, 11.3903, 10.8300, 11.4953, 14.5770, 9.9195, 15.1724, 6.8027, 15.2424, 3.9311, 15.1023, 1.7599, 15.1023]
colour: [ORANGE, ORANGE, BLUE, YELLOW, BLUE, YELLOW, BLUE, YELLOW, BLUE, YELLOW, BLUE, YELLOW, BLUE, YELLOW, BLUE, YELLOW, BLUE, YELLOW, BLUE, YELLOW, BLUE, YELLOW, BLUE, YELLOW, BLUE, YELLOW, BLUE, YELLOW, BLUE, YELLOW]
---
header:
  seq: 61
  stamp:
    secs: 0
    nsecs:         0
  frame_id: "map"
x: [0.7204, 0.6892, 2.3700, 2.3700, 4.7355, 4.6733, 7.6613, 7.7858, 7.7858, 10.4004, 7.6925, 11.4586, 7.6925, 11.5831, 6.3541, 11.6143, 3.1793, 11.7388, 0.3469, 11.7388, -1.7385, 11.2096, -2.6101, 8.8752, -2.7657, 6.2607, -2.7657, 3.2726, -2.7657, 0.4714, -0.6803]
y: [-1.3218, 1.8650, 1.9350, -1.0416, 2.0751, -1.1117, 2.6004, -1.1117, 5.0868, -0.3763, 9.0790, 0.8494, 10.9700, 3.5109, 11.3553, 5.3319, 11.4953, 8.9739, 11.3903, 10.8300, 11.4953, 14.5770, 9.9195, 15.1724, 6.8027, 15.2424, 3.9311, 15.1023, 1.7599, 15.1023, 1.7249]
colour: [ORANGE, ORANGE, BLUE, YELLOW, BLUE, YELLOW, BLUE, YELLOW, BLUE, YELLOW, BLUE, YELLOW, BLUE, YELLOW, BLUE, YELLOW, BLUE, YELLOW, BLUE, YELLOW, BLUE, YELLOW, BLUE, YELLOW, BLUE, YELLOW, BLUE, YELLOW, BLUE, YELLOW, BLUE]
---
header:
  seq: 62
  stamp:
    secs: 0
    nsecs:         0
  frame_id: "map"
x: [0.7204, 0.6892, 2.3700, 2.3700, 4.7355, 4.6733, 7.6613, 7.7858, 7.7858, 10.4004, 7.6925, 11.4586, 7.6925, 11.5831, 6.3541, 11.6143, 3.1793, 11.7388, 0.3469, 11.7388, -1.7385, 11.2096, -2.6101, 8.8752, -2.7657, 6.2607, -2.7657, 3.2726, -2.7657, 0.4714, -0.6803]
y: [-1.3218, 1.8650, 1.9350, -1.0416, 2.0751, -1.1117, 2.6004, -1.1117, 5.0868, -0.3763, 9.0790, 0.8494, 10.9700, 3.5109, 11.3553, 5.3319, 11.4953, 8.9739, 11.3903, 10.8300, 11.4953, 14.5770, 9.9195, 15.1724, 6.8027, 15.2424, 3.9311, 15.1023, 1.7599, 15.1023, 1.7249]
colour: [ORANGE, ORANGE, BLUE, YELLOW, BLUE, YELLOW, BLUE, YELLOW, BLUE, YELLOW, BLUE, YELLOW, BLUE, YELLOW, BLUE, YELLOW, BLUE, YELLOW, BLUE, YELLOW, BLUE, YELLOW, BLUE, YELLOW, BLUE, YELLOW, BLUE, YELLOW, BLUE, YELLOW, BLUE]
---
header:
  seq: 63
  stamp:
    secs: 0
    nsecs:         0
  frame_id: "map"
x: [0.7204, 0.6892, 2.3700, 2.3700, 4.7355, 4.6733, 7.6613, 7.7858, 7.7858, 10.4004, 7.6925, 11.4586, 7.6925, 11.5831, 6.3541, 11.6143, 3.1793, 11.7388, 0.3469, 11.7388, -1.7385, 11.2096, -2.6101, 8.8752, -2.7657, 6.2607, -2.7657, 3.2726, -2.7657, 0.4714, -0.6803, -1.8319]
y: [-1.3218, 1.8650, 1.9350, -1.0416, 2.0751, -1.1117, 2.6004, -1.1117, 5.0868, -0.3763, 9.0790, 0.8494, 10.9700, 3.5109, 11.3553, 5.3319, 11.4953, 8.9739, 11.3903, 10.8300, 11.4953, 14.5770, 9.9195, 15.1724, 6.8027, 15.2424, 3.9311, 15.1023, 1.7599, 15.1023, 1.7249, 15.1023]
colour: [ORANGE, ORANGE, BLUE, YELLOW, BLUE, YELLOW, BLUE, YELLOW, BLUE, YELLOW, BLUE, YELLOW, BLUE, YELLOW, BLUE, YELLOW, BLUE, YELLOW, BLUE, YELLOW, BLUE, YELLOW, BLUE, YELLOW, BLUE, YELLOW, BLUE, YELLOW, BLUE, YELLOW, BLUE, YELLOW]
---
header:
  seq: 64
  stamp:
    secs: 0
    nsecs:         0
  frame_id: "map"
x: [0.7204, 0.6892, 2.3700, 2.3700, 4.7355, 4.6733, 7.6613, 7.7858, 7.7858, 10.4004, 7.6925, 11.4586, 7.6925, 11.5831, 6.3541, 11.6143, 3.1793, 11.7388, 0.3469, 11.7388, -1.7385, 11.2096, -2.6101, 8.8752, -2.7657, 6.2607, -2.7657, 3.2726, -2.7657, 0.4714, -0.6803, -1.8319]
y: [-1.3218, 1.8650, 1.9350, -1.0416, 2.0751, -1.1117, 2.6004, -1.1117, 5.0868, -0.3763, 9.0790, 0.8494, 10.9700, 3.5109, 11.3553, 5.3319, 11.4953, 8.9739, 11.3903, 10.8300, 11.4953, 14.5770, 9.9195, 15.1724, 6.8027, 15.2424, 3.9311, 15.1023, 1.7599, 15.1023, 1.7249, 15.1023]
colour: [ORANGE, ORANGE, BLUE, YELLOW, BLUE, YELLOW, BLUE, YELLOW, BLUE, YELLOW, BLUE, YELLOW, BLUE, YELLOW, BLUE, YELLOW, BLUE, YELLOW, BLUE, YELLOW, BLUE, YELLOW, BLUE, YELLOW, BLUE, YELLOW, BLUE, YELLOW, BLUE, YELLOW, BLUE, YELLOW]
---
header:
  seq: 65
  stamp:
    secs: 0
    nsecs:         0
  frame_id: "map"
x: [0.7204, 0.6892, 2.3700, 2.3700, 4.7355, 4.6733, 7.6613, 7.7858, 7.7858, 10.4004, 7.6925, 11.4586, 7.6925, 11.5831, 6.3541, 11.6143, 3.1793, 11.7388, 0.3469, 11.7388, -1.7385, 11.2096, -2.6101, 8.8752, -2.7657, 6.2607, -2.7657, 3.2726, -2.7657, 0.4714, -0.6803, -1.8319, -4.4465]
y: [-1.3218, 1.8650, 1.9350, -1.0416, 2.0751, -1.1117, 2.6004, -1.1117, 5.0868, -0.3763, 9.0790, 0.8494, 10.9700, 3.5109, 11.3553, 5.3319, 11.4953, 8.9739, 11.3903, 10.8300, 11.4953, 14.5770, 9.9195, 15.1724, 6.8027, 15.2424, 3.9311, 15.1023, 1.7599, 15.1023, 1.7249, 15.1023, 15.0673]
colour: [ORANGE, ORANGE, BLUE, YELLOW, BLUE, YELLOW, BLUE, YELLOW, BLUE, YELLOW, BLUE, YELLOW, BLUE, YELLOW, BLUE, YELLOW, BLUE, YELLOW, BLUE, YELLOW, BLUE, YELLOW, BLUE, YELLOW, BLUE, YELLOW, BLUE, YELLOW, BLUE, YELLOW, BLUE, YELLOW, YELLOW]
---
header:
  seq: 66
  stamp:
    secs: 0
    nsecs:         0
  frame_id: "map"
x: [0.7204, 0.6892, 2.3700, 2.3700, 4.7355, 4.6733, 7.6613, 7.7858, 7.7858, 10.4004, 7.6925, 11.4586, 7.6925, 11.5831, 6.3541, 11.6143, 3.1793, 11.7388, 0.3469, 11.7388, -1.7385, 11.2096, -2.6101, 8.8752, -2.7657, 6.2607, -2.7657, 3.2726, -2.7657, 0.4714, -0.6803, -1.8319, -4.4465]
y: [-1.3218, 1.8650, 1.9350, -1.0416, 2.0751, -1.1117, 2.6004, -1.1117, 5.0868, -0.3763, 9.0790, 0.8494, 10.9700, 3.5109, 11.3553, 5.3319, 11.4953, 8.9739, 11.3903, 10.8300, 11.4953, 14.5770, 9.9195, 15.1724, 6.8027, 15.2424, 3.9311, 15.1023, 1.7599, 15.1023, 1.7249, 15.1023, 15.0673]
colour: [ORANGE, ORANGE, BLUE, YELLOW, BLUE, YELLOW, BLUE, YELLOW, BLUE, YELLOW, BLUE, YELLOW, BLUE, YELLOW, BLUE, YELLOW, BLUE, YELLOW, BLUE, YELLOW, BLUE, YELLOW, BLUE, YELLOW, BLUE, YELLOW, BLUE, YELLOW, BLUE, YELLOW, BLUE, YELLOW, YELLOW]
---
header:
  seq: 67
  stamp:
    secs: 0
    nsecs:         0
  frame_id: "map"
x: [0.7204, 0.6892, 2.3700, 2.3700, 4.7355, 4.6733, 7.6613, 7.7858, 7.7858, 10.4004, 7.6925, 11.4586, 7.6925, 11.5831, 6.3541, 11.6143, 3.1793, 11.7388, 0.3469, 11.7388, -1.7385, 11.2096, -2.6101, 8.8752, -2.7657, 6.2607, -2.7657, 3.2726, -2.7657, 0.4714, -0.6803, -1.8319, -4.4465, -5.7849]
y: [-1.3218, 1.8650, 1.9350, -1.0416, 2.0751, -1.1117, 2.6004, -1.1117, 5.0868, -0.3763, 9.0790, 0.8494, 10.9700, 3.5109, 11.3553, 5.3319, 11.4953, 8.9739, 11.3903, 10.8300, 11.4953, 14.5770, 9.9195, 15.1724, 6.8027, 15.2424, 3.9311, 15.1023, 1.7599, 15.1023, 1.7249, 15.1023, 15.0673, 12.9311]
colour: [ORANGE, ORANGE, BLUE, YELLOW, BLUE, YELLOW, BLUE, YELLOW, BLUE, YELLOW, BLUE, YELLOW, BLUE, YELLOW, BLUE, YELLOW, BLUE, YELLOW, BLUE, YELLOW, BLUE, YELLOW, BLUE, YELLOW, BLUE, YELLOW, BLUE, YELLOW, BLUE, YELLOW, BLUE, YELLOW, YELLOW, YELLOW]
---
header:
  seq: 68
  stamp:
    secs: 0
    nsecs:         0
  frame_id: "map"
x: [0.7204, 0.6892, 2.3700, 2.3700, 4.7355, 4.6733, 7.6613, 7.7858, 7.7858, 10.4004, 7.6925, 11.4586, 7.6925, 11.5831, 6.3541, 11.6143, 3.1793, 11.7388, 0.3469, 11.7388, -1.7385, 11.2096, -2.6101, 8.8752, -2.7657, 6.2607, -2.7657, 3.2726, -2.7657, 0.4714, -0.6803, -1.8319, -4.4465, -5.7849]
y: [-1.3218, 1.8650, 1.9350, -1.0416, 2.0751, -1.1117, 2.6004, -1.1117, 5.0868, -0.3763, 9.0790, 0.8494, 10.9700, 3.5109, 11.3553, 5.3319, 11.4953, 8.9739, 11.3903, 10.8300, 11.4953, 14.5770, 9.9195, 15.1724, 6.8027, 15.2424, 3.9311, 15.1023, 1.7599, 15.1023, 1.7249, 15.1023, 15.0673, 12.9311]
colour: [ORANGE, ORANGE, BLUE, YELLOW, BLUE, YELLOW, BLUE, YELLOW, BLUE, YELLOW, BLUE, YELLOW, BLUE, YELLOW, BLUE, YELLOW, BLUE, YELLOW, BLUE, YELLOW, BLUE, YELLOW, BLUE, YELLOW, BLUE, YELLOW, BLUE, YELLOW, BLUE, YELLOW, BLUE, YELLOW, YELLOW, YELLOW]
---
header:
  seq: 69
  stamp:
    secs: 0
    nsecs:         0
  frame_id: "map"
x: [0.7204, 0.6892, 2.3700, 2.3700, 4.7355, 4.6733, 7.6613, 7.7858, 7.7858, 10.4004, 7.6925, 11.4586, 7.6925, 11.5831, 6.3541, 11.6143, 3.1793, 11.7388, 0.3469, 11.7388, -1.7385, 11.2096, -2.6101, 8.8752, -2.7657, 6.2607, -2.7657, 3.2726, -2.7657, 0.4714, -0.6803, -1.8319, -4.4465, -5.7849, -5.6915]
y: [-1.3218, 1.8650, 1.9350, -1.0416, 2.0751, -1.1117, 2.6004, -1.1117, 5.0868, -0.3763, 9.0790, 0.8494, 10.9700, 3.5109, 11.3553, 5.3319, 11.4953, 8.9739, 11.3903, 10.8300, 11.4953, 14.5770, 9.9195, 15.1724, 6.8027, 15.2424, 3.9311, 15.1023, 1.7599, 15.1023, 1.7249, 15.1023, 15.0673, 12.9311, 9.8144]
colour: [ORANGE, ORANGE, BLUE, YELLOW, BLUE, YELLOW, BLUE, YELLOW, BLUE, YELLOW, BLUE, YELLOW, BLUE, YELLOW, BLUE, YELLOW, BLUE, YELLOW, BLUE, YELLOW, BLUE, YELLOW, BLUE, YELLOW, BLUE, YELLOW, BLUE, YELLOW, BLUE, YELLOW, BLUE, YELLOW, YELLOW, YELLOW, YELLOW]
---
header:
  seq: 70
  stamp:
    secs: 0
    nsecs:         0
  frame_id: "map"
x: [0.7204, 0.6892, 2.3700, 2.3700, 4.7355, 4.6733, 7.6613, 7.7858, 7.7858, 10.4004, 7.6925, 11.4586, 7.6925, 11.5831, 6.3541, 11.6143, 3.1793, 11.7388, 0.3469, 11.7388, -1.7385, 11.2096, -2.6101, 8.8752, -2.7657, 6.2607, -2.7657, 3.2726, -2.7657, 0.4714, -0.6803, -1.8319, -4.4465, -5.7849, -5.6915]
y: [-1.3218, 1.8650, 1.9350, -1.0416, 2.0751, -1.1117, 2.6004, -1.1117, 5.0868, -0.3763, 9.0790, 0.8494, 10.9700, 3.5109, 11.3553, 5.3319, 11.4953, 8.9739, 11.3903, 10.8300, 11.4953, 14.5770, 9.9195, 15.1724, 6.8027, 15.2424, 3.9311, 15.1023, 1.7599, 15.1023, 1.7249, 15.1023, 15.0673, 12.9311, 9.8144]
colour: [ORANGE, ORANGE, BLUE, YELLOW, BLUE, YELLOW, BLUE, YELLOW, BLUE, YELLOW, BLUE, YELLOW, BLUE, YELLOW, BLUE, YELLOW, BLUE, YELLOW, BLUE, YELLOW, BLUE, YELLOW, BLUE, YELLOW, BLUE, YELLOW, BLUE, YELLOW, BLUE, YELLOW, BLUE, YELLOW, YELLOW, YELLOW, YELLOW]
---
header:
  seq: 71
  stamp:
    secs: 0
    nsecs:         0
  frame_id: "map"
x: [0.7204, 0.6892, 2.3700, 2.3700, 4.7355, 4.6733, 7.6613, 7.7858, 7.7858, 10.4004, 7.6925, 11.4586, 7.6925, 11.5831, 6.3541, 11.6143, 3.1793, 11.7388, 0.3469, 11.7388, -1.7385, 11.2096, -2.6101, 8.8752, -2.7657, 6.2607, -2.7657, 3.2726, -2.7657, 0.4714, -0.6803, -1.8319, -4.4465, -5.7849, -5.6915, -5.6915]
y: [-1.3218, 1.8650, 1.9350, -1.0416, 2.0751, -1.1117, 2.6004, -1.1117, 5.0868, -0.3763, 9.0790, 0.8494, 10.9700, 3.5109, 11.3553, 5.3319, 11.4953, 8.9739, 11.3903, 10.8300, 11.4953, 14.5770, 9.9195, 15.1724, 6.8027, 15.2424, 3.9311, 15.1023, 1.7599, 15.1023, 1.7249, 15.1023, 15.0673, 12.9311, 9.8144, 6.7677]
colour: [ORANGE, ORANGE, BLUE, YELLOW, BLUE, YELLOW, BLUE, YELLOW, BLUE, YELLOW, BLUE, YELLOW, BLUE, YELLOW, BLUE, YELLOW, BLUE, YELLOW, BLUE, YELLOW, BLUE, YELLOW, BLUE, YELLOW, BLUE, YELLOW, BLUE, YELLOW, BLUE, YELLOW, BLUE, YELLOW, YELLOW, YELLOW, YELLOW, YELLOW]
---
header:
  seq: 72
  stamp:
    secs: 0
    nsecs:         0
  frame_id: "map"
x: [0.7204, 0.6892, 2.3700, 2.3700, 4.7355, 4.6733, 7.6613, 7.7858, 7.7858, 10.4004, 7.6925, 11.4586, 7.6925, 11.5831, 6.3541, 11.6143, 3.1793, 11.7388, 0.3469, 11.7388, -1.7385, 11.2096, -2.6101, 8.8752, -2.7657, 6.2607, -2.7657, 3.2726, -2.7657, 0.4714, -0.6803, -1.8319, -4.4465, -5.7849, -5.6915, -5.6915]
y: [-1.3218, 1.8650, 1.9350, -1.0416, 2.0751, -1.1117, 2.6004, -1.1117, 5.0868, -0.3763, 9.0790, 0.8494, 10.9700, 3.5109, 11.3553, 5.3319, 11.4953, 8.9739, 11.3903, 10.8300, 11.4953, 14.5770, 9.9195, 15.1724, 6.8027, 15.2424, 3.9311, 15.1023, 1.7599, 15.1023, 1.7249, 15.1023, 15.0673, 12.9311, 9.8144, 6.7677]
colour: [ORANGE, ORANGE, BLUE, YELLOW, BLUE, YELLOW, BLUE, YELLOW, BLUE, YELLOW, BLUE, YELLOW, BLUE, YELLOW, BLUE, YELLOW, BLUE, YELLOW, BLUE, YELLOW, BLUE, YELLOW, BLUE, YELLOW, BLUE, YELLOW, BLUE, YELLOW, BLUE, YELLOW, BLUE, YELLOW, YELLOW, YELLOW, YELLOW, YELLOW]
---
header:
  seq: 73
  stamp:
    secs: 0
    nsecs:         0
  frame_id: "map"
x: [0.7204, 0.6892, 2.3700, 2.3700, 4.7355, 4.6733, 7.6613, 7.7858, 7.7858, 10.4004, 7.6925, 11.4586, 7.6925, 11.5831, 6.3541, 11.6143, 3.1793, 11.7388, 0.3469, 11.7388, -1.7385, 11.2096, -2.6101, 8.8752, -2.7657, 6.2607, -2.7657, 3.2726, -2.7657, 0.4714, -0.6803, -1.8319, -4.4465, -5.7849, -5.6915, -5.6915, -5.7849]
y: [-1.3218, 1.8650, 1.9350, -1.0416, 2.0751, -1.1117, 2.6004, -1.1117, 5.0868, -0.3763, 9.0790, 0.8494, 10.9700, 3.5109, 11.3553, 5.3319, 11.4953, 8.9739, 11.3903, 10.8300, 11.4953, 14.5770, 9.9195, 15.1724, 6.8027, 15.2424, 3.9311, 15.1023, 1.7599, 15.1023, 1.7249, 15.1023, 15.0673, 12.9311, 9.8144, 6.7677, 3.7560]
colour: [ORANGE, ORANGE, BLUE, YELLOW, BLUE, YELLOW, BLUE, YELLOW, BLUE, YELLOW, BLUE, YELLOW, BLUE, YELLOW, BLUE, YELLOW, BLUE, YELLOW, BLUE, YELLOW, BLUE, YELLOW, BLUE, YELLOW, BLUE, YELLOW, BLUE, YELLOW, BLUE, YELLOW, BLUE, YELLOW, YELLOW, YELLOW, YELLOW, YELLOW, YELLOW]
---
header:
  seq: 74
  stamp:
    secs: 0
    nsecs:         0
  frame_id: "map"
x: [0.7204, 0.6892, 2.3700, 2.3700, 4.7355, 4.6733, 7.6613, 7.7858, 7.7858, 10.4004, 7.6925, 11.4586, 7.6925, 11.5831, 6.3541, 11.6143, 3.1793, 11.7388, 0.3469, 11.7388, -1.7385, 11.2096, -2.6101, 8.8752, -2.7657, 6.2607, -2.7657, 3.2726, -2.7657, 0.4714, -0.6803, -1.8319, -4.4465, -5.7849, -5.6915, -5.6915, -5.7849]
y: [-1.3218, 1.8650, 1.9350, -1.0416, 2.0751, -1.1117, 2.6004, -1.1117, 5.0868, -0.3763, 9.0790, 0.8494, 10.9700, 3.5109, 11.3553, 5.3319, 11.4953, 8.9739, 11.3903, 10.8300, 11.4953, 14.5770, 9.9195, 15.1724, 6.8027, 15.2424, 3.9311, 15.1023, 1.7599, 15.1023, 1.7249, 15.1023, 15.0673, 12.9311, 9.8144, 6.7677, 3.7560]
colour: [ORANGE, ORANGE, BLUE, YELLOW, BLUE, YELLOW, BLUE, YELLOW, BLUE, YELLOW, BLUE, YELLOW, BLUE, YELLOW, BLUE, YELLOW, BLUE, YELLOW, BLUE, YELLOW, BLUE, YELLOW, BLUE, YELLOW, BLUE, YELLOW, BLUE, YELLOW, BLUE, YELLOW, BLUE, YELLOW, YELLOW, YELLOW, YELLOW, YELLOW, YELLOW]
---
header:
  seq: 75
  stamp:
    secs: 0
    nsecs:         0
  frame_id: "map"
x: [0.7204, 0.6892, 2.3700, 2.3700, 4.7355, 4.6733, 7.6613, 7.7858, 7.7858, 10.4004, 7.6925, 11.4586, 7.6925, 11.5831, 6.3541, 11.6143, 3.1793, 11.7388, 0.3469, 11.7388, -1.7385, 11.2096, -2.6101, 8.8752, -2.7657, 6.2607, -2.7657, 3.2726, -2.7657, 0.4714, -0.6803, -1.8319, -4.4465, -5.7849, -5.6915, -5.6915, -5.7849, -5.6915]
y: [-1.3218, 1.8650, 1.9350, -1.0416, 2.0751, -1.1117, 2.6004, -1.1117, 5.0868, -0.3763, 9.0790, 0.8494, 10.9700, 3.5109, 11.3553, 5.3319, 11.4953, 8.9739, 11.3903, 10.8300, 11.4953, 14.5770, 9.9195, 15.1724, 6.8027, 15.2424, 3.9311, 15.1023, 1.7599, 15.1023, 1.7249, 15.1023, 15.0673, 12.9311, 9.8144, 6.7677, 3.7560, 1.6549]
colour: [ORANGE, ORANGE, BLUE, YELLOW, BLUE, YELLOW, BLUE, YELLOW, BLUE, YELLOW, BLUE, YELLOW, BLUE, YELLOW, BLUE, YELLOW, BLUE, YELLOW, BLUE, YELLOW, BLUE, YELLOW, BLUE, YELLOW, BLUE, YELLOW, BLUE, YELLOW, BLUE, YELLOW, BLUE, YELLOW, YELLOW, YELLOW, YELLOW, YELLOW, YELLOW, YELLOW]
---
header:
  seq: 76
  stamp:
    secs: 0
    nsecs:         0
  frame_id: "map"
x: [0.7204, 0.6892, 2.3700, 2.3700, 4.7355, 4.6733, 7.6613, 7.7858, 7.7858, 10.4004, 7.6925, 11.4586, 7.6925, 11.5831, 6.3541, 11.6143, 3.1793, 11.7388, 0.3469, 11.7388, -1.7385, 11.2096, -2.6101, 8.8752, -2.7657, 6.2607, -2.7657, 3.2726, -2.7657, 0.4714, -0.6803, -1.8319, -4.4465, -5.7849, -5.6915, -5.6915, -5.7849, -5.6915]
y: [-1.3218, 1.8650, 1.9350, -1.0416, 2.0751, -1.1117, 2.6004, -1.1117, 5.0868, -0.3763, 9.0790, 0.8494, 10.9700, 3.5109, 11.3553, 5.3319, 11.4953, 8.9739, 11.3903, 10.8300, 11.4953, 14.5770, 9.9195, 15.1724, 6.8027, 15.2424, 3.9311, 15.1023, 1.7599, 15.1023, 1.7249, 15.1023, 15.0673, 12.9311, 9.8144, 6.7677, 3.7560, 1.6549]
colour: [ORANGE, ORANGE, BLUE, YELLOW, BLUE, YELLOW, BLUE, YELLOW, BLUE, YELLOW, BLUE, YELLOW, BLUE, YELLOW, BLUE, YELLOW, BLUE, YELLOW, BLUE, YELLOW, BLUE, YELLOW, BLUE, YELLOW, BLUE, YELLOW, BLUE, YELLOW, BLUE, YELLOW, BLUE, YELLOW, YELLOW, YELLOW, YELLOW, YELLOW, YELLOW, YELLOW]
---
header:
  seq: 77
  stamp:
    secs: 0
    nsecs:         0
  frame_id: "map"
x: [0.7204, 0.6892, 2.3700, 2.3700, 4.7355, 4.6733, 7.6613, 7.7858, 7.7858, 10.4004, 7.6925, 11.4586, 7.6925, 11.5831, 6.3541, 11.6143, 3.1793, 11.7388, 0.3469, 11.7388, -1.7385, 11.2096, -2.6101, 8.8752, -2.7657, 6.2607, -2.7657, 3.2726, -2.7657, 0.4714, -0.6803, -1.8319, -4.4465, -5.7849, -5.6915, -5.6915, -5.7849, -5.6915, -5.4114]
y: [-1.3218, 1.8650, 1.9350, -1.0416, 2.0751, -1.1117, 2.6004, -1.1117, 5.0868, -0.3763, 9.0790, 0.8494, 10.9700, 3.5109, 11.3553, 5.3319, 11.4953, 8.9739, 11.3903, 10.8300, 11.4953, 14.5770, 9.9195, 15.1724, 6.8027, 15.2424, 3.9311, 15.1023, 1.7599, 15.1023, 1.7249, 15.1023, 15.0673, 12.9311, 9.8144, 6.7677, 3.7560, 1.6549, -0.9366]
colour: [ORANGE, ORANGE, BLUE, YELLOW, BLUE, YELLOW, BLUE, YELLOW, BLUE, YELLOW, BLUE, YELLOW, BLUE, YELLOW, BLUE, YELLOW, BLUE, YELLOW, BLUE, YELLOW, BLUE, YELLOW, BLUE, YELLOW, BLUE, YELLOW, BLUE, YELLOW, BLUE, YELLOW, BLUE, YELLOW, YELLOW, YELLOW, YELLOW, YELLOW, YELLOW, YELLOW, YELLOW]
---
header:
  seq: 78
  stamp:
    secs: 0
    nsecs:         0
  frame_id: "map"
x: [0.7204, 0.6892, 2.3700, 2.3700, 4.7355, 4.6733, 7.6613, 7.7858, 7.7858, 10.4004, 7.6925, 11.4586, 7.6925, 11.5831, 6.3541, 11.6143, 3.1793, 11.7388, 0.3469, 11.7388, -1.7385, 11.2096, -2.6101, 8.8752, -2.7657, 6.2607, -2.7657, 3.2726, -2.7657, 0.4714, -0.6803, -1.8319, -4.4465, -5.7849, -5.6915, -5.6915, -5.7849, -5.6915, -5.4114]
y: [-1.3218, 1.8650, 1.9350, -1.0416, 2.0751, -1.1117, 2.6004, -1.1117, 5.0868, -0.3763, 9.0790, 0.8494, 10.9700, 3.5109, 11.3553, 5.3319, 11.4953, 8.9739, 11.3903, 10.8300, 11.4953, 14.5770, 9.9195, 15.1724, 6.8027, 15.2424, 3.9311, 15.1023, 1.7599, 15.1023, 1.7249, 15.1023, 15.0673, 12.9311, 9.8144, 6.7677, 3.7560, 1.6549, -0.9366]
colour: [ORANGE, ORANGE, BLUE, YELLOW, BLUE, YELLOW, BLUE, YELLOW, BLUE, YELLOW, BLUE, YELLOW, BLUE, YELLOW, BLUE, YELLOW, BLUE, YELLOW, BLUE, YELLOW, BLUE, YELLOW, BLUE, YELLOW, BLUE, YELLOW, BLUE, YELLOW, BLUE, YELLOW, BLUE, YELLOW, YELLOW, YELLOW, YELLOW, YELLOW, YELLOW, YELLOW, YELLOW]
---
header:
  seq: 79
  stamp:
    secs: 0
    nsecs:         0
  frame_id: "map"
x: [0.7204, 0.6892, 2.3700, 2.3700, 4.7355, 4.6733, 7.6613, 7.7858, 7.7858, 10.4004, 7.6925, 11.4586, 7.6925, 11.5831, 6.3541, 11.6143, 3.1793, 11.7388, 0.3469, 11.7388, -1.7385, 11.2096, -2.6101, 8.8752, -2.7657, 6.2607, -2.7657, 3.2726, -2.7657, 0.4714, -0.6803, -1.8319, -4.4465, -5.7849, -5.6915, -5.6915, -5.7849, -5.6915, -5.4114, -3.6683]
y: [-1.3218, 1.8650, 1.9350, -1.0416, 2.0751, -1.1117, 2.6004, -1.1117, 5.0868, -0.3763, 9.0790, 0.8494, 10.9700, 3.5109, 11.3553, 5.3319, 11.4953, 8.9739, 11.3903, 10.8300, 11.4953, 14.5770, 9.9195, 15.1724, 6.8027, 15.2424, 3.9311, 15.1023, 1.7599, 15.1023, 1.7249, 15.1023, 15.0673, 12.9311, 9.8144, 6.7677, 3.7560, 1.6549, -0.9366, -1.5319]
colour: [ORANGE, ORANGE, BLUE, YELLOW, BLUE, YELLOW, BLUE, YELLOW, BLUE, YELLOW, BLUE, YELLOW, BLUE, YELLOW, BLUE, YELLOW, BLUE, YELLOW, BLUE, YELLOW, BLUE, YELLOW, BLUE, YELLOW, BLUE, YELLOW, BLUE, YELLOW, BLUE, YELLOW, BLUE, YELLOW, YELLOW, YELLOW, YELLOW, YELLOW, YELLOW, YELLOW, YELLOW, YELLOW]
---
header:
  seq: 80
  stamp:
    secs: 0
    nsecs:         0
  frame_id: "map"
x: [0.7204, 0.6892, 2.3700, 2.3700, 4.7355, 4.6733, 7.6613, 7.7858, 7.7858, 10.4004, 7.6925, 11.4586, 7.6925, 11.5831, 6.3541, 11.6143, 3.1793, 11.7388, 0.3469, 11.7388, -1.7385, 11.2096, -2.6101, 8.8752, -2.7657, 6.2607, -2.7657, 3.2726, -2.7657, 0.4714, -0.6803, -1.8319, -4.4465, -5.7849, -5.6915, -5.6915, -5.7849, -5.6915, -5.4114, -3.6683]
y: [-1.3218, 1.8650, 1.9350, -1.0416, 2.0751, -1.1117, 2.6004, -1.1117, 5.0868, -0.3763, 9.0790, 0.8494, 10.9700, 3.5109, 11.3553, 5.3319, 11.4953, 8.9739, 11.3903, 10.8300, 11.4953, 14.5770, 9.9195, 15.1724, 6.8027, 15.2424, 3.9311, 15.1023, 1.7599, 15.1023, 1.7249, 15.1023, 15.0673, 12.9311, 9.8144, 6.7677, 3.7560, 1.6549, -0.9366, -1.5319]
colour: [ORANGE, ORANGE, BLUE, YELLOW, BLUE, YELLOW, BLUE, YELLOW, BLUE, YELLOW, BLUE, YELLOW, BLUE, YELLOW, BLUE, YELLOW, BLUE, YELLOW, BLUE, YELLOW, BLUE, YELLOW, BLUE, YELLOW, BLUE, YELLOW, BLUE, YELLOW, BLUE, YELLOW, BLUE, YELLOW, YELLOW, YELLOW, YELLOW, YELLOW, YELLOW, YELLOW, YELLOW, YELLOW]
---
header:
  seq: 81
  stamp:
    secs: 0
    nsecs:         0
  frame_id: "map"
x: [0.7204, 0.6892, 2.3700, 2.3700, 4.7355, 4.6733, 7.6613, 7.7858, 7.7858, 10.4004, 7.6925, 11.4586, 7.6925, 11.5831, 6.3541, 11.6143, 3.1793, 11.7388, 0.3469, 11.7388, -1.7385, 11.2096, -2.6101, 8.8752, -2.7657, 6.2607, -2.7657, 3.2726, -2.7657, 0.4714, -0.6803, -1.8319, -4.4465, -5.7849, -5.6915, -5.6915, -5.7849, -5.6915, -5.4114, -3.6683, -1.2717]
y: [-1.3218, 1.8650, 1.9350, -1.0416, 2.0751, -1.1117, 2.6004, -1.1117, 5.0868, -0.3763, 9.0790, 0.8494, 10.9700, 3.5109, 11.3553, 5.3319, 11.4953, 8.9739, 11.3903, 10.8300, 11.4953, 14.5770, 9.9195, 15.1724, 6.8027, 15.2424, 3.9311, 15.1023, 1.7599, 15.1023, 1.7249, 15.1023, 15.0673, 12.9311, 9.8144, 6.7677, 3.7560, 1.6549, -0.9366, -1.5319, -1.4268]
colour: [ORANGE, ORANGE, BLUE, YELLOW, BLUE, YELLOW, BLUE, YELLOW, BLUE, YELLOW, BLUE, YELLOW, BLUE, YELLOW, BLUE, YELLOW, BLUE, YELLOW, BLUE, YELLOW, BLUE, YELLOW, BLUE, YELLOW, BLUE, YELLOW, BLUE, YELLOW, BLUE, YELLOW, BLUE, YELLOW, YELLOW, YELLOW, YELLOW, YELLOW, YELLOW, YELLOW, YELLOW, YELLOW, YELLOW]
---
header:
  seq: 82
  stamp:
    secs: 0
    nsecs:         0
  frame_id: "map"
x: [0.7204, 0.6892, 2.3700, 2.3700, 4.7355, 4.6733, 7.6613, 7.7858, 7.7858, 10.4004, 7.6925, 11.4586, 7.6925, 11.5831, 6.3541, 11.6143, 3.1793, 11.7388, 0.3469, 11.7388, -1.7385, 11.2096, -2.6101, 8.8752, -2.7657, 6.2607, -2.7657, 3.2726, -2.7657, 0.4714, -0.6803, -1.8319, -4.4465, -5.7849, -5.6915, -5.6915, -5.7849, -5.6915, -5.4114, -3.6683, -1.2717]
y: [-1.3218, 1.8650, 1.9350, -1.0416, 2.0751, -1.1117, 2.6004, -1.1117, 5.0868, -0.3763, 9.0790, 0.8494, 10.9700, 3.5109, 11.3553, 5.3319, 11.4953, 8.9739, 11.3903, 10.8300, 11.4953, 14.5770, 9.9195, 15.1724, 6.8027, 15.2424, 3.9311, 15.1023, 1.7599, 15.1023, 1.7249, 15.1023, 15.0673, 12.9311, 9.8144, 6.7677, 3.7560, 1.6549, -0.9366, -1.5319, -1.4268]
colour: [ORANGE, ORANGE, BLUE, YELLOW, BLUE, YELLOW, BLUE, YELLOW, BLUE, YELLOW, BLUE, YELLOW, BLUE, YELLOW, BLUE, YELLOW, BLUE, YELLOW, BLUE, YELLOW, BLUE, YELLOW, BLUE, YELLOW, BLUE, YELLOW, BLUE, YELLOW, BLUE, YELLOW, BLUE, YELLOW, YELLOW, YELLOW, YELLOW, YELLOW, YELLOW, YELLOW, YELLOW, YELLOW, YELLOW]
---
