header:
  seq: 14
  stamp:
    secs: 0
    nsecs:         0
  frame_id: "map"
x: [7.0464, 6.0786, 6.1391, 7.0464, 1.9657, 1.9657, 9.9496, 9.8891, 14.8488, 14.8488, 20.0504, 19.7480, 21.8649, 22.5302]
y: [3.0215, 3.0215, -2.9139, -2.9139, 2.0794, -2.1602, 1.7968, -2.0659, 1.8910, -2.0659, 1.8910, -2.3486, 4.0579, -1.5007]
colour: [ORANGE, ORANGE, ORANGE, ORANGE, BLUE, YELLOW, BLUE, YELLOW, BLUE, YELLOW, BLUE, YELLOW, BLUE, YELLOW]
---
header:
  seq: 15
  stamp:
    secs: 0
    nsecs:         0
  frame_id: "map"
x: [7.0464, 6.0786, 6.1391, 7.0464, 1.9657, 1.9657, 9.9496, 9.8891, 14.8488, 14.8488, 20.0504, 19.7480, 21.8649, 22.5302, 21.9254]
y: [3.0215, 3.0215, -2.9139, -2.9139, 2.0794, -2.1602, 1.7968, -2.0659, 1.8910, -2.0659, 1.8910, -2.3486, 4.0579, -1.5007, 8.0148]
colour: [ORANGE, ORANGE, ORANGE, ORANGE, BLUE, YELLOW, BLUE, YELLOW, BLUE, YELLOW, BLUE, YELLOW, BLUE, YELLOW, BLUE]
---
header:
  seq: 16
  stamp:
    secs: 0
    nsecs:         0
  frame_id: "map"
x: [7.0464, 6.0786, 6.1391, 7.0464, 1.9657, 1.9657, 9.9496, 9.8891, 14.8488, 14.8488, 20.0504, 19.7480, 21.8649, 22.5302, 21.9254, 26.0383]
y: [3.0215, 3.0215, -2.9139, -2.9139, 2.0794, -2.1602, 1.7968, -2.0659, 1.8910, -2.0659, 1.8910, -2.3486, 4.0579, -1.5007, 8.0148, 1.7968]
colour: [ORANGE, ORANGE, ORANGE, ORANGE, BLUE, YELLOW, BLUE, YELLOW, BLUE, YELLOW, BLUE, YELLOW, BLUE, YELLOW, BLUE, YELLOW]
---
header:
  seq: 17
  stamp:
    secs: 0
    nsecs:         0
  frame_id: "map"
x: [7.0464, 6.0786, 6.1391, 7.0464, 1.9657, 1.9657, 9.9496, 9.8891, 14.8488, 14.8488, 20.0504, 19.7480, 21.8649, 22.5302, 21.9254, 26.0383, 22.1069]
y: [3.0215, 3.0215, -2.9139, -2.9139, 2.0794, -2.1602, 1.7968, -2.0659, 1.8910, -2.0659, 1.8910, -2.3486, 4.0579, -1.5007, 8.0148, 1.7968, 12.1602]
colour: [ORANGE, ORANGE, ORANGE, ORANGE, BLUE, YELLOW, BLUE, YELLOW, BLUE, YELLOW, BLUE, YELLOW, BLUE, YELLOW, BLUE, YELLOW, BLUE]
---
header:
  seq: 18
  stamp:
    secs: 0
    nsecs:         0
  frame_id: "map"
x: [7.0464, 6.0786, 6.1391, 7.0464, 1.9657, 1.9657, 9.9496, 9.8891, 14.8488, 14.8488, 20.0504, 19.7480, 21.8649, 22.5302, 21.9254, 26.0383, 22.1069, 26.0383]
y: [3.0215, 3.0215, -2.9139, -2.9139, 2.0794, -2.1602, 1.7968, -2.0659, 1.8910, -2.0659, 1.8910, -2.3486, 4.0579, -1.5007, 8.0148, 1.7968, 12.1602, 6.4132]
colour: [ORANGE, ORANGE, ORANGE, ORANGE, BLUE, YELLOW, BLUE, YELLOW, BLUE, YELLOW, BLUE, YELLOW, BLUE, YELLOW, BLUE, YELLOW, BLUE, YELLOW]
---
header:
  seq: 19
  stamp:
    secs: 0
    nsecs:         0
  frame_id: "map"
x: [7.0464, 6.0786, 6.1391, 7.0464, 1.9657, 1.9657, 9.9496, 9.8891, 14.8488, 14.8488, 20.0504, 19.7480, 21.8649, 22.5302, 21.9254, 26.0383, 22.1069, 26.0383, 21.9859]
y: [3.0215, 3.0215, -2.9139, -2.9139, 2.0794, -2.1602, 1.7968, -2.0659, 1.8910, -2.0659, 1.8910, -2.3486, 4.0579, -1.5007, 8.0148, 1.7968, 12.1602, 6.4132, 15.9287]
colour: [ORANGE, ORANGE, ORANGE, ORANGE, BLUE, YELLOW, BLUE, YELLOW, BLUE, YELLOW, BLUE, YELLOW, BLUE, YELLOW, BLUE, YELLOW, BLUE, YELLOW, BLUE]
---
header:
  seq: 20
  stamp:
    secs: 0
    nsecs:         0
  frame_id: "map"
x: [7.0464, 6.0786, 6.1391, 7.0464, 1.9657, 1.9657, 9.9496, 9.8891, 14.8488, 14.8488, 20.0504, 19.7480, 21.8649, 22.5302, 21.9254, 26.0383, 22.1069, 26.0383, 21.9859, 26.1593]
y: [3.0215, 3.0215, -2.9139, -2.9139, 2.0794, -2.1602, 1.7968, -2.0659, 1.8910, -2.0659, 1.8910, -2.3486, 4.0579, -1.5007, 8.0148, 1.7968, 12.1602, 6.4132, 15.9287, 11.7833]
colour: [ORANGE, ORANGE, ORANGE, ORANGE, BLUE, YELLOW, BLUE, YELLOW, BLUE, YELLOW, BLUE, YELLOW, BLUE, YELLOW, BLUE, YELLOW, BLUE, YELLOW, BLUE, YELLOW]
---
header:
  seq: 21
  stamp:
    secs: 0
    nsecs:         0
  frame_id: "map"
x: [7.0464, 6.0786, 6.1391, 7.0464, 1.9657, 1.9657, 9.9496, 9.8891, 14.8488, 14.8488, 20.0504, 19.7480, 21.8649, 22.5302, 21.9254, 26.0383, 22.1069, 26.0383, 21.9859, 26.1593, 19.8690]
y: [3.0215, 3.0215, -2.9139, -2.9139, 2.0794, -2.1602, 1.7968, -2.0659, 1.8910, -2.0659, 1.8910, -2.3486, 4.0579, -1.5007, 8.0148, 1.7968, 12.1602, 6.4132, 15.9287, 11.7833, 17.7187]
colour: [ORANGE, ORANGE, ORANGE, ORANGE, BLUE, YELLOW, BLUE, YELLOW, BLUE, YELLOW, BLUE, YELLOW, BLUE, YELLOW, BLUE, YELLOW, BLUE, YELLOW, BLUE, YELLOW, BLUE]
---
header:
  seq: 22
  stamp:
    secs: 0
    nsecs:         0
  frame_id: "map"
x: [7.0464, 6.0786, 6.1391, 7.0464, 1.9657, 1.9657, 9.9496, 9.8891, 14.8488, 14.8488, 20.0504, 19.7480, 21.8649, 22.5302, 21.9254, 26.0383, 22.1069, 26.0383, 21.9859, 26.1593, 19.8690, 25.7964]
y: [3.0215, 3.0215, -2.9139, -2.9139, 2.0794, -2.1602, 1.7968, -2.0659, 1.8910, -2.0659, 1.8910, -2.3486, 4.0579, -1.5007, 8.0148, 1.7968, 12.1602, 6.4132, 15.9287, 11.7833, 17.7187, 17.0592]
colour: [ORANGE, ORANGE, ORANGE, ORANGE, BLUE, YELLOW, BLUE, YELLOW, BLUE, YELLOW, BLUE, YELLOW, BLUE, YELLOW, BLUE, YELLOW, BLUE, YELLOW, BLUE, YELLOW, BLUE, YELLOW]
---
header:
  seq: 23
  stamp:
    secs: 0
    nsecs:         0
  frame_id: "map"
x: [7.0464, 6.0786, 6.1391, 7.0464, 1.9657, 1.9657, 9.9496, 9.8891, 14.8488, 14.8488, 20.0504, 19.7480, 21.8649, 22.5302, 21.9254, 26.0383, 22.1069, 26.0383, 21.9859, 26.1593, 19.8690, 25.7964, 15.9375]
y: [3.0215, 3.0215, -2.9139, -2.9139, 2.0794, -2.1602, 1.7968, -2.0659, 1.8910, -2.0659, 1.8910, -2.3486, 4.0579, -1.5007, 8.0148, 1.7968, 12.1602, 6.4132, 15.9287, 11.7833, 17.7187, 17.0592, 17.8129]
colour: [ORANGE, ORANGE, ORANGE, ORANGE, BLUE, YELLOW, BLUE, YELLOW, BLUE, YELLOW, BLUE, YELLOW, BLUE, YELLOW, BLUE, YELLOW, BLUE, YELLOW, BLUE, YELLOW, BLUE, YELLOW, BLUE]
---
header:
  seq: 24
  stamp:
    secs: 0
    nsecs:         0
  frame_id: "map"
x: [7.0464, 6.0786, 6.1391, 7.0464, 1.9657, 1.9657, 9.9496, 9.8891, 14.8488, 14.8488, 20.0504, 19.7480, 21.8649, 22.5302, 21.9254, 26.0383, 22.1069, 26.0383, 21.9859, 26.1593, 19.8690, 25.7964, 15.9375, 24.7681]
y: [3.0215, 3.0215, -2.9139, -2.9139, 2.0794, -2.1602, 1.7968, -2.0659, 1.8910, -2.0659, 1.8910, -2.3486, 4.0579, -1.5007, 8.0148, 1.7968, 12.1602, 6.4132, 15.9287, 11.7833, 17.7187, 17.0592, 17.8129, 20.3567]
colour: [ORANGE, ORANGE, ORANGE, ORANGE, BLUE, YELLOW, BLUE, YELLOW, BLUE, YELLOW, BLUE, YELLOW, BLUE, YELLOW, BLUE, YELLOW, BLUE, YELLOW, BLUE, YELLOW, BLUE, YELLOW, BLUE, YELLOW]
---
header:
  seq: 25
  stamp:
    secs: 0
    nsecs:         0
  frame_id: "map"
x: [7.0464, 6.0786, 6.1391, 7.0464, 1.9657, 1.9657, 9.9496, 9.8891, 14.8488, 14.8488, 20.0504, 19.7480, 21.8649, 22.5302, 21.9254, 26.0383, 22.1069, 26.0383, 21.9859, 26.1593, 19.8690, 25.7964, 15.9375, 24.7681, 12.0665]
y: [3.0215, 3.0215, -2.9139, -2.9139, 2.0794, -2.1602, 1.7968, -2.0659, 1.8910, -2.0659, 1.8910, -2.3486, 4.0579, -1.5007, 8.0148, 1.7968, 12.1602, 6.4132, 15.9287, 11.7833, 17.7187, 17.0592, 17.8129, 20.3567, 20.0740]
colour: [ORANGE, ORANGE, ORANGE, ORANGE, BLUE, YELLOW, BLUE, YELLOW, BLUE, YELLOW, BLUE, YELLOW, BLUE, YELLOW, BLUE, YELLOW, BLUE, YELLOW, BLUE, YELLOW, BLUE, YELLOW, BLUE, YELLOW, BLUE]
---
header:
  seq: 26
  stamp:
    secs: 0
    nsecs:         0
  frame_id: "map"
x: [7.0464, 6.0786, 6.1391, 7.0464, 1.9657, 1.9657, 9.9496, 9.8891, 14.8488, 14.8488, 20.0504, 19.7480, 21.8649, 22.5302, 21.9254, 26.0383, 22.1069, 26.0383, 21.9859, 26.1593, 19.8690, 25.7964, 15.9375, 24.7681, 12.0665, 21.5020]
y: [3.0215, 3.0215, -2.9139, -2.9139, 2.0794, -2.1602, 1.7968, -2.0659, 1.8910, -2.0659, 1.8910, -2.3486, 4.0579, -1.5007, 8.0148, 1.7968, 12.1602, 6.4132, 15.9287, 11.7833, 17.7187, 17.0592, 17.8129, 20.3567, 20.0740, 22.1467]
colour: [ORANGE, ORANGE, ORANGE, ORANGE, BLUE, YELLOW, BLUE, YELLOW, BLUE, YELLOW, BLUE, YELLOW, BLUE, YELLOW, BLUE, YELLOW, BLUE, YELLOW, BLUE, YELLOW, BLUE, YELLOW, BLUE, YELLOW, BLUE, YELLOW]
---
header:
  seq: 27
  stamp:
    secs: 0
    nsecs:         0
  frame_id: "map"
x: [7.0464, 6.0786, 6.1391, 7.0464, 1.9657, 1.9657, 9.9496, 9.8891, 14.8488, 14.8488, 20.0504, 19.7480, 21.8649, 22.5302, 21.9254, 26.0383, 22.1069, 26.0383, 21.9859, 26.1593, 19.8690, 25.7964, 15.9375, 24.7681, 12.0665, 21.5020, 8.0746]
y: [3.0215, 3.0215, -2.9139, -2.9139, 2.0794, -2.1602, 1.7968, -2.0659, 1.8910, -2.0659, 1.8910, -2.3486, 4.0579, -1.5007, 8.0148, 1.7968, 12.1602, 6.4132, 15.9287, 11.7833, 17.7187, 17.0592, 17.8129, 20.3567, 20.0740, 22.1467, 22.0525]
colour: [ORANGE, ORANGE, ORANGE, ORANGE, BLUE, YELLOW, BLUE, YELLOW, BLUE, YELLOW, BLUE, YELLOW, BLUE, YELLOW, BLUE, YELLOW, BLUE, YELLOW, BLUE, YELLOW, BLUE, YELLOW, BLUE, YELLOW, BLUE, YELLOW, BLUE]
---
header:
  seq: 28
  stamp:
    secs: 0
    nsecs:         0
  frame_id: "map"
x: [7.0464, 6.0786, 6.1391, 7.0464, 1.9657, 1.9657, 9.9496, 9.8891, 14.8488, 14.8488, 20.0504, 19.7480, 21.8649, 22.5302, 21.9254, 26.0383, 22.1069, 26.0383, 21.9859, 26.1593, 19.8690, 25.7964, 15.9375, 24.7681, 12.0665, 21.5020, 8.0746, 18.0544]
y: [3.0215, 3.0215, -2.9139, -2.9139, 2.0794, -2.1602, 1.7968, -2.0659, 1.8910, -2.0659, 1.8910, -2.3486, 4.0579, -1.5007, 8.0148, 1.7968, 12.1602, 6.4132, 15.9287, 11.7833, 17.7187, 17.0592, 17.8129, 20.3567, 20.0740, 22.1467, 22.0525, 21.9583]
colour: [ORANGE, ORANGE, ORANGE, ORANGE, BLUE, YELLOW, BLUE, YELLOW, BLUE, YELLOW, BLUE, YELLOW, BLUE, YELLOW, BLUE, YELLOW, BLUE, YELLOW, BLUE, YELLOW, BLUE, YELLOW, BLUE, YELLOW, BLUE, YELLOW, BLUE, YELLOW]
---
header:
  seq: 29
  stamp:
    secs: 0
    nsecs:         0
  frame_id: "map"
x: [7.0464, 6.0786, 6.1391, 7.0464, 1.9657, 1.9657, 9.9496, 9.8891, 14.8488, 14.8488, 20.0504, 19.7480, 21.8649, 22.5302, 21.9254, 26.0383, 22.1069, 26.0383, 21.9859, 26.1593, 19.8690, 25.7964, 15.9375, 24.7681, 12.0665, 21.5020, 8.0746, 18.0544, 3.1754]
y: [3.0215, 3.0215, -2.9139, -2.9139, 2.0794, -2.1602, 1.7968, -2.0659, 1.8910, -2.0659, 1.8910, -2.3486, 4.0579, -1.5007, 8.0148, 1.7968, 12.1602, 6.4132, 15.9287, 11.7833, 17.7187, 17.0592, 17.8129, 20.3567, 20.0740, 22.1467, 22.0525, 21.9583, 21.9583]
colour: [ORANGE, ORANGE, ORANGE, ORANGE, BLUE, YELLOW, BLUE, YELLOW, BLUE, YELLOW, BLUE, YELLOW, BLUE, YELLOW, BLUE, YELLOW, BLUE, YELLOW, BLUE, YELLOW, BLUE, YELLOW, BLUE, YELLOW, BLUE, YELLOW, BLUE, YELLOW, BLUE]
---
header:
  seq: 30
  stamp:
    secs: 0
    nsecs:         0
  frame_id: "map"
x: [7.0464, 6.0786, 6.1391, 7.0464, 1.9657, 1.9657, 9.9496, 9.8891, 14.8488, 14.8488, 20.0504, 19.7480, 21.8649, 22.5302, 21.9254, 26.0383, 22.1069, 26.0383, 21.9859, 26.1593, 19.8690, 25.7964, 15.9375, 24.7681, 12.0665, 21.5020, 8.0746, 18.0544, 3.1754, 15.5746]
y: [3.0215, 3.0215, -2.9139, -2.9139, 2.0794, -2.1602, 1.7968, -2.0659, 1.8910, -2.0659, 1.8910, -2.3486, 4.0579, -1.5007, 8.0148, 1.7968, 12.1602, 6.4132, 15.9287, 11.7833, 17.7187, 17.0592, 17.8129, 20.3567, 20.0740, 22.1467, 22.0525, 21.9583, 21.9583, 22.6178]
colour: [ORANGE, ORANGE, ORANGE, ORANGE, BLUE, YELLOW, BLUE, YELLOW, BLUE, YELLOW, BLUE, YELLOW, BLUE, YELLOW, BLUE, YELLOW, BLUE, YELLOW, BLUE, YELLOW, BLUE, YELLOW, BLUE, YELLOW, BLUE, YELLOW, BLUE, YELLOW, BLUE, YELLOW]
---
header:
  seq: 31
  stamp:
    secs: 0
    nsecs:         0
  frame_id: "map"
x: [7.0464, 6.0786, 6.1391, 7.0464, 1.9657, 1.9657, 9.9496, 9.8891, 14.8488, 14.8488, 20.0504, 19.7480, 21.8649, 22.5302, 21.9254, 26.0383, 22.1069, 26.0383, 21.9859, 26.1593, 19.8690, 25.7964, 15.9375, 24.7681, 12.0665, 21.5020, 8.0746, 18.0544, 3.1754, 15.5746, -2.0867]
y: [3.0215, 3.0215, -2.9139, -2.9139, 2.0794, -2.1602, 1.7968, -2.0659, 1.8910, -2.0659, 1.8910, -2.3486, 4.0579, -1.5007, 8.0148, 1.7968, 12.1602, 6.4132, 15.9287, 11.7833, 17.7187, 17.0592, 17.8129, 20.3567, 20.0740, 22.1467, 22.0525, 21.9583, 21.9583, 22.6178, 22.0525]
colour: [ORANGE, ORANGE, ORANGE, ORANGE, BLUE, YELLOW, BLUE, YELLOW, BLUE, YELLOW, BLUE, YELLOW, BLUE, YELLOW, BLUE, YELLOW, BLUE, YELLOW, BLUE, YELLOW, BLUE, YELLOW, BLUE, YELLOW, BLUE, YELLOW, BLUE, YELLOW, BLUE, YELLOW, BLUE]
---
header:
  seq: 32
  stamp:
    secs: 0
    nsecs:         0
  frame_id: "map"
x: [7.0464, 6.0786, 6.1391, 7.0464, 1.9657, 1.9657, 9.9496, 9.8891, 14.8488, 14.8488, 20.0504, 19.7480, 21.8649, 22.5302, 21.9254, 26.0383, 22.1069, 26.0383, 21.9859, 26.1593, 19.8690, 25.7964, 15.9375, 24.7681, 12.0665, 21.5020, 8.0746, 18.0544, 3.1754, 15.5746, -2.0867, 12.1270]
y: [3.0215, 3.0215, -2.9139, -2.9139, 2.0794, -2.1602, 1.7968, -2.0659, 1.8910, -2.0659, 1.8910, -2.3486, 4.0579, -1.5007, 8.0148, 1.7968, 12.1602, 6.4132, 15.9287, 11.7833, 17.7187, 17.0592, 17.8129, 20.3567, 20.0740, 22.1467, 22.0525, 21.9583, 21.9583, 22.6178, 22.0525, 24.1252]
colour: [ORANGE, ORANGE, ORANGE, ORANGE, BLUE, YELLOW, BLUE, YELLOW, BLUE, YELLOW, BLUE, YELLOW, BLUE, YELLOW, BLUE, YELLOW, BLUE, YELLOW, BLUE, YELLOW, BLUE, YELLOW, BLUE, YELLOW, BLUE, YELLOW, BLUE, YELLOW, BLUE, YELLOW, BLUE, YELLOW]
---
header:
  seq: 33
  stamp:
    secs: 0
    nsecs:         0
  frame_id: "map"
x: [7.0464, 6.0786, 6.1391, 7.0464, 1.9657, 1.9657, 9.9496, 9.8891, 14.8488, 14.8488, 20.0504, 19.7480, 21.8649, 22.5302, 21.9254, 26.0383, 22.1069, 26.0383, 21.9859, 26.1593, 19.8690, 25.7964, 15.9375, 24.7681, 12.0665, 21.5020, 8.0746, 18.0544, 3.1754, 15.5746, -2.0867, 12.1270, -6.0786]
y: [3.0215, 3.0215, -2.9139, -2.9139, 2.0794, -2.1602, 1.7968, -2.0659, 1.8910, -2.0659, 1.8910, -2.3486, 4.0579, -1.5007, 8.0148, 1.7968, 12.1602, 6.4132, 15.9287, 11.7833, 17.7187, 17.0592, 17.8129, 20.3567, 20.0740, 22.1467, 22.0525, 21.9583, 21.9583, 22.6178, 22.0525, 24.1252, 19.9798]
colour: [ORANGE, ORANGE, ORANGE, ORANGE, BLUE, YELLOW, BLUE, YELLOW, BLUE, YELLOW, BLUE, YELLOW, BLUE, YELLOW, BLUE, YELLOW, BLUE, YELLOW, BLUE, YELLOW, BLUE, YELLOW, BLUE, YELLOW, BLUE, YELLOW, BLUE, YELLOW, BLUE, YELLOW, BLUE, YELLOW, BLUE]
---
header:
  seq: 34
  stamp:
    secs: 0
    nsecs:         0
  frame_id: "map"
x: [7.0464, 6.0786, 6.1391, 7.0464, 1.9657, 1.9657, 9.9496, 9.8891, 14.8488, 14.8488, 20.0504, 19.7480, 21.8649, 22.5302, 21.9254, 26.0383, 22.1069, 26.0383, 21.9859, 26.1593, 19.8690, 25.7964, 15.9375, 24.7681, 12.0665, 21.5020, 8.0746, 18.0544, 3.1754, 15.5746, -2.0867, 12.1270, -6.0786, 8.1351]
y: [3.0215, 3.0215, -2.9139, -2.9139, 2.0794, -2.1602, 1.7968, -2.0659, 1.8910, -2.0659, 1.8910, -2.3486, 4.0579, -1.5007, 8.0148, 1.7968, 12.1602, 6.4132, 15.9287, 11.7833, 17.7187, 17.0592, 17.8129, 20.3567, 20.0740, 22.1467, 22.0525, 21.9583, 21.9583, 22.6178, 22.0525, 24.1252, 19.9798, 26.0094]
colour: [ORANGE, ORANGE, ORANGE, ORANGE, BLUE, YELLOW, BLUE, YELLOW, BLUE, YELLOW, BLUE, YELLOW, BLUE, YELLOW, BLUE, YELLOW, BLUE, YELLOW, BLUE, YELLOW, BLUE, YELLOW, BLUE, YELLOW, BLUE, YELLOW, BLUE, YELLOW, BLUE, YELLOW, BLUE, YELLOW, BLUE, YELLOW]
---
header:
  seq: 35
  stamp:
    secs: 0
    nsecs:         0
  frame_id: "map"
x: [7.0464, 6.0786, 6.1391, 7.0464, 1.9657, 1.9657, 9.9496, 9.8891, 14.8488, 14.8488, 20.0504, 19.7480, 21.8649, 22.5302, 21.9254, 26.0383, 22.1069, 26.0383, 21.9859, 26.1593, 19.8690, 25.7964, 15.9375, 24.7681, 12.0665, 21.5020, 8.0746, 18.0544, 3.1754, 15.5746, -2.0867, 12.1270, -6.0786, 8.1351, -10.9778]
y: [3.0215, 3.0215, -2.9139, -2.9139, 2.0794, -2.1602, 1.7968, -2.0659, 1.8910, -2.0659, 1.8910, -2.3486, 4.0579, -1.5007, 8.0148, 1.7968, 12.1602, 6.4132, 15.9287, 11.7833, 17.7187, 17.0592, 17.8129, 20.3567, 20.0740, 22.1467, 22.0525, 21.9583, 21.9583, 22.6178, 22.0525, 24.1252, 19.9798, 26.0094, 19.7914]
colour: [ORANGE, ORANGE, ORANGE, ORANGE, BLUE, YELLOW, BLUE, YELLOW, BLUE, YELLOW, BLUE, YELLOW, BLUE, YELLOW, BLUE, YELLOW, BLUE, YELLOW, BLUE, YELLOW, BLUE, YELLOW, BLUE, YELLOW, BLUE, YELLOW, BLUE, YELLOW, BLUE, YELLOW, BLUE, YELLOW, BLUE, YELLOW, BLUE]
---
header:
  seq: 36
  stamp:
    secs: 0
    nsecs:         0
  frame_id: "map"
x: [7.0464, 6.0786, 6.1391, 7.0464, 1.9657, 1.9657, 9.9496, 9.8891, 14.8488, 14.8488, 20.0504, 19.7480, 21.8649, 22.5302, 21.9254, 26.0383, 22.1069, 26.0383, 21.9859, 26.1593, 19.8690, 25.7964, 15.9375, 24.7681, 12.0665, 21.5020, 8.0746, 18.0544, 3.1754, 15.5746, -2.0867, 12.1270, -6.0786, 8.1351, -10.9778, 3.2359]
y: [3.0215, 3.0215, -2.9139, -2.9139, 2.0794, -2.1602, 1.7968, -2.0659, 1.8910, -2.0659, 1.8910, -2.3486, 4.0579, -1.5007, 8.0148, 1.7968, 12.1602, 6.4132, 15.9287, 11.7833, 17.7187, 17.0592, 17.8129, 20.3567, 20.0740, 22.1467, 22.0525, 21.9583, 21.9583, 22.6178, 22.0525, 24.1252, 19.9798, 26.0094, 19.7914, 26.2921]
colour: [ORANGE, ORANGE, ORANGE, ORANGE, BLUE, YELLOW, BLUE, YELLOW, BLUE, YELLOW, BLUE, YELLOW, BLUE, YELLOW, BLUE, YELLOW, BLUE, YELLOW, BLUE, YELLOW, BLUE, YELLOW, BLUE, YELLOW, BLUE, YELLOW, BLUE, YELLOW, BLUE, YELLOW, BLUE, YELLOW, BLUE, YELLOW, BLUE, YELLOW]
---
header:
  seq: 37
  stamp:
    secs: 0
    nsecs:         0
  frame_id: "map"
x: [7.0464, 6.0786, 6.1391, 7.0464, 1.9657, 1.9657, 9.9496, 9.8891, 14.8488, 14.8488, 20.0504, 19.7480, 21.8649, 22.5302, 21.9254, 26.0383, 22.1069, 26.0383, 21.9859, 26.1593, 19.8690, 25.7964, 15.9375, 24.7681, 12.0665, 21.5020, 8.0746, 18.0544, 3.1754, 15.5746, -2.0867, 12.1270, -6.0786, 8.1351, -10.9778, 3.2359, -13.0343]
y: [3.0215, 3.0215, -2.9139, -2.9139, 2.0794, -2.1602, 1.7968, -2.0659, 1.8910, -2.0659, 1.8910, -2.3486, 4.0579, -1.5007, 8.0148, 1.7968, 12.1602, 6.4132, 15.9287, 11.7833, 17.7187, 17.0592, 17.8129, 20.3567, 20.0740, 22.1467, 22.0525, 21.9583, 21.9583, 22.6178, 22.0525, 24.1252, 19.9798, 26.0094, 19.7914, 26.2921, 17.1534]
colour: [ORANGE, ORANGE, ORANGE, ORANGE, BLUE, YELLOW, BLUE, YELLOW, BLUE, YELLOW, BLUE, YELLOW, BLUE, YELLOW, BLUE, YELLOW, BLUE, YELLOW, BLUE, YELLOW, BLUE, YELLOW, BLUE, YELLOW, BLUE, YELLOW, BLUE, YELLOW, BLUE, YELLOW, BLUE, YELLOW, BLUE, YELLOW, BLUE, YELLOW, BLUE]
---
header:
  seq: 38
  stamp:
    secs: 0
    nsecs:         0
  frame_id: "map"
x: [7.0464, 6.0786, 6.1391, 7.0464, 1.9657, 1.9657, 9.9496, 9.8891, 14.8488, 14.8488, 20.0504, 19.7480, 21.8649, 22.5302, 21.9254, 26.0383, 22.1069, 26.0383, 21.9859, 26.1593, 19.8690, 25.7964, 15.9375, 24.7681, 12.0665, 21.5020, 8.0746, 18.0544, 3.1754, 15.5746, -2.0867, 12.1270, -6.0786, 8.1351, -10.9778, 3.2359, -13.0343, -1.9657]
y: [3.0215, 3.0215, -2.9139, -2.9139, 2.0794, -2.1602, 1.7968, -2.0659, 1.8910, -2.0659, 1.8910, -2.3486, 4.0579, -1.5007, 8.0148, 1.7968, 12.1602, 6.4132, 15.9287, 11.7833, 17.7187, 17.0592, 17.8129, 20.3567, 20.0740, 22.1467, 22.0525, 21.9583, 21.9583, 22.6178, 22.0525, 24.1252, 19.9798, 26.0094, 19.7914, 26.2921, 17.1534, 26.4805]
colour: [ORANGE, ORANGE, ORANGE, ORANGE, BLUE, YELLOW, BLUE, YELLOW, BLUE, YELLOW, BLUE, YELLOW, BLUE, YELLOW, BLUE, YELLOW, BLUE, YELLOW, BLUE, YELLOW, BLUE, YELLOW, BLUE, YELLOW, BLUE, YELLOW, BLUE, YELLOW, BLUE, YELLOW, BLUE, YELLOW, BLUE, YELLOW, BLUE, YELLOW, BLUE, YELLOW]
---
header:
  seq: 39
  stamp:
    secs: 0
    nsecs:         0
  frame_id: "map"
x: [7.0464, 6.0786, 6.1391, 7.0464, 1.9657, 1.9657, 9.9496, 9.8891, 14.8488, 14.8488, 20.0504, 19.7480, 21.8649, 22.5302, 21.9254, 26.0383, 22.1069, 26.0383, 21.9859, 26.1593, 19.8690, 25.7964, 15.9375, 24.7681, 12.0665, 21.5020, 8.0746, 18.0544, 3.1754, 15.5746, -2.0867, 12.1270, -6.0786, 8.1351, -10.9778, 3.2359, -13.0343, -1.9657, -12.0060]
y: [3.0215, 3.0215, -2.9139, -2.9139, 2.0794, -2.1602, 1.7968, -2.0659, 1.8910, -2.0659, 1.8910, -2.3486, 4.0579, -1.5007, 8.0148, 1.7968, 12.1602, 6.4132, 15.9287, 11.7833, 17.7187, 17.0592, 17.8129, 20.3567, 20.0740, 22.1467, 22.0525, 21.9583, 21.9583, 22.6178, 22.0525, 24.1252, 19.9798, 26.0094, 19.7914, 26.2921, 17.1534, 26.4805, 11.9717]
colour: [ORANGE, ORANGE, ORANGE, ORANGE, BLUE, YELLOW, BLUE, YELLOW, BLUE, YELLOW, BLUE, YELLOW, BLUE, YELLOW, BLUE, YELLOW, BLUE, YELLOW, BLUE, YELLOW, BLUE, YELLOW, BLUE, YELLOW, BLUE, YELLOW, BLUE, YELLOW, BLUE, YELLOW, BLUE, YELLOW, BLUE, YELLOW, BLUE, YELLOW, BLUE, YELLOW, BLUE]
---
header:
  seq: 40
  stamp:
    secs: 0
    nsecs:         0
  frame_id: "map"
x: [7.0464, 6.0786, 6.1391, 7.0464, 1.9657, 1.9657, 9.9496, 9.8891, 14.8488, 14.8488, 20.0504, 19.7480, 21.8649, 22.5302, 21.9254, 26.0383, 22.1069, 26.0383, 21.9859, 26.1593, 19.8690, 25.7964, 15.9375, 24.7681, 12.0665, 21.5020, 8.0746, 18.0544, 3.1754, 15.5746, -2.0867, 12.1270, -6.0786, 8.1351, -10.9778, 3.2359, -13.0343, -1.9657, -12.0060, -5.6552]
y: [3.0215, 3.0215, -2.9139, -2.9139, 2.0794, -2.1602, 1.7968, -2.0659, 1.8910, -2.0659, 1.8910, -2.3486, 4.0579, -1.5007, 8.0148, 1.7968, 12.1602, 6.4132, 15.9287, 11.7833, 17.7187, 17.0592, 17.8129, 20.3567, 20.0740, 22.1467, 22.0525, 21.9583, 21.9583, 22.6178, 22.0525, 24.1252, 19.9798, 26.0094, 19.7914, 26.2921, 17.1534, 26.4805, 11.9717, 24.8789]
colour: [ORANGE, ORANGE, ORANGE, ORANGE, BLUE, YELLOW, BLUE, YELLOW, BLUE, YELLOW, BLUE, YELLOW, BLUE, YELLOW, BLUE, YELLOW, BLUE, YELLOW, BLUE, YELLOW, BLUE, YELLOW, BLUE, YELLOW, BLUE, YELLOW, BLUE, YELLOW, BLUE, YELLOW, BLUE, YELLOW, BLUE, YELLOW, BLUE, YELLOW, BLUE, YELLOW, BLUE, YELLOW]
---
header:
  seq: 41
  stamp:
    secs: 0
    nsecs:         0
  frame_id: "map"
x: [7.0464, 6.0786, 6.1391, 7.0464, 1.9657, 1.9657, 9.9496, 9.8891, 14.8488, 14.8488, 20.0504, 19.7480, 21.8649, 22.5302, 21.9254, 26.0383, 22.1069, 26.0383, 21.9859, 26.1593, 19.8690, 25.7964, 15.9375, 24.7681, 12.0665, 21.5020, 8.0746, 18.0544, 3.1754, 15.5746, -2.0867, 12.1270, -6.0786, 8.1351, -10.9778, 3.2359, -13.0343, -1.9657, -12.0060, -5.6552, -12.0060]
y: [3.0215, 3.0215, -2.9139, -2.9139, 2.0794, -2.1602, 1.7968, -2.0659, 1.8910, -2.0659, 1.8910, -2.3486, 4.0579, -1.5007, 8.0148, 1.7968, 12.1602, 6.4132, 15.9287, 11.7833, 17.7187, 17.0592, 17.8129, 20.3567, 20.0740, 22.1467, 22.0525, 21.9583, 21.9583, 22.6178, 22.0525, 24.1252, 19.9798, 26.0094, 19.7914, 26.2921, 17.1534, 26.4805, 11.9717, 24.8789, 6.9785]
colour: [ORANGE, ORANGE, ORANGE, ORANGE, BLUE, YELLOW, BLUE, YELLOW, BLUE, YELLOW, BLUE, YELLOW, BLUE, YELLOW, BLUE, YELLOW, BLUE, YELLOW, BLUE, YELLOW, BLUE, YELLOW, BLUE, YELLOW, BLUE, YELLOW, BLUE, YELLOW, BLUE, YELLOW, BLUE, YELLOW, BLUE, YELLOW, BLUE, YELLOW, BLUE, YELLOW, BLUE, YELLOW, BLUE]
---
header:
  seq: 42
  stamp:
    secs: 0
    nsecs:         0
  frame_id: "map"
x: [7.0464, 6.0786, 6.1391, 7.0464, 1.9657, 1.9657, 9.9496, 9.8891, 14.8488, 14.8488, 20.0504, 19.7480, 21.8649, 22.5302, 21.9254, 26.0383, 22.1069, 26.0383, 21.9859, 26.1593, 19.8690, 25.7964, 15.9375, 24.7681, 12.0665, 21.5020, 8.0746, 18.0544, 3.1754, 15.5746, -2.0867, 12.1270, -6.0786, 8.1351, -10.9778, 3.2359, -13.0343, -1.9657, -12.0060, -5.6552, -12.0060, -10.9173]
y: [3.0215, 3.0215, -2.9139, -2.9139, 2.0794, -2.1602, 1.7968, -2.0659, 1.8910, -2.0659, 1.8910, -2.3486, 4.0579, -1.5007, 8.0148, 1.7968, 12.1602, 6.4132, 15.9287, 11.7833, 17.7187, 17.0592, 17.8129, 20.3567, 20.0740, 22.1467, 22.0525, 21.9583, 21.9583, 22.6178, 22.0525, 24.1252, 19.9798, 26.0094, 19.7914, 26.2921, 17.1534, 26.4805, 11.9717, 24.8789, 6.9785, 23.8425]
colour: [ORANGE, ORANGE, ORANGE, ORANGE, BLUE, YELLOW, BLUE, YELLOW, BLUE, YELLOW, BLUE, YELLOW, BLUE, YELLOW, BLUE, YELLOW, BLUE, YELLOW, BLUE, YELLOW, BLUE, YELLOW, BLUE, YELLOW, BLUE, YELLOW, BLUE, YELLOW, BLUE, YELLOW, BLUE, YELLOW, BLUE, YELLOW, BLUE, YELLOW, BLUE, YELLOW, BLUE, YELLOW, BLUE, YELLOW]
---
header:
  seq: 43
  stamp:
    secs: 0
    nsecs:         0
  frame_id: "map"
x: [7.0464, 6.0786, 6.1391, 7.0464, 1.9657, 1.9657, 9.9496, 9.8891, 14.8488, 14.8488, 20.0504, 19.7480, 21.8649, 22.5302, 21.9254, 26.0383, 22.1069, 26.0383, 21.9859, 26.1593, 19.8690, 25.7964, 15.9375, 24.7681, 12.0665, 21.5020, 8.0746, 18.0544, 3.1754, 15.5746, -2.0867, 12.1270, -6.0786, 8.1351, -10.9778, 3.2359, -13.0343, -1.9657, -12.0060, -5.6552, -12.0060, -10.9173, -10.0706]
y: [3.0215, 3.0215, -2.9139, -2.9139, 2.0794, -2.1602, 1.7968, -2.0659, 1.8910, -2.0659, 1.8910, -2.3486, 4.0579, -1.5007, 8.0148, 1.7968, 12.1602, 6.4132, 15.9287, 11.7833, 17.7187, 17.0592, 17.8129, 20.3567, 20.0740, 22.1467, 22.0525, 21.9583, 21.9583, 22.6178, 22.0525, 24.1252, 19.9798, 26.0094, 19.7914, 26.2921, 17.1534, 26.4805, 11.9717, 24.8789, 6.9785, 23.8425, 3.7752]
colour: [ORANGE, ORANGE, ORANGE, ORANGE, BLUE, YELLOW, BLUE, YELLOW, BLUE, YELLOW, BLUE, YELLOW, BLUE, YELLOW, BLUE, YELLOW, BLUE, YELLOW, BLUE, YELLOW, BLUE, YELLOW, BLUE, YELLOW, BLUE, YELLOW, BLUE, YELLOW, BLUE, YELLOW, BLUE, YELLOW, BLUE, YELLOW, BLUE, YELLOW, BLUE, YELLOW, BLUE, YELLOW, BLUE, YELLOW, BLUE]
---
header:
  seq: 44
  stamp:
    secs: 0
    nsecs:         0
  frame_id: "map"
x: [7.0464, 6.0786, 6.1391, 7.0464, 1.9657, 1.9657, 9.9496, 9.8891, 14.8488, 14.8488, 20.0504, 19.7480, 21.8649, 22.5302, 21.9254, 26.0383, 22.1069, 26.0383, 21.9859, 26.1593, 19.8690, 25.7964, 15.9375, 24.7681, 12.0665, 21.5020, 8.0746, 18.0544, 3.1754, 15.5746, -2.0867, 12.1270, -6.0786, 8.1351, -10.9778, 3.2359, -13.0343, -1.9657, -12.0060, -5.6552, -12.0060, -10.9173, -10.0706, -14.8488]
y: [3.0215, 3.0215, -2.9139, -2.9139, 2.0794, -2.1602, 1.7968, -2.0659, 1.8910, -2.0659, 1.8910, -2.3486, 4.0579, -1.5007, 8.0148, 1.7968, 12.1602, 6.4132, 15.9287, 11.7833, 17.7187, 17.0592, 17.8129, 20.3567, 20.0740, 22.1467, 22.0525, 21.9583, 21.9583, 22.6178, 22.0525, 24.1252, 19.9798, 26.0094, 19.7914, 26.2921, 17.1534, 26.4805, 11.9717, 24.8789, 6.9785, 23.8425, 3.7752, 22.8062]
colour: [ORANGE, ORANGE, ORANGE, ORANGE, BLUE, YELLOW, BLUE, YELLOW, BLUE, YELLOW, BLUE, YELLOW, BLUE, YELLOW, BLUE, YELLOW, BLUE, YELLOW, BLUE, YELLOW, BLUE, YELLOW, BLUE, YELLOW, BLUE, YELLOW, BLUE, YELLOW, BLUE, YELLOW, BLUE, YELLOW, BLUE, YELLOW, BLUE, YELLOW, BLUE, YELLOW, BLUE, YELLOW, BLUE, YELLOW, BLUE, YELLOW]
---
header:
  seq: 45
  stamp:
    secs: 0
    nsecs:         0
  frame_id: "map"
x: [7.0464, 6.0786, 6.1391, 7.0464, 1.9657, 1.9657, 9.9496, 9.8891, 14.8488, 14.8488, 20.0504, 19.7480, 21.8649, 22.5302, 21.9254, 26.0383, 22.1069, 26.0383, 21.9859, 26.1593, 19.8690, 25.7964, 15.9375, 24.7681, 12.0665, 21.5020, 8.0746, 18.0544, 3.1754, 15.5746, -2.0867, 12.1270, -6.0786, 8.1351, -10.9778, 3.2359, -13.0343, -1.9657, -12.0060, -5.6552, -12.0060, -10.9173, -10.0706, -14.8488, -7.8931]
y: [3.0215, 3.0215, -2.9139, -2.9139, 2.0794, -2.1602, 1.7968, -2.0659, 1.8910, -2.0659, 1.8910, -2.3486, 4.0579, -1.5007, 8.0148, 1.7968, 12.1602, 6.4132, 15.9287, 11.7833, 17.7187, 17.0592, 17.8129, 20.3567, 20.0740, 22.1467, 22.0525, 21.9583, 21.9583, 22.6178, 22.0525, 24.1252, 19.9798, 26.0094, 19.7914, 26.2921, 17.1534, 26.4805, 11.9717, 24.8789, 6.9785, 23.8425, 3.7752, 22.8062, 1.8910]
colour: [ORANGE, ORANGE, ORANGE, ORANGE, BLUE, YELLOW, BLUE, YELLOW, BLUE, YELLOW, BLUE, YELLOW, BLUE, YELLOW, BLUE, YELLOW, BLUE, YELLOW, BLUE, YELLOW, BLUE, YELLOW, BLUE, YELLOW, BLUE, YELLOW, BLUE, YELLOW, BLUE, YELLOW, BLUE, YELLOW, BLUE, YELLOW, BLUE, YELLOW, BLUE, YELLOW, BLUE, YELLOW, BLUE, YELLOW, BLUE, YELLOW, BLUE]
---
header:
  seq: 46
  stamp:
    secs: 0
    nsecs:         0
  frame_id: "map"
x: [7.0464, 6.0786, 6.1391, 7.0464, 1.9657, 1.9657, 9.9496, 9.8891, 14.8488, 14.8488, 20.0504, 19.7480, 21.8649, 22.5302, 21.9254, 26.0383, 22.1069, 26.0383, 21.9859, 26.1593, 19.8690, 25.7964, 15.9375, 24.7681, 12.0665, 21.5020, 8.0746, 18.0544, 3.1754, 15.5746, -2.0867, 12.1270, -6.0786, 8.1351, -10.9778, 3.2359, -13.0343, -1.9657, -12.0060, -5.6552, -12.0060, -10.9173, -10.0706, -14.8488, -7.8931, -16.6633]
y: [3.0215, 3.0215, -2.9139, -2.9139, 2.0794, -2.1602, 1.7968, -2.0659, 1.8910, -2.0659, 1.8910, -2.3486, 4.0579, -1.5007, 8.0148, 1.7968, 12.1602, 6.4132, 15.9287, 11.7833, 17.7187, 17.0592, 17.8129, 20.3567, 20.0740, 22.1467, 22.0525, 21.9583, 21.9583, 22.6178, 22.0525, 24.1252, 19.9798, 26.0094, 19.7914, 26.2921, 17.1534, 26.4805, 11.9717, 24.8789, 6.9785, 23.8425, 3.7752, 22.8062, 1.8910, 18.2840]
colour: [ORANGE, ORANGE, ORANGE, ORANGE, BLUE, YELLOW, BLUE, YELLOW, BLUE, YELLOW, BLUE, YELLOW, BLUE, YELLOW, BLUE, YELLOW, BLUE, YELLOW, BLUE, YELLOW, BLUE, YELLOW, BLUE, YELLOW, BLUE, YELLOW, BLUE, YELLOW, BLUE, YELLOW, BLUE, YELLOW, BLUE, YELLOW, BLUE, YELLOW, BLUE, YELLOW, BLUE, YELLOW, BLUE, YELLOW, BLUE, YELLOW, BLUE, YELLOW]
---
header:
  seq: 47
  stamp:
    secs: 0
    nsecs:         0
  frame_id: "map"
x: [7.0464, 6.0786, 6.1391, 7.0464, 1.9657, 1.9657, 9.9496, 9.8891, 14.8488, 14.8488, 20.0504, 19.7480, 21.8649, 22.5302, 21.9254, 26.0383, 22.1069, 26.0383, 21.9859, 26.1593, 19.8690, 25.7964, 15.9375, 24.7681, 12.0665, 21.5020, 8.0746, 18.0544, 3.1754, 15.5746, -2.0867, 12.1270, -6.0786, 8.1351, -10.9778, 3.2359, -13.0343, -1.9657, -12.0060, -5.6552, -12.0060, -10.9173, -10.0706, -14.8488, -7.8931, -16.6633, -3.0544]
y: [3.0215, 3.0215, -2.9139, -2.9139, 2.0794, -2.1602, 1.7968, -2.0659, 1.8910, -2.0659, 1.8910, -2.3486, 4.0579, -1.5007, 8.0148, 1.7968, 12.1602, 6.4132, 15.9287, 11.7833, 17.7187, 17.0592, 17.8129, 20.3567, 20.0740, 22.1467, 22.0525, 21.9583, 21.9583, 22.6178, 22.0525, 24.1252, 19.9798, 26.0094, 19.7914, 26.2921, 17.1534, 26.4805, 11.9717, 24.8789, 6.9785, 23.8425, 3.7752, 22.8062, 1.8910, 18.2840, 1.7968]
colour: [ORANGE, ORANGE, ORANGE, ORANGE, BLUE, YELLOW, BLUE, YELLOW, BLUE, YELLOW, BLUE, YELLOW, BLUE, YELLOW, BLUE, YELLOW, BLUE, YELLOW, BLUE, YELLOW, BLUE, YELLOW, BLUE, YELLOW, BLUE, YELLOW, BLUE, YELLOW, BLUE, YELLOW, BLUE, YELLOW, BLUE, YELLOW, BLUE, YELLOW, BLUE, YELLOW, BLUE, YELLOW, BLUE, YELLOW, BLUE, YELLOW, BLUE, YELLOW, BLUE]
---
header:
  seq: 48
  stamp:
    secs: 0
    nsecs:         0
  frame_id: "map"
x: [7.0464, 6.0786, 6.1391, 7.0464, 1.9657, 1.9657, 9.9496, 9.8891, 14.8488, 14.8488, 20.0504, 19.7480, 21.8649, 22.5302, 21.9254, 26.0383, 22.1069, 26.0383, 21.9859, 26.1593, 19.8690, 25.7964, 15.9375, 24.7681, 12.0665, 21.5020, 8.0746, 18.0544, 3.1754, 15.5746, -2.0867, 12.1270, -6.0786, 8.1351, -10.9778, 3.2359, -13.0343, -1.9657, -12.0060, -5.6552, -12.0060, -10.9173, -10.0706, -14.8488, -7.8931, -16.6633, -3.0544, -16.0585]
y: [3.0215, 3.0215, -2.9139, -2.9139, 2.0794, -2.1602, 1.7968, -2.0659, 1.8910, -2.0659, 1.8910, -2.3486, 4.0579, -1.5007, 8.0148, 1.7968, 12.1602, 6.4132, 15.9287, 11.7833, 17.7187, 17.0592, 17.8129, 20.3567, 20.0740, 22.1467, 22.0525, 21.9583, 21.9583, 22.6178, 22.0525, 24.1252, 19.9798, 26.0094, 19.7914, 26.2921, 17.1534, 26.4805, 11.9717, 24.8789, 6.9785, 23.8425, 3.7752, 22.8062, 1.8910, 18.2840, 1.7968, 11.7833]
colour: [ORANGE, ORANGE, ORANGE, ORANGE, BLUE, YELLOW, BLUE, YELLOW, BLUE, YELLOW, BLUE, YELLOW, BLUE, YELLOW, BLUE, YELLOW, BLUE, YELLOW, BLUE, YELLOW, BLUE, YELLOW, BLUE, YELLOW, BLUE, YELLOW, BLUE, YELLOW, BLUE, YELLOW, BLUE, YELLOW, BLUE, YELLOW, BLUE, YELLOW, BLUE, YELLOW, BLUE, YELLOW, BLUE, YELLOW, BLUE, YELLOW, BLUE, YELLOW, BLUE, YELLOW]
---
header:
  seq: 49
  stamp:
    secs: 0
    nsecs:         0
  frame_id: "map"
x: [7.0464, 6.0786, 6.1391, 7.0464, 1.9657, 1.9657, 9.9496, 9.8891, 14.8488, 14.8488, 20.0504, 19.7480, 21.8649, 22.5302, 21.9254, 26.0383, 22.1069, 26.0383, 21.9859, 26.1593, 19.8690, 25.7964, 15.9375, 24.7681, 12.0665, 21.5020, 8.0746, 18.0544, 3.1754, 15.5746, -2.0867, 12.1270, -6.0786, 8.1351, -10.9778, 3.2359, -13.0343, -1.9657, -12.0060, -5.6552, -12.0060, -10.9173, -10.0706, -14.8488, -7.8931, -16.6633, -3.0544, -16.0585, 29.8848]
y: [3.0215, 3.0215, -2.9139, -2.9139, 2.0794, -2.1602, 1.7968, -2.0659, 1.8910, -2.0659, 1.8910, -2.3486, 4.0579, -1.5007, 8.0148, 1.7968, 12.1602, 6.4132, 15.9287, 11.7833, 17.7187, 17.0592, 17.8129, 20.3567, 20.0740, 22.1467, 22.0525, 21.9583, 21.9583, 22.6178, 22.0525, 24.1252, 19.9798, 26.0094, 19.7914, 26.2921, 17.1534, 26.4805, 11.9717, 24.8789, 6.9785, 23.8425, 3.7752, 22.8062, 1.8910, 18.2840, 1.7968, 11.7833, -4.8979]
colour: [ORANGE, ORANGE, ORANGE, ORANGE, BLUE, YELLOW, BLUE, YELLOW, BLUE, YELLOW, BLUE, YELLOW, BLUE, YELLOW, BLUE, YELLOW, BLUE, YELLOW, BLUE, YELLOW, BLUE, YELLOW, BLUE, YELLOW, BLUE, YELLOW, BLUE, YELLOW, BLUE, YELLOW, BLUE, YELLOW, BLUE, YELLOW, BLUE, YELLOW, BLUE, YELLOW, BLUE, YELLOW, BLUE, YELLOW, BLUE, YELLOW, BLUE, YELLOW, BLUE, YELLOW, BLUE]
---
header:
  seq: 50
  stamp:
    secs: 0
    nsecs:         0
  frame_id: "map"
x: [7.0464, 6.0786, 6.1391, 7.0464, 1.9657, 1.9657, 9.9496, 9.8891, 14.8488, 14.8488, 20.0504, 19.7480, 21.8649, 22.5302, 21.9254, 26.0383, 22.1069, 26.0383, 21.9859, 26.1593, 19.8690, 25.7964, 15.9375, 24.7681, 12.0665, 21.5020, 8.0746, 18.0544, 3.1754, 15.5746, -2.0867, 12.1270, -6.0786, 8.1351, -10.9778, 3.2359, -13.0343, -1.9657, -12.0060, -5.6552, -12.0060, -10.9173, -10.0706, -14.8488, -7.8931, -16.6633, -3.0544, -16.0585, 29.8848, -15.7560]
y: [3.0215, 3.0215, -2.9139, -2.9139, 2.0794, -2.1602, 1.7968, -2.0659, 1.8910, -2.0659, 1.8910, -2.3486, 4.0579, -1.5007, 8.0148, 1.7968, 12.1602, 6.4132, 15.9287, 11.7833, 17.7187, 17.0592, 17.8129, 20.3567, 20.0740, 22.1467, 22.0525, 21.9583, 21.9583, 22.6178, 22.0525, 24.1252, 19.9798, 26.0094, 19.7914, 26.2921, 17.1534, 26.4805, 11.9717, 24.8789, 6.9785, 23.8425, 3.7752, 22.8062, 1.8910, 18.2840, 1.7968, 11.7833, -4.8979, 6.9785]
colour: [ORANGE, ORANGE, ORANGE, ORANGE, BLUE, YELLOW, BLUE, YELLOW, BLUE, YELLOW, BLUE, YELLOW, BLUE, YELLOW, BLUE, YELLOW, BLUE, YELLOW, BLUE, YELLOW, BLUE, YELLOW, BLUE, YELLOW, BLUE, YELLOW, BLUE, YELLOW, BLUE, YELLOW, BLUE, YELLOW, BLUE, YELLOW, BLUE, YELLOW, BLUE, YELLOW, BLUE, YELLOW, BLUE, YELLOW, BLUE, YELLOW, BLUE, YELLOW, BLUE, YELLOW, BLUE, YELLOW]
---
header:
  seq: 51
  stamp:
    secs: 0
    nsecs:         0
  frame_id: "map"
x: [7.0464, 6.0786, 6.1391, 7.0464, 1.9657, 1.9657, 9.9496, 9.8891, 14.8488, 14.8488, 20.0504, 19.7480, 21.8649, 22.5302, 21.9254, 26.0383, 22.1069, 26.0383, 21.9859, 26.1593, 19.8690, 25.7964, 15.9375, 24.7681, 12.0665, 21.5020, 8.0746, 18.0544, 3.1754, 15.5746, -2.0867, 12.1270, -6.0786, 8.1351, -10.9778, 3.2359, -13.0343, -1.9657, -12.0060, -5.6552, -12.0060, -10.9173, -10.0706, -14.8488, -7.8931, -16.6633, -3.0544, -16.0585, 29.8848, -15.7560, 30.6528]
y: [3.0215, 3.0215, -2.9139, -2.9139, 2.0794, -2.1602, 1.7968, -2.0659, 1.8910, -2.0659, 1.8910, -2.3486, 4.0579, -1.5007, 8.0148, 1.7968, 12.1602, 6.4132, 15.9287, 11.7833, 17.7187, 17.0592, 17.8129, 20.3567, 20.0740, 22.1467, 22.0525, 21.9583, 21.9583, 22.6178, 22.0525, 24.1252, 19.9798, 26.0094, 19.7914, 26.2921, 17.1534, 26.4805, 11.9717, 24.8789, 6.9785, 23.8425, 3.7752, 22.8062, 1.8910, 18.2840, 1.7968, 11.7833, -4.8979, 6.9785, -3.1274]
colour: [ORANGE, ORANGE, ORANGE, ORANGE, BLUE, YELLOW, BLUE, YELLOW, BLUE, YELLOW, BLUE, YELLOW, BLUE, YELLOW, BLUE, YELLOW, BLUE, YELLOW, BLUE, YELLOW, BLUE, YELLOW, BLUE, YELLOW, BLUE, YELLOW, BLUE, YELLOW, BLUE, YELLOW, BLUE, YELLOW, BLUE, YELLOW, BLUE, YELLOW, BLUE, YELLOW, BLUE, YELLOW, BLUE, YELLOW, BLUE, YELLOW, BLUE, YELLOW, BLUE, YELLOW, BLUE, YELLOW, BLUE]
---
header:
  seq: 52
  stamp:
    secs: 0
    nsecs:         0
  frame_id: "map"
x: [7.0464, 6.0786, 6.1391, 7.0464, 1.9657, 1.9657, 9.9496, 9.8891, 14.8488, 14.8488, 20.0504, 19.7480, 21.8649, 22.5302, 21.9254, 26.0383, 22.1069, 26.0383, 21.9859, 26.1593, 19.8690, 25.7964, 15.9375, 24.7681, 12.0665, 21.5020, 8.0746, 18.0544, 3.1754, 15.5746, -2.0867, 12.1270, -6.0786, 8.1351, -10.9778, 3.2359, -13.0343, -1.9657, -12.0060, -5.6552, -12.0060, -10.9173, -10.0706, -14.8488, -7.8931, -16.6633, -3.0544, -16.0585, 29.8848, -15.7560, 30.6528, -14.0020]
y: [3.0215, 3.0215, -2.9139, -2.9139, 2.0794, -2.1602, 1.7968, -2.0659, 1.8910, -2.0659, 1.8910, -2.3486, 4.0579, -1.5007, 8.0148, 1.7968, 12.1602, 6.4132, 15.9287, 11.7833, 17.7187, 17.0592, 17.8129, 20.3567, 20.0740, 22.1467, 22.0525, 21.9583, 21.9583, 22.6178, 22.0525, 24.1252, 19.9798, 26.0094, 19.7914, 26.2921, 17.1534, 26.4805, 11.9717, 24.8789, 6.9785, 23.8425, 3.7752, 22.8062, 1.8910, 18.2840, 1.7968, 11.7833, -4.8979, 6.9785, -3.1274, 3.8694]
colour: [ORANGE, ORANGE, ORANGE, ORANGE, BLUE, YELLOW, BLUE, YELLOW, BLUE, YELLOW, BLUE, YELLOW, BLUE, YELLOW, BLUE, YELLOW, BLUE, YELLOW, BLUE, YELLOW, BLUE, YELLOW, BLUE, YELLOW, BLUE, YELLOW, BLUE, YELLOW, BLUE, YELLOW, BLUE, YELLOW, BLUE, YELLOW, BLUE, YELLOW, BLUE, YELLOW, BLUE, YELLOW, BLUE, YELLOW, BLUE, YELLOW, BLUE, YELLOW, BLUE, YELLOW, BLUE, YELLOW, BLUE, YELLOW]
---
header:
  seq: 53
  stamp:
    secs: 0
    nsecs:         0
  frame_id: "map"
x: [7.0464, 6.0786, 6.1391, 7.0464, 1.9657, 1.9657, 9.9496, 9.8891, 14.8488, 14.8488, 20.0504, 19.7480, 21.8649, 22.5302, 21.9254, 26.0383, 22.1069, 26.0383, 21.9859, 26.1593, 19.8690, 25.7964, 15.9375, 24.7681, 12.0665, 21.5020, 8.0746, 18.0544, 3.1754, 15.5746, -2.0867, 12.1270, -6.0786, 8.1351, -10.9778, 3.2359, -13.0343, -1.9657, -12.0060, -5.6552, -12.0060, -10.9173, -10.0706, -14.8488, -7.8931, -16.6633, -3.0544, -16.0585, 29.8848, -15.7560, 30.6528, -14.0020, -17.4270]
y: [3.0215, 3.0215, -2.9139, -2.9139, 2.0794, -2.1602, 1.7968, -2.0659, 1.8910, -2.0659, 1.8910, -2.3486, 4.0579, -1.5007, 8.0148, 1.7968, 12.1602, 6.4132, 15.9287, 11.7833, 17.7187, 17.0592, 17.8129, 20.3567, 20.0740, 22.1467, 22.0525, 21.9583, 21.9583, 22.6178, 22.0525, 24.1252, 19.9798, 26.0094, 19.7914, 26.2921, 17.1534, 26.4805, 11.9717, 24.8789, 6.9785, 23.8425, 3.7752, 22.8062, 1.8910, 18.2840, 1.7968, 11.7833, -4.8979, 6.9785, -3.1274, 3.8694, -4.6255]
colour: [ORANGE, ORANGE, ORANGE, ORANGE, BLUE, YELLOW, BLUE, YELLOW, BLUE, YELLOW, BLUE, YELLOW, BLUE, YELLOW, BLUE, YELLOW, BLUE, YELLOW, BLUE, YELLOW, BLUE, YELLOW, BLUE, YELLOW, BLUE, YELLOW, BLUE, YELLOW, BLUE, YELLOW, BLUE, YELLOW, BLUE, YELLOW, BLUE, YELLOW, BLUE, YELLOW, BLUE, YELLOW, BLUE, YELLOW, BLUE, YELLOW, BLUE, YELLOW, BLUE, YELLOW, BLUE, YELLOW, BLUE, YELLOW, BLUE]
---
header:
  seq: 54
  stamp:
    secs: 0
    nsecs:         0
  frame_id: "map"
x: [7.0464, 6.0786, 6.1391, 7.0464, 1.9657, 1.9657, 9.9496, 9.8891, 14.8488, 14.8488, 20.0504, 19.7480, 21.8649, 22.5302, 21.9254, 26.0383, 22.1069, 26.0383, 21.9859, 26.1593, 19.8690, 25.7964, 15.9375, 24.7681, 12.0665, 21.5020, 8.0746, 18.0544, 3.1754, 15.5746, -2.0867, 12.1270, -6.0786, 8.1351, -10.9778, 3.2359, -13.0343, -1.9657, -12.0060, -5.6552, -12.0060, -10.9173, -10.0706, -14.8488, -7.8931, -16.6633, -3.0544, -16.0585, 29.8848, -15.7560, 30.6528, -14.0020, -17.4270, -12.7923]
y: [3.0215, 3.0215, -2.9139, -2.9139, 2.0794, -2.1602, 1.7968, -2.0659, 1.8910, -2.0659, 1.8910, -2.3486, 4.0579, -1.5007, 8.0148, 1.7968, 12.1602, 6.4132, 15.9287, 11.7833, 17.7187, 17.0592, 17.8129, 20.3567, 20.0740, 22.1467, 22.0525, 21.9583, 21.9583, 22.6178, 22.0525, 24.1252, 19.9798, 26.0094, 19.7914, 26.2921, 17.1534, 26.4805, 11.9717, 24.8789, 6.9785, 23.8425, 3.7752, 22.8062, 1.8910, 18.2840, 1.7968, 11.7833, -4.8979, 6.9785, -3.1274, 3.8694, -4.6255, 0.1009]
colour: [ORANGE, ORANGE, ORANGE, ORANGE, BLUE, YELLOW, BLUE, YELLOW, BLUE, YELLOW, BLUE, YELLOW, BLUE, YELLOW, BLUE, YELLOW, BLUE, YELLOW, BLUE, YELLOW, BLUE, YELLOW, BLUE, YELLOW, BLUE, YELLOW, BLUE, YELLOW, BLUE, YELLOW, BLUE, YELLOW, BLUE, YELLOW, BLUE, YELLOW, BLUE, YELLOW, BLUE, YELLOW, BLUE, YELLOW, BLUE, YELLOW, BLUE, YELLOW, BLUE, YELLOW, BLUE, YELLOW, BLUE, YELLOW, BLUE, YELLOW]
---
header:
  seq: 55
  stamp:
    secs: 0
    nsecs:         0
  frame_id: "map"
x: [7.0464, 6.0786, 6.1391, 7.0464, 1.9657, 1.9657, 9.9496, 9.8891, 14.8488, 14.8488, 20.0504, 19.7480, 21.8649, 22.5302, 21.9254, 26.0383, 22.1069, 26.0383, 21.9859, 26.1593, 19.8690, 25.7964, 15.9375, 24.7681, 12.0665, 21.5020, 8.0746, 18.0544, 3.1754, 15.5746, -2.0867, 12.1270, -6.0786, 8.1351, -10.9778, 3.2359, -13.0343, -1.9657, -12.0060, -5.6552, -12.0060, -10.9173, -10.0706, -14.8488, -7.8931, -16.6633, -3.0544, -16.0585, 29.8848, -15.7560, 30.6528, -14.0020, -17.4270, -12.7923, -16.7358]
y: [3.0215, 3.0215, -2.9139, -2.9139, 2.0794, -2.1602, 1.7968, -2.0659, 1.8910, -2.0659, 1.8910, -2.3486, 4.0579, -1.5007, 8.0148, 1.7968, 12.1602, 6.4132, 15.9287, 11.7833, 17.7187, 17.0592, 17.8129, 20.3567, 20.0740, 22.1467, 22.0525, 21.9583, 21.9583, 22.6178, 22.0525, 24.1252, 19.9798, 26.0094, 19.7914, 26.2921, 17.1534, 26.4805, 11.9717, 24.8789, 6.9785, 23.8425, 3.7752, 22.8062, 1.8910, 18.2840, 1.7968, 11.7833, -4.8979, 6.9785, -3.1274, 3.8694, -4.6255, 0.1009, -5.1702]
colour: [ORANGE, ORANGE, ORANGE, ORANGE, BLUE, YELLOW, BLUE, YELLOW, BLUE, YELLOW, BLUE, YELLOW, BLUE, YELLOW, BLUE, YELLOW, BLUE, YELLOW, BLUE, YELLOW, BLUE, YELLOW, BLUE, YELLOW, BLUE, YELLOW, BLUE, YELLOW, BLUE, YELLOW, BLUE, YELLOW, BLUE, YELLOW, BLUE, YELLOW, BLUE, YELLOW, BLUE, YELLOW, BLUE, YELLOW, BLUE, YELLOW, BLUE, YELLOW, BLUE, YELLOW, BLUE, YELLOW, BLUE, YELLOW, BLUE, YELLOW, BLUE]
---
header:
  seq: 56
  stamp:
    secs: 0
    nsecs:         0
  frame_id: "map"
x: [7.0464, 6.0786, 6.1391, 7.0464, 1.9657, 1.9657, 9.9496, 9.8891, 14.8488, 14.8488, 20.0504, 19.7480, 21.8649, 22.5302, 21.9254, 26.0383, 22.1069, 26.0383, 21.9859, 26.1593, 19.8690, 25.7964, 15.9375, 24.7681, 12.0665, 21.5020, 8.0746, 18.0544, 3.1754, 15.5746, -2.0867, 12.1270, -6.0786, 8.1351, -10.9778, 3.2359, -13.0343, -1.9657, -12.0060, -5.6552, -12.0060, -10.9173, -10.0706, -14.8488, -7.8931, -16.6633, -3.0544, -16.0585, 29.8848, -15.7560, 30.6528, -14.0020, -17.4270, -12.7923, -16.7358, -10.4335]
y: [3.0215, 3.0215, -2.9139, -2.9139, 2.0794, -2.1602, 1.7968, -2.0659, 1.8910, -2.0659, 1.8910, -2.3486, 4.0579, -1.5007, 8.0148, 1.7968, 12.1602, 6.4132, 15.9287, 11.7833, 17.7187, 17.0592, 17.8129, 20.3567, 20.0740, 22.1467, 22.0525, 21.9583, 21.9583, 22.6178, 22.0525, 24.1252, 19.9798, 26.0094, 19.7914, 26.2921, 17.1534, 26.4805, 11.9717, 24.8789, 6.9785, 23.8425, 3.7752, 22.8062, 1.8910, 18.2840, 1.7968, 11.7833, -4.8979, 6.9785, -3.1274, 3.8694, -4.6255, 0.1009, -5.1702, -2.3486]
colour: [ORANGE, ORANGE, ORANGE, ORANGE, BLUE, YELLOW, BLUE, YELLOW, BLUE, YELLOW, BLUE, YELLOW, BLUE, YELLOW, BLUE, YELLOW, BLUE, YELLOW, BLUE, YELLOW, BLUE, YELLOW, BLUE, YELLOW, BLUE, YELLOW, BLUE, YELLOW, BLUE, YELLOW, BLUE, YELLOW, BLUE, YELLOW, BLUE, YELLOW, BLUE, YELLOW, BLUE, YELLOW, BLUE, YELLOW, BLUE, YELLOW, BLUE, YELLOW, BLUE, YELLOW, BLUE, YELLOW, BLUE, YELLOW, BLUE, YELLOW, BLUE, YELLOW]
---
header:
  seq: 57
  stamp:
    secs: 0
    nsecs:         0
  frame_id: "map"
x: [7.0464, 6.0786, 6.1391, 7.0464, 1.9657, 1.9657, 9.9496, 9.8891, 14.8488, 14.8488, 20.0504, 19.7480, 21.8649, 22.5302, 21.9254, 26.0383, 22.1069, 26.0383, 21.9859, 26.1593, 19.8690, 25.7964, 15.9375, 24.7681, 12.0665, 21.5020, 8.0746, 18.0544, 3.1754, 15.5746, -2.0867, 12.1270, -6.0786, 8.1351, -10.9778, 3.2359, -13.0343, -1.9657, -12.0060, -5.6552, -12.0060, -10.9173, -10.0706, -14.8488, -7.8931, -16.6633, -3.0544, -16.0585, 29.8848, -15.7560, 30.6528, -14.0020, -17.4270, -12.7923, -16.7358, -10.4335, -15.8909]
y: [3.0215, 3.0215, -2.9139, -2.9139, 2.0794, -2.1602, 1.7968, -2.0659, 1.8910, -2.0659, 1.8910, -2.3486, 4.0579, -1.5007, 8.0148, 1.7968, 12.1602, 6.4132, 15.9287, 11.7833, 17.7187, 17.0592, 17.8129, 20.3567, 20.0740, 22.1467, 22.0525, 21.9583, 21.9583, 22.6178, 22.0525, 24.1252, 19.9798, 26.0094, 19.7914, 26.2921, 17.1534, 26.4805, 11.9717, 24.8789, 6.9785, 23.8425, 3.7752, 22.8062, 1.8910, 18.2840, 1.7968, 11.7833, -4.8979, 6.9785, -3.1274, 3.8694, -4.6255, 0.1009, -5.1702, -2.3486, -6.1235]
colour: [ORANGE, ORANGE, ORANGE, ORANGE, BLUE, YELLOW, BLUE, YELLOW, BLUE, YELLOW, BLUE, YELLOW, BLUE, YELLOW, BLUE, YELLOW, BLUE, YELLOW, BLUE, YELLOW, BLUE, YELLOW, BLUE, YELLOW, BLUE, YELLOW, BLUE, YELLOW, BLUE, YELLOW, BLUE, YELLOW, BLUE, YELLOW, BLUE, YELLOW, BLUE, YELLOW, BLUE, YELLOW, BLUE, YELLOW, BLUE, YELLOW, BLUE, YELLOW, BLUE, YELLOW, BLUE, YELLOW, BLUE, YELLOW, BLUE, YELLOW, BLUE, YELLOW, BLUE]
---
header:
  seq: 58
  stamp:
    secs: 0
    nsecs:         0
  frame_id: "map"
x: [7.0464, 6.0786, 6.1391, 7.0464, 1.9657, 1.9657, 9.9496, 9.8891, 14.8488, 14.8488, 20.0504, 19.7480, 21.8649, 22.5302, 21.9254, 26.0383, 22.1069, 26.0383, 21.9859, 26.1593, 19.8690, 25.7964, 15.9375, 24.7681, 12.0665, 21.5020, 8.0746, 18.0544, 3.1754, 15.5746, -2.0867, 12.1270, -6.0786, 8.1351, -10.9778, 3.2359, -13.0343, -1.9657, -12.0060, -5.6552, -12.0060, -10.9173, -10.0706, -14.8488, -7.8931, -16.6633, -3.0544, -16.0585, 29.8848, -15.7560, 30.6528, -14.0020, -17.4270, -12.7923, -16.7358, -10.4335, -15.8909, -7.6512]
y: [3.0215, 3.0215, -2.9139, -2.9139, 2.0794, -2.1602, 1.7968, -2.0659, 1.8910, -2.0659, 1.8910, -2.3486, 4.0579, -1.5007, 8.0148, 1.7968, 12.1602, 6.4132, 15.9287, 11.7833, 17.7187, 17.0592, 17.8129, 20.3567, 20.0740, 22.1467, 22.0525, 21.9583, 21.9583, 22.6178, 22.0525, 24.1252, 19.9798, 26.0094, 19.7914, 26.2921, 17.1534, 26.4805, 11.9717, 24.8789, 6.9785, 23.8425, 3.7752, 22.8062, 1.8910, 18.2840, 1.7968, 11.7833, -4.8979, 6.9785, -3.1274, 3.8694, -4.6255, 0.1009, -5.1702, -2.3486, -6.1235, -2.3486]
colour: [ORANGE, ORANGE, ORANGE, ORANGE, BLUE, YELLOW, BLUE, YELLOW, BLUE, YELLOW, BLUE, YELLOW, BLUE, YELLOW, BLUE, YELLOW, BLUE, YELLOW, BLUE, YELLOW, BLUE, YELLOW, BLUE, YELLOW, BLUE, YELLOW, BLUE, YELLOW, BLUE, YELLOW, BLUE, YELLOW, BLUE, YELLOW, BLUE, YELLOW, BLUE, YELLOW, BLUE, YELLOW, BLUE, YELLOW, BLUE, YELLOW, BLUE, YELLOW, BLUE, YELLOW, BLUE, YELLOW, BLUE, YELLOW, BLUE, YELLOW, BLUE, YELLOW, BLUE, YELLOW]
---
header:
  seq: 59
  stamp:
    secs: 0
    nsecs:         0
  frame_id: "map"
x: [7.0464, 6.0786, 6.1391, 7.0464, 1.9657, 1.9657, 9.9496, 9.8891, 14.8488, 14.8488, 20.0504, 19.7480, 21.8649, 22.5302, 21.9254, 26.0383, 22.1069, 26.0383, 21.9859, 26.1593, 19.8690, 25.7964, 15.9375, 24.7681, 12.0665, 21.5020, 8.0746, 18.0544, 3.1754, 15.5746, -2.0867, 12.1270, -6.0786, 8.1351, -10.9778, 3.2359, -13.0343, -1.9657, -12.0060, -5.6552, -12.0060, -10.9173, -10.0706, -14.8488, -7.8931, -16.6633, -3.0544, -16.0585, 29.8848, -15.7560, 30.6528, -14.0020, -17.4270, -12.7923, -16.7358, -10.4335, -15.8909, -7.6512, -10.9754]
y: [3.0215, 3.0215, -2.9139, -2.9139, 2.0794, -2.1602, 1.7968, -2.0659, 1.8910, -2.0659, 1.8910, -2.3486, 4.0579, -1.5007, 8.0148, 1.7968, 12.1602, 6.4132, 15.9287, 11.7833, 17.7187, 17.0592, 17.8129, 20.3567, 20.0740, 22.1467, 22.0525, 21.9583, 21.9583, 22.6178, 22.0525, 24.1252, 19.9798, 26.0094, 19.7914, 26.2921, 17.1534, 26.4805, 11.9717, 24.8789, 6.9785, 23.8425, 3.7752, 22.8062, 1.8910, 18.2840, 1.7968, 11.7833, -4.8979, 6.9785, -3.1274, 3.8694, -4.6255, 0.1009, -5.1702, -2.3486, -6.1235, -2.3486, 29.6936]
colour: [ORANGE, ORANGE, ORANGE, ORANGE, BLUE, YELLOW, BLUE, YELLOW, BLUE, YELLOW, BLUE, YELLOW, BLUE, YELLOW, BLUE, YELLOW, BLUE, YELLOW, BLUE, YELLOW, BLUE, YELLOW, BLUE, YELLOW, BLUE, YELLOW, BLUE, YELLOW, BLUE, YELLOW, BLUE, YELLOW, BLUE, YELLOW, BLUE, YELLOW, BLUE, YELLOW, BLUE, YELLOW, BLUE, YELLOW, BLUE, YELLOW, BLUE, YELLOW, BLUE, YELLOW, BLUE, YELLOW, BLUE, YELLOW, BLUE, YELLOW, BLUE, YELLOW, BLUE, YELLOW, BLUE]
---
header:
  seq: 60
  stamp:
    secs: 0
    nsecs:         0
  frame_id: "map"
x: [7.0464, 6.0786, 6.1391, 7.0464, 1.9657, 1.9657, 9.9496, 9.8891, 14.8488, 14.8488, 20.0504, 19.7480, 21.8649, 22.5302, 21.9254, 26.0383, 22.1069, 26.0383, 21.9859, 26.1593, 19.8690, 25.7964, 15.9375, 24.7681, 12.0665, 21.5020, 8.0746, 18.0544, 3.1754, 15.5746, -2.0867, 12.1270, -6.0786, 8.1351, -10.9778, 3.2359, -13.0343, -1.9657, -12.0060, -5.6552, -12.0060, -10.9173, -10.0706, -14.8488, -7.8931, -16.6633, -3.0544, -16.0585, 29.8848, -15.7560, 30.6528, -14.0020, -17.4270, -12.7923, -16.7358, -10.4335, -15.8909, -7.6512, -10.9754, -2.9335]
y: [3.0215, 3.0215, -2.9139, -2.9139, 2.0794, -2.1602, 1.7968, -2.0659, 1.8910, -2.0659, 1.8910, -2.3486, 4.0579, -1.5007, 8.0148, 1.7968, 12.1602, 6.4132, 15.9287, 11.7833, 17.7187, 17.0592, 17.8129, 20.3567, 20.0740, 22.1467, 22.0525, 21.9583, 21.9583, 22.6178, 22.0525, 24.1252, 19.9798, 26.0094, 19.7914, 26.2921, 17.1534, 26.4805, 11.9717, 24.8789, 6.9785, 23.8425, 3.7752, 22.8062, 1.8910, 18.2840, 1.7968, 11.7833, -4.8979, 6.9785, -3.1274, 3.8694, -4.6255, 0.1009, -5.1702, -2.3486, -6.1235, -2.3486, 29.6936, -2.3486]
colour: [ORANGE, ORANGE, ORANGE, ORANGE, BLUE, YELLOW, BLUE, YELLOW, BLUE, YELLOW, BLUE, YELLOW, BLUE, YELLOW, BLUE, YELLOW, BLUE, YELLOW, BLUE, YELLOW, BLUE, YELLOW, BLUE, YELLOW, BLUE, YELLOW, BLUE, YELLOW, BLUE, YELLOW, BLUE, YELLOW, BLUE, YELLOW, BLUE, YELLOW, BLUE, YELLOW, BLUE, YELLOW, BLUE, YELLOW, BLUE, YELLOW, BLUE, YELLOW, BLUE, YELLOW, BLUE, YELLOW, BLUE, YELLOW, BLUE, YELLOW, BLUE, YELLOW, BLUE, YELLOW, BLUE, YELLOW]
---
header:
  seq: 61
  stamp:
    secs: 0
    nsecs:         0
  frame_id: "map"
x: [7.0464, 6.0786, 6.1391, 7.0464, 1.9657, 1.9657, 9.9496, 9.8891, 14.8488, 14.8488, 20.0504, 19.7480, 21.8649, 22.5302, 21.9254, 26.0383, 22.1069, 26.0383, 21.9859, 26.1593, 19.8690, 25.7964, 15.9375, 24.7681, 12.0665, 21.5020, 8.0746, 18.0544, 3.1754, 15.5746, -2.0867, 12.1270, -6.0786, 8.1351, -10.9778, 3.2359, -13.0343, -1.9657, -12.0060, -5.6552, -12.0060, -10.9173, -10.0706, -14.8488, -7.8931, -16.6633, -3.0544, -16.0585, 29.8848, -15.7560, 30.6528, -14.0020, -17.4270, -12.7923, -16.7358, -10.4335, -15.8909, -7.6512, -10.9754, -2.9335, -12.8187]
y: [3.0215, 3.0215, -2.9139, -2.9139, 2.0794, -2.1602, 1.7968, -2.0659, 1.8910, -2.0659, 1.8910, -2.3486, 4.0579, -1.5007, 8.0148, 1.7968, 12.1602, 6.4132, 15.9287, 11.7833, 17.7187, 17.0592, 17.8129, 20.3567, 20.0740, 22.1467, 22.0525, 21.9583, 21.9583, 22.6178, 22.0525, 24.1252, 19.9798, 26.0094, 19.7914, 26.2921, 17.1534, 26.4805, 11.9717, 24.8789, 6.9785, 23.8425, 3.7752, 22.8062, 1.8910, 18.2840, 1.7968, 11.7833, -4.8979, 6.9785, -3.1274, 3.8694, -4.6255, 0.1009, -5.1702, -2.3486, -6.1235, -2.3486, 29.6936, -2.3486, 29.0126]
colour: [ORANGE, ORANGE, ORANGE, ORANGE, BLUE, YELLOW, BLUE, YELLOW, BLUE, YELLOW, BLUE, YELLOW, BLUE, YELLOW, BLUE, YELLOW, BLUE, YELLOW, BLUE, YELLOW, BLUE, YELLOW, BLUE, YELLOW, BLUE, YELLOW, BLUE, YELLOW, BLUE, YELLOW, BLUE, YELLOW, BLUE, YELLOW, BLUE, YELLOW, BLUE, YELLOW, BLUE, YELLOW, BLUE, YELLOW, BLUE, YELLOW, BLUE, YELLOW, BLUE, YELLOW, BLUE, YELLOW, BLUE, YELLOW, BLUE, YELLOW, BLUE, YELLOW, BLUE, YELLOW, BLUE, YELLOW, BLUE]
---
header:
  seq: 62
  stamp:
    secs: 0
    nsecs:         0
  frame_id: "map"
x: [7.0464, 6.0786, 6.1391, 7.0464, 1.9657, 1.9657, 9.9496, 9.8891, 14.8488, 14.8488, 20.0504, 19.7480, 21.8649, 22.5302, 21.9254, 26.0383, 22.1069, 26.0383, 21.9859, 26.1593, 19.8690, 25.7964, 15.9375, 24.7681, 12.0665, 21.5020, 8.0746, 18.0544, 3.1754, 15.5746, -2.0867, 12.1270, -6.0786, 8.1351, -10.9778, 3.2359, -13.0343, -1.9657, -12.0060, -5.6552, -12.0060, -10.9173, -10.0706, -14.8488, -7.8931, -16.6633, -3.0544, -16.0585, 29.8848, -15.7560, 30.6528, -14.0020, -17.4270, -12.7923, -16.7358, -10.4335, -15.8909, -7.6512, -10.9754, -2.9335, -12.8187, 31.1905]
y: [3.0215, 3.0215, -2.9139, -2.9139, 2.0794, -2.1602, 1.7968, -2.0659, 1.8910, -2.0659, 1.8910, -2.3486, 4.0579, -1.5007, 8.0148, 1.7968, 12.1602, 6.4132, 15.9287, 11.7833, 17.7187, 17.0592, 17.8129, 20.3567, 20.0740, 22.1467, 22.0525, 21.9583, 21.9583, 22.6178, 22.0525, 24.1252, 19.9798, 26.0094, 19.7914, 26.2921, 17.1534, 26.4805, 11.9717, 24.8789, 6.9785, 23.8425, 3.7752, 22.8062, 1.8910, 18.2840, 1.7968, 11.7833, -4.8979, 6.9785, -3.1274, 3.8694, -4.6255, 0.1009, -5.1702, -2.3486, -6.1235, -2.3486, 29.6936, -2.3486, 29.0126, -1.7656]
colour: [ORANGE, ORANGE, ORANGE, ORANGE, BLUE, YELLOW, BLUE, YELLOW, BLUE, YELLOW, BLUE, YELLOW, BLUE, YELLOW, BLUE, YELLOW, BLUE, YELLOW, BLUE, YELLOW, BLUE, YELLOW, BLUE, YELLOW, BLUE, YELLOW, BLUE, YELLOW, BLUE, YELLOW, BLUE, YELLOW, BLUE, YELLOW, BLUE, YELLOW, BLUE, YELLOW, BLUE, YELLOW, BLUE, YELLOW, BLUE, YELLOW, BLUE, YELLOW, BLUE, YELLOW, BLUE, YELLOW, BLUE, YELLOW, BLUE, YELLOW, BLUE, YELLOW, BLUE, YELLOW, BLUE, YELLOW, BLUE, YELLOW]
---
header:
  seq: 63
  stamp:
    secs: 0
    nsecs:         0
  frame_id: "map"
x: [7.0464, 6.0786, 6.1391, 7.0464, 1.9657, 1.9657, 9.9496, 9.8891, 14.8488, 14.8488, 20.0504, 19.7480, 21.8649, 22.5302, 21.9254, 26.0383, 22.1069, 26.0383, 21.9859, 26.1593, 19.8690, 25.7964, 15.9375, 24.7681, 12.0665, 21.5020, 8.0746, 18.0544, 3.1754, 15.5746, -2.0867, 12.1270, -6.0786, 8.1351, -10.9778, 3.2359, -13.0343, -1.9657, -12.0060, -5.6552, -12.0060, -10.9173, -10.0706, -14.8488, -7.8931, -16.6633, -3.0544, -16.0585, 29.8848, -15.7560, 30.6528, -14.0020, -17.4270, -12.7923, -16.7358, -10.4335, -15.8909, -7.6512, -10.9754, -2.9335, -12.8187, 31.1905, -13.8940]
y: [3.0215, 3.0215, -2.9139, -2.9139, 2.0794, -2.1602, 1.7968, -2.0659, 1.8910, -2.0659, 1.8910, -2.3486, 4.0579, -1.5007, 8.0148, 1.7968, 12.1602, 6.4132, 15.9287, 11.7833, 17.7187, 17.0592, 17.8129, 20.3567, 20.0740, 22.1467, 22.0525, 21.9583, 21.9583, 22.6178, 22.0525, 24.1252, 19.9798, 26.0094, 19.7914, 26.2921, 17.1534, 26.4805, 11.9717, 24.8789, 6.9785, 23.8425, 3.7752, 22.8062, 1.8910, 18.2840, 1.7968, 11.7833, -4.8979, 6.9785, -3.1274, 3.8694, -4.6255, 0.1009, -5.1702, -2.3486, -6.1235, -2.3486, 29.6936, -2.3486, 29.0126, -1.7656, 28.4679]
colour: [ORANGE, ORANGE, ORANGE, ORANGE, BLUE, YELLOW, BLUE, YELLOW, BLUE, YELLOW, BLUE, YELLOW, BLUE, YELLOW, BLUE, YELLOW, BLUE, YELLOW, BLUE, YELLOW, BLUE, YELLOW, BLUE, YELLOW, BLUE, YELLOW, BLUE, YELLOW, BLUE, YELLOW, BLUE, YELLOW, BLUE, YELLOW, BLUE, YELLOW, BLUE, YELLOW, BLUE, YELLOW, BLUE, YELLOW, BLUE, YELLOW, BLUE, YELLOW, BLUE, YELLOW, BLUE, YELLOW, BLUE, YELLOW, BLUE, YELLOW, BLUE, YELLOW, BLUE, YELLOW, BLUE, YELLOW, BLUE, YELLOW, BLUE]
---
header:
  seq: 64
  stamp:
    secs: 0
    nsecs:         0
  frame_id: "map"
x: [7.0464, 6.0786, 6.1391, 7.0464, 1.9657, 1.9657, 9.9496, 9.8891, 14.8488, 14.8488, 20.0504, 19.7480, 21.8649, 22.5302, 21.9254, 26.0383, 22.1069, 26.0383, 21.9859, 26.1593, 19.8690, 25.7964, 15.9375, 24.7681, 12.0665, 21.5020, 8.0746, 18.0544, 3.1754, 15.5746, -2.0867, 12.1270, -6.0786, 8.1351, -10.9778, 3.2359, -13.0343, -1.9657, -12.0060, -5.6552, -12.0060, -10.9173, -10.0706, -14.8488, -7.8931, -16.6633, -3.0544, -16.0585, 29.8848, -15.7560, 30.6528, -14.0020, -17.4270, -12.7923, -16.7358, -10.4335, -15.8909, -7.6512, -10.9754, -2.9335, -12.8187, 31.1905, -13.8940, 26.8126]
y: [3.0215, 3.0215, -2.9139, -2.9139, 2.0794, -2.1602, 1.7968, -2.0659, 1.8910, -2.0659, 1.8910, -2.3486, 4.0579, -1.5007, 8.0148, 1.7968, 12.1602, 6.4132, 15.9287, 11.7833, 17.7187, 17.0592, 17.8129, 20.3567, 20.0740, 22.1467, 22.0525, 21.9583, 21.9583, 22.6178, 22.0525, 24.1252, 19.9798, 26.0094, 19.7914, 26.2921, 17.1534, 26.4805, 11.9717, 24.8789, 6.9785, 23.8425, 3.7752, 22.8062, 1.8910, 18.2840, 1.7968, 11.7833, -4.8979, 6.9785, -3.1274, 3.8694, -4.6255, 0.1009, -5.1702, -2.3486, -6.1235, -2.3486, 29.6936, -2.3486, 29.0126, -1.7656, 28.4679, 28.0593]
colour: [ORANGE, ORANGE, ORANGE, ORANGE, BLUE, YELLOW, BLUE, YELLOW, BLUE, YELLOW, BLUE, YELLOW, BLUE, YELLOW, BLUE, YELLOW, BLUE, YELLOW, BLUE, YELLOW, BLUE, YELLOW, BLUE, YELLOW, BLUE, YELLOW, BLUE, YELLOW, BLUE, YELLOW, BLUE, YELLOW, BLUE, YELLOW, BLUE, YELLOW, BLUE, YELLOW, BLUE, YELLOW, BLUE, YELLOW, BLUE, YELLOW, BLUE, YELLOW, BLUE, YELLOW, BLUE, YELLOW, BLUE, YELLOW, BLUE, YELLOW, BLUE, YELLOW, BLUE, YELLOW, BLUE, YELLOW, BLUE, YELLOW, BLUE, YELLOW]
---
header:
  seq: 65
  stamp:
    secs: 0
    nsecs:         0
  frame_id: "map"
x: [7.0464, 6.0786, 6.1391, 7.0464, 1.9657, 1.9657, 9.9496, 9.8891, 14.8488, 14.8488, 20.0504, 19.7480, 21.8649, 22.5302, 21.9254, 26.0383, 22.1069, 26.0383, 21.9859, 26.1593, 19.8690, 25.7964, 15.9375, 24.7681, 12.0665, 21.5020, 8.0746, 18.0544, 3.1754, 15.5746, -2.0867, 12.1270, -6.0786, 8.1351, -10.9778, 3.2359, -13.0343, -1.9657, -12.0060, -5.6552, -12.0060, -10.9173, -10.0706, -14.8488, -7.8931, -16.6633, -3.0544, -16.0585, 29.8848, -15.7560, 30.6528, -14.0020, -17.4270, -12.7923, -16.7358, -10.4335, -15.8909, -7.6512, -10.9754, -2.9335, -12.8187, 31.1905, -13.8940, 26.8126, 25.1229]
y: [3.0215, 3.0215, -2.9139, -2.9139, 2.0794, -2.1602, 1.7968, -2.0659, 1.8910, -2.0659, 1.8910, -2.3486, 4.0579, -1.5007, 8.0148, 1.7968, 12.1602, 6.4132, 15.9287, 11.7833, 17.7187, 17.0592, 17.8129, 20.3567, 20.0740, 22.1467, 22.0525, 21.9583, 21.9583, 22.6178, 22.0525, 24.1252, 19.9798, 26.0094, 19.7914, 26.2921, 17.1534, 26.4805, 11.9717, 24.8789, 6.9785, 23.8425, 3.7752, 22.8062, 1.8910, 18.2840, 1.7968, 11.7833, -4.8979, 6.9785, -3.1274, 3.8694, -4.6255, 0.1009, -5.1702, -2.3486, -6.1235, -2.3486, 29.6936, -2.3486, 29.0126, -1.7656, 28.4679, 28.0593, 28.3317]
colour: [ORANGE, ORANGE, ORANGE, ORANGE, BLUE, YELLOW, BLUE, YELLOW, BLUE, YELLOW, BLUE, YELLOW, BLUE, YELLOW, BLUE, YELLOW, BLUE, YELLOW, BLUE, YELLOW, BLUE, YELLOW, BLUE, YELLOW, BLUE, YELLOW, BLUE, YELLOW, BLUE, YELLOW, BLUE, YELLOW, BLUE, YELLOW, BLUE, YELLOW, BLUE, YELLOW, BLUE, YELLOW, BLUE, YELLOW, BLUE, YELLOW, BLUE, YELLOW, BLUE, YELLOW, BLUE, YELLOW, BLUE, YELLOW, BLUE, YELLOW, BLUE, YELLOW, BLUE, YELLOW, BLUE, YELLOW, BLUE, YELLOW, BLUE, YELLOW, YELLOW]
---
header:
  seq: 66
  stamp:
    secs: 0
    nsecs:         0
  frame_id: "map"
x: [7.0464, 6.0786, 6.1391, 7.0464, 1.9657, 1.9657, 9.9496, 9.8891, 14.8488, 14.8488, 20.0504, 19.7480, 21.8649, 22.5302, 21.9254, 26.0383, 22.1069, 26.0383, 21.9859, 26.1593, 19.8690, 25.7964, 15.9375, 24.7681, 12.0665, 21.5020, 8.0746, 18.0544, 3.1754, 15.5746, -2.0867, 12.1270, -6.0786, 8.1351, -10.9778, 3.2359, -13.0343, -1.9657, -12.0060, -5.6552, -12.0060, -10.9173, -10.0706, -14.8488, -7.8931, -16.6633, -3.0544, -16.0585, 29.8848, -15.7560, 30.6528, -14.0020, -17.4270, -12.7923, -16.7358, -10.4335, -15.8909, -7.6512, -10.9754, -2.9335, -12.8187, 31.1905, -13.8940, 26.8126, 25.1229, 23.7404]
y: [3.0215, 3.0215, -2.9139, -2.9139, 2.0794, -2.1602, 1.7968, -2.0659, 1.8910, -2.0659, 1.8910, -2.3486, 4.0579, -1.5007, 8.0148, 1.7968, 12.1602, 6.4132, 15.9287, 11.7833, 17.7187, 17.0592, 17.8129, 20.3567, 20.0740, 22.1467, 22.0525, 21.9583, 21.9583, 22.6178, 22.0525, 24.1252, 19.9798, 26.0094, 19.7914, 26.2921, 17.1534, 26.4805, 11.9717, 24.8789, 6.9785, 23.8425, 3.7752, 22.8062, 1.8910, 18.2840, 1.7968, 11.7833, -4.8979, 6.9785, -3.1274, 3.8694, -4.6255, 0.1009, -5.1702, -2.3486, -6.1235, -2.3486, 29.6936, -2.3486, 29.0126, -1.7656, 28.4679, 28.0593, 28.3317, 28.3998]
colour: [ORANGE, ORANGE, ORANGE, ORANGE, BLUE, YELLOW, BLUE, YELLOW, BLUE, YELLOW, BLUE, YELLOW, BLUE, YELLOW, BLUE, YELLOW, BLUE, YELLOW, BLUE, YELLOW, BLUE, YELLOW, BLUE, YELLOW, BLUE, YELLOW, BLUE, YELLOW, BLUE, YELLOW, BLUE, YELLOW, BLUE, YELLOW, BLUE, YELLOW, BLUE, YELLOW, BLUE, YELLOW, BLUE, YELLOW, BLUE, YELLOW, BLUE, YELLOW, BLUE, YELLOW, BLUE, YELLOW, BLUE, YELLOW, BLUE, YELLOW, BLUE, YELLOW, BLUE, YELLOW, BLUE, YELLOW, BLUE, YELLOW, BLUE, YELLOW, YELLOW, YELLOW]
---
header:
  seq: 67
  stamp:
    secs: 0
    nsecs:         0
  frame_id: "map"
x: [7.0464, 6.0786, 6.1391, 7.0464, 1.9657, 1.9657, 9.9496, 9.8891, 14.8488, 14.8488, 20.0504, 19.7480, 21.8649, 22.5302, 21.9254, 26.0383, 22.1069, 26.0383, 21.9859, 26.1593, 19.8690, 25.7964, 15.9375, 24.7681, 12.0665, 21.5020, 8.0746, 18.0544, 3.1754, 15.5746, -2.0867, 12.1270, -6.0786, 8.1351, -10.9778, 3.2359, -13.0343, -1.9657, -12.0060, -5.6552, -12.0060, -10.9173, -10.0706, -14.8488, -7.8931, -16.6633, -3.0544, -16.0585, 29.8848, -15.7560, 30.6528, -14.0020, -17.4270, -12.7923, -16.7358, -10.4335, -15.8909, -7.6512, -10.9754, -2.9335, -12.8187, 31.1905, -13.8940, 26.8126, 25.1229, 23.7404, -21.0369]
y: [3.0215, 3.0215, -2.9139, -2.9139, 2.0794, -2.1602, 1.7968, -2.0659, 1.8910, -2.0659, 1.8910, -2.3486, 4.0579, -1.5007, 8.0148, 1.7968, 12.1602, 6.4132, 15.9287, 11.7833, 17.7187, 17.0592, 17.8129, 20.3567, 20.0740, 22.1467, 22.0525, 21.9583, 21.9583, 22.6178, 22.0525, 24.1252, 19.9798, 26.0094, 19.7914, 26.2921, 17.1534, 26.4805, 11.9717, 24.8789, 6.9785, 23.8425, 3.7752, 22.8062, 1.8910, 18.2840, 1.7968, 11.7833, -4.8979, 6.9785, -3.1274, 3.8694, -4.6255, 0.1009, -5.1702, -2.3486, -6.1235, -2.3486, 29.6936, -2.3486, 29.0126, -1.7656, 28.4679, 28.0593, 28.3317, 28.3998, 6.5418]
colour: [ORANGE, ORANGE, ORANGE, ORANGE, BLUE, YELLOW, BLUE, YELLOW, BLUE, YELLOW, BLUE, YELLOW, BLUE, YELLOW, BLUE, YELLOW, BLUE, YELLOW, BLUE, YELLOW, BLUE, YELLOW, BLUE, YELLOW, BLUE, YELLOW, BLUE, YELLOW, BLUE, YELLOW, BLUE, YELLOW, BLUE, YELLOW, BLUE, YELLOW, BLUE, YELLOW, BLUE, YELLOW, BLUE, YELLOW, BLUE, YELLOW, BLUE, YELLOW, BLUE, YELLOW, BLUE, YELLOW, BLUE, YELLOW, BLUE, YELLOW, BLUE, YELLOW, BLUE, YELLOW, BLUE, YELLOW, BLUE, YELLOW, BLUE, YELLOW, YELLOW, YELLOW, YELLOW]
---
header:
  seq: 68
  stamp:
    secs: 0
    nsecs:         0
  frame_id: "map"
