header:
  seq: 11
  stamp:
    secs: 0
    nsecs:         0
  frame_id: "map"
x: [6.2702, 6.7540, 6.7137, 6.1492, 2.0363, 1.9153, 10.0202, 10.0202, 15.0202, 15.0605, 19.9395]
y: [2.5572, 2.5572, -3.2571, -3.4724, 2.1265, -4.1184, 1.9112, -3.9031, 1.9112, -2.8264, 3.7416]
colour: [ORANGE, ORANGE, ORANGE, ORANGE, BLUE, YELLOW, BLUE, YELLOW, BLUE, YELLOW, BLUE]
---
header:
  seq: 12
  stamp:
    secs: 0
    nsecs:         0
  frame_id: "map"
x: [6.2702, 6.7540, 6.7137, 6.1492, 2.0363, 1.9153, 10.0202, 10.0202, 15.0202, 15.0605, 19.9395, 19.9395]
y: [2.5572, 2.5572, -3.2571, -3.4724, 2.1265, -4.1184, 1.9112, -3.9031, 1.9112, -2.8264, 3.7416, -0.8883]
colour: [ORANGE, ORANGE, ORANGE, ORANGE, BLUE, YELLOW, BLUE, YELLOW, BLUE, YELLOW, BLUE, YELLOW]
---
header:
  seq: 13
  stamp:
    secs: 0
    nsecs:         0
  frame_id: "map"
x: [6.2702, 6.7540, 6.7137, 6.1492, 2.0363, 1.9153, 10.0202, 10.0202, 15.0202, 15.0605, 19.9395, 19.9395, 24.0524]
y: [2.5572, 2.5572, -3.2571, -3.4724, 2.1265, -4.1184, 1.9112, -3.9031, 1.9112, -2.8264, 3.7416, -0.8883, 6.2180]
colour: [ORANGE, ORANGE, ORANGE, ORANGE, BLUE, YELLOW, BLUE, YELLOW, BLUE, YELLOW, BLUE, YELLOW, BLUE]
---
header:
  seq: 14
  stamp:
    secs: 0
    nsecs:         0
  frame_id: "map"
x: [6.2702, 6.7540, 6.7137, 6.1492, 2.0363, 1.9153, 10.0202, 10.0202, 15.0202, 15.0605, 19.9395, 19.9395, 24.0524, 24.0927]
y: [2.5572, 2.5572, -3.2571, -3.4724, 2.1265, -4.1184, 1.9112, -3.9031, 1.9112, -2.8264, 3.7416, -0.8883, 6.2180, 1.1575]
colour: [ORANGE, ORANGE, ORANGE, ORANGE, BLUE, YELLOW, BLUE, YELLOW, BLUE, YELLOW, BLUE, YELLOW, BLUE, YELLOW]
---
header:
  seq: 15
  stamp:
    secs: 0
    nsecs:         0
  frame_id: "map"
x: [6.2702, 6.7540, 6.7137, 6.1492, 2.0363, 1.9153, 10.0202, 10.0202, 15.0202, 15.0605, 19.9395, 19.9395, 24.0524, 24.0927, 25.9476]
y: [2.5572, 2.5572, -3.2571, -3.4724, 2.1265, -4.1184, 1.9112, -3.9031, 1.9112, -2.8264, 3.7416, -0.8883, 6.2180, 1.1575, 9.7712]
colour: [ORANGE, ORANGE, ORANGE, ORANGE, BLUE, YELLOW, BLUE, YELLOW, BLUE, YELLOW, BLUE, YELLOW, BLUE, YELLOW, BLUE]
---
header:
  seq: 16
  stamp:
    secs: 0
    nsecs:         0
  frame_id: "map"
x: [6.2702, 6.7540, 6.7137, 6.1492, 2.0363, 1.9153, 10.0202, 10.0202, 15.0202, 15.0605, 19.9395, 19.9395, 24.0524, 24.0927, 25.9476, 26.1089]
y: [2.5572, 2.5572, -3.2571, -3.4724, 2.1265, -4.1184, 1.9112, -3.9031, 1.9112, -2.8264, 3.7416, -0.8883, 6.2180, 1.1575, 9.7712, 3.6339]
colour: [ORANGE, ORANGE, ORANGE, ORANGE, BLUE, YELLOW, BLUE, YELLOW, BLUE, YELLOW, BLUE, YELLOW, BLUE, YELLOW, BLUE, YELLOW]
---
header:
  seq: 17
  stamp:
    secs: 0
    nsecs:         0
  frame_id: "map"
x: [6.2702, 6.7540, 6.7137, 6.1492, 2.0363, 1.9153, 10.0202, 10.0202, 15.0202, 15.0605, 19.9395, 19.9395, 24.0524, 24.0927, 25.9476, 26.1089, 25.9073]
y: [2.5572, 2.5572, -3.2571, -3.4724, 2.1265, -4.1184, 1.9112, -3.9031, 1.9112, -2.8264, 3.7416, -0.8883, 6.2180, 1.1575, 9.7712, 3.6339, 13.5397]
colour: [ORANGE, ORANGE, ORANGE, ORANGE, BLUE, YELLOW, BLUE, YELLOW, BLUE, YELLOW, BLUE, YELLOW, BLUE, YELLOW, BLUE, YELLOW, BLUE]
---
header:
  seq: 18
  stamp:
    secs: 0
    nsecs:         0
  frame_id: "map"
x: [6.2702, 6.7540, 6.7137, 6.1492, 2.0363, 1.9153, 10.0202, 10.0202, 15.0202, 15.0605, 19.9395, 19.9395, 24.0524, 24.0927, 25.9476, 26.1089, 25.9073, 30.0202]
y: [2.5572, 2.5572, -3.2571, -3.4724, 2.1265, -4.1184, 1.9112, -3.9031, 1.9112, -2.8264, 3.7416, -0.8883, 6.2180, 1.1575, 9.7712, 3.6339, 13.5397, 7.7254]
colour: [ORANGE, ORANGE, ORANGE, ORANGE, BLUE, YELLOW, BLUE, YELLOW, BLUE, YELLOW, BLUE, YELLOW, BLUE, YELLOW, BLUE, YELLOW, BLUE, YELLOW]
---
header:
  seq: 19
  stamp:
    secs: 0
    nsecs:         0
  frame_id: "map"
x: [6.2702, 6.7540, 6.7137, 6.1492, 2.0363, 1.9153, 10.0202, 10.0202, 15.0202, 15.0605, 19.9395, 19.9395, 24.0524, 24.0927, 25.9476, 26.1089, 25.9073, 30.0202, 25.8669]
y: [2.5572, 2.5572, -3.2571, -3.4724, 2.1265, -4.1184, 1.9112, -3.9031, 1.9112, -2.8264, 3.7416, -0.8883, 6.2180, 1.1575, 9.7712, 3.6339, 13.5397, 7.7254, 18.7079]
colour: [ORANGE, ORANGE, ORANGE, ORANGE, BLUE, YELLOW, BLUE, YELLOW, BLUE, YELLOW, BLUE, YELLOW, BLUE, YELLOW, BLUE, YELLOW, BLUE, YELLOW, BLUE]
---
header:
  seq: 20
  stamp:
    secs: 0
    nsecs:         0
  frame_id: "map"
x: [6.2702, 6.7540, 6.7137, 6.1492, 2.0363, 1.9153, 10.0202, 10.0202, 15.0202, 15.0605, 19.9395, 19.9395, 24.0524, 24.0927, 25.9476, 26.1089, 25.9073, 30.0202, 25.8669, 29.9395]
y: [2.5572, 2.5572, -3.2571, -3.4724, 2.1265, -4.1184, 1.9112, -3.9031, 1.9112, -2.8264, 3.7416, -0.8883, 6.2180, 1.1575, 9.7712, 3.6339, 13.5397, 7.7254, 18.7079, 13.5397]
colour: [ORANGE, ORANGE, ORANGE, ORANGE, BLUE, YELLOW, BLUE, YELLOW, BLUE, YELLOW, BLUE, YELLOW, BLUE, YELLOW, BLUE, YELLOW, BLUE, YELLOW, BLUE, YELLOW]
---
header:
  seq: 21
  stamp:
    secs: 0
    nsecs:         0
  frame_id: "map"
x: [6.2702, 6.7540, 6.7137, 6.1492, 2.0363, 1.9153, 10.0202, 10.0202, 15.0202, 15.0605, 19.9395, 19.9395, 24.0524, 24.0927, 25.9476, 26.1089, 25.9073, 30.0202, 25.8669, 29.9395, 25.7863]
y: [2.5572, 2.5572, -3.2571, -3.4724, 2.1265, -4.1184, 1.9112, -3.9031, 1.9112, -2.8264, 3.7416, -0.8883, 6.2180, 1.1575, 9.7712, 3.6339, 13.5397, 7.7254, 18.7079, 13.5397, 23.8762]
colour: [ORANGE, ORANGE, ORANGE, ORANGE, BLUE, YELLOW, BLUE, YELLOW, BLUE, YELLOW, BLUE, YELLOW, BLUE, YELLOW, BLUE, YELLOW, BLUE, YELLOW, BLUE, YELLOW, BLUE]
---
header:
  seq: 22
  stamp:
    secs: 0
    nsecs:         0
  frame_id: "map"
x: [6.2702, 6.7540, 6.7137, 6.1492, 2.0363, 1.9153, 10.0202, 10.0202, 15.0202, 15.0605, 19.9395, 19.9395, 24.0524, 24.0927, 25.9476, 26.1089, 25.9073, 30.0202, 25.8669, 29.9395, 25.7863, 29.8992]
y: [2.5572, 2.5572, -3.2571, -3.4724, 2.1265, -4.1184, 1.9112, -3.9031, 1.9112, -2.8264, 3.7416, -0.8883, 6.2180, 1.1575, 9.7712, 3.6339, 13.5397, 7.7254, 18.7079, 13.5397, 23.8762, 18.3849]
colour: [ORANGE, ORANGE, ORANGE, ORANGE, BLUE, YELLOW, BLUE, YELLOW, BLUE, YELLOW, BLUE, YELLOW, BLUE, YELLOW, BLUE, YELLOW, BLUE, YELLOW, BLUE, YELLOW, BLUE, YELLOW]
---
header:
  seq: 23
  stamp:
    secs: 0
    nsecs:         0
  frame_id: "map"
x: [6.2702, 6.7540, 6.7137, 6.1492, 2.0363, 1.9153, 10.0202, 10.0202, 15.0202, 15.0605, 19.9395, 19.9395, 24.0524, 24.0927, 25.9476, 26.1089, 25.9073, 30.0202, 25.8669, 29.9395, 25.7863, 29.8992, 24.8992]
y: [2.5572, 2.5572, -3.2571, -3.4724, 2.1265, -4.1184, 1.9112, -3.9031, 1.9112, -2.8264, 3.7416, -0.8883, 6.2180, 1.1575, 9.7712, 3.6339, 13.5397, 7.7254, 18.7079, 13.5397, 23.8762, 18.3849, 27.5370]
colour: [ORANGE, ORANGE, ORANGE, ORANGE, BLUE, YELLOW, BLUE, YELLOW, BLUE, YELLOW, BLUE, YELLOW, BLUE, YELLOW, BLUE, YELLOW, BLUE, YELLOW, BLUE, YELLOW, BLUE, YELLOW, BLUE]
---
header:
  seq: 24
  stamp:
    secs: 0
    nsecs:         0
  frame_id: "map"
x: [6.2702, 6.7540, 6.7137, 6.1492, 2.0363, 1.9153, 10.0202, 10.0202, 15.0202, 15.0605, 19.9395, 19.9395, 24.0524, 24.0927, 25.9476, 26.1089, 25.9073, 30.0202, 25.8669, 29.9395, 25.7863, 29.8992, 24.8992, 29.9798]
y: [2.5572, 2.5572, -3.2571, -3.4724, 2.1265, -4.1184, 1.9112, -3.9031, 1.9112, -2.8264, 3.7416, -0.8883, 6.2180, 1.1575, 9.7712, 3.6339, 13.5397, 7.7254, 18.7079, 13.5397, 23.8762, 18.3849, 27.5370, 23.8762]
colour: [ORANGE, ORANGE, ORANGE, ORANGE, BLUE, YELLOW, BLUE, YELLOW, BLUE, YELLOW, BLUE, YELLOW, BLUE, YELLOW, BLUE, YELLOW, BLUE, YELLOW, BLUE, YELLOW, BLUE, YELLOW, BLUE, YELLOW]
---
header:
  seq: 25
  stamp:
    secs: 0
    nsecs:         0
  frame_id: "map"
x: [6.2702, 6.7540, 6.7137, 6.1492, 2.0363, 1.9153, 10.0202, 10.0202, 15.0202, 15.0605, 19.9395, 19.9395, 24.0524, 24.0927, 25.9476, 26.1089, 25.9073, 30.0202, 25.8669, 29.9395, 25.7863, 29.8992, 24.8992, 29.9798, 20.5040]
y: [2.5572, 2.5572, -3.2571, -3.4724, 2.1265, -4.1184, 1.9112, -3.9031, 1.9112, -2.8264, 3.7416, -0.8883, 6.2180, 1.1575, 9.7712, 3.6339, 13.5397, 7.7254, 18.7079, 13.5397, 23.8762, 18.3849, 27.5370, 23.8762, 27.7524]
colour: [ORANGE, ORANGE, ORANGE, ORANGE, BLUE, YELLOW, BLUE, YELLOW, BLUE, YELLOW, BLUE, YELLOW, BLUE, YELLOW, BLUE, YELLOW, BLUE, YELLOW, BLUE, YELLOW, BLUE, YELLOW, BLUE, YELLOW, BLUE]
---
header:
  seq: 26
  stamp:
    secs: 0
    nsecs:         0
  frame_id: "map"
x: [6.2702, 6.7540, 6.7137, 6.1492, 2.0363, 1.9153, 10.0202, 10.0202, 15.0202, 15.0605, 19.9395, 19.9395, 24.0524, 24.0927, 25.9476, 26.1089, 25.9073, 30.0202, 25.8669, 29.9395, 25.7863, 29.8992, 24.8992, 29.9798, 20.5040, 29.1331]
y: [2.5572, 2.5572, -3.2571, -3.4724, 2.1265, -4.1184, 1.9112, -3.9031, 1.9112, -2.8264, 3.7416, -0.8883, 6.2180, 1.1575, 9.7712, 3.6339, 13.5397, 7.7254, 18.7079, 13.5397, 23.8762, 18.3849, 27.5370, 23.8762, 27.7524, 27.6447]
colour: [ORANGE, ORANGE, ORANGE, ORANGE, BLUE, YELLOW, BLUE, YELLOW, BLUE, YELLOW, BLUE, YELLOW, BLUE, YELLOW, BLUE, YELLOW, BLUE, YELLOW, BLUE, YELLOW, BLUE, YELLOW, BLUE, YELLOW, BLUE, YELLOW]
---
header:
  seq: 27
  stamp:
    secs: 0
    nsecs:         0
  frame_id: "map"
x: [6.2702, 6.7540, 6.7137, 6.1492, 2.0363, 1.9153, 10.0202, 10.0202, 15.0202, 15.0605, 19.9395, 19.9395, 24.0524, 24.0927, 25.9476, 26.1089, 25.9073, 30.0202, 25.8669, 29.9395, 25.7863, 29.8992, 24.8992, 29.9798, 20.5040, 29.1331, 16.8750]
y: [2.5572, 2.5572, -3.2571, -3.4724, 2.1265, -4.1184, 1.9112, -3.9031, 1.9112, -2.8264, 3.7416, -0.8883, 6.2180, 1.1575, 9.7712, 3.6339, 13.5397, 7.7254, 18.7079, 13.5397, 23.8762, 18.3849, 27.5370, 23.8762, 27.7524, 27.6447, 25.7066]
colour: [ORANGE, ORANGE, ORANGE, ORANGE, BLUE, YELLOW, BLUE, YELLOW, BLUE, YELLOW, BLUE, YELLOW, BLUE, YELLOW, BLUE, YELLOW, BLUE, YELLOW, BLUE, YELLOW, BLUE, YELLOW, BLUE, YELLOW, BLUE, YELLOW, BLUE]
---
header:
  seq: 28
  stamp:
    secs: 0
    nsecs:         0
  frame_id: "map"
x: [6.2702, 6.7540, 6.7137, 6.1492, 2.0363, 1.9153, 10.0202, 10.0202, 15.0202, 15.0605, 19.9395, 19.9395, 24.0524, 24.0927, 25.9476, 26.1089, 25.9073, 30.0202, 25.8669, 29.9395, 25.7863, 29.8992, 24.8992, 29.9798, 20.5040, 29.1331, 16.8750, 26.7540]
y: [2.5572, 2.5572, -3.2571, -3.4724, 2.1265, -4.1184, 1.9112, -3.9031, 1.9112, -2.8264, 3.7416, -0.8883, 6.2180, 1.1575, 9.7712, 3.6339, 13.5397, 7.7254, 18.7079, 13.5397, 23.8762, 18.3849, 27.5370, 23.8762, 27.7524, 27.6447, 25.7066, 31.9515]
colour: [ORANGE, ORANGE, ORANGE, ORANGE, BLUE, YELLOW, BLUE, YELLOW, BLUE, YELLOW, BLUE, YELLOW, BLUE, YELLOW, BLUE, YELLOW, BLUE, YELLOW, BLUE, YELLOW, BLUE, YELLOW, BLUE, YELLOW, BLUE, YELLOW, BLUE, YELLOW]
---
header:
  seq: 29
  stamp:
    secs: 0
    nsecs:         0
  frame_id: "map"
x: [6.2702, 6.7540, 6.7137, 6.1492, 2.0363, 1.9153, 10.0202, 10.0202, 15.0202, 15.0605, 19.9395, 19.9395, 24.0524, 24.0927, 25.9476, 26.1089, 25.9073, 30.0202, 25.8669, 29.9395, 25.7863, 29.8992, 24.8992, 29.9798, 20.5040, 29.1331, 16.8750, 26.7540, 13.0040]
y: [2.5572, 2.5572, -3.2571, -3.4724, 2.1265, -4.1184, 1.9112, -3.9031, 1.9112, -2.8264, 3.7416, -0.8883, 6.2180, 1.1575, 9.7712, 3.6339, 13.5397, 7.7254, 18.7079, 13.5397, 23.8762, 18.3849, 27.5370, 23.8762, 27.7524, 27.6447, 25.7066, 31.9515, 23.8762]
colour: [ORANGE, ORANGE, ORANGE, ORANGE, BLUE, YELLOW, BLUE, YELLOW, BLUE, YELLOW, BLUE, YELLOW, BLUE, YELLOW, BLUE, YELLOW, BLUE, YELLOW, BLUE, YELLOW, BLUE, YELLOW, BLUE, YELLOW, BLUE, YELLOW, BLUE, YELLOW, BLUE]
---
header:
  seq: 30
  stamp:
    secs: 0
    nsecs:         0
  frame_id: "map"
x: [6.2702, 6.7540, 6.7137, 6.1492, 2.0363, 1.9153, 10.0202, 10.0202, 15.0202, 15.0605, 19.9395, 19.9395, 24.0524, 24.0927, 25.9476, 26.1089, 25.9073, 30.0202, 25.8669, 29.9395, 25.7863, 29.8992, 24.8992, 29.9798, 20.5040, 29.1331, 16.8750, 26.7540, 13.0040, 24.4556]
y: [2.5572, 2.5572, -3.2571, -3.4724, 2.1265, -4.1184, 1.9112, -3.9031, 1.9112, -2.8264, 3.7416, -0.8883, 6.2180, 1.1575, 9.7712, 3.6339, 13.5397, 7.7254, 18.7079, 13.5397, 23.8762, 18.3849, 27.5370, 23.8762, 27.7524, 27.6447, 25.7066, 31.9515, 23.8762, 32.3822]
colour: [ORANGE, ORANGE, ORANGE, ORANGE, BLUE, YELLOW, BLUE, YELLOW, BLUE, YELLOW, BLUE, YELLOW, BLUE, YELLOW, BLUE, YELLOW, BLUE, YELLOW, BLUE, YELLOW, BLUE, YELLOW, BLUE, YELLOW, BLUE, YELLOW, BLUE, YELLOW, BLUE, YELLOW]
---
header:
  seq: 31
  stamp:
    secs: 0
    nsecs:         0
  frame_id: "map"
x: [6.2702, 6.7540, 6.7137, 6.1492, 2.0363, 1.9153, 10.0202, 10.0202, 15.0202, 15.0605, 19.9395, 19.9395, 24.0524, 24.0927, 25.9476, 26.1089, 25.9073, 30.0202, 25.8669, 29.9395, 25.7863, 29.8992, 24.8992, 29.9798, 20.5040, 29.1331, 16.8750, 26.7540, 13.0040, 24.4556, 9.1734]
y: [2.5572, 2.5572, -3.2571, -3.4724, 2.1265, -4.1184, 1.9112, -3.9031, 1.9112, -2.8264, 3.7416, -0.8883, 6.2180, 1.1575, 9.7712, 3.6339, 13.5397, 7.7254, 18.7079, 13.5397, 23.8762, 18.3849, 27.5370, 23.8762, 27.7524, 27.6447, 25.7066, 31.9515, 23.8762, 32.3822, 21.9381]
colour: [ORANGE, ORANGE, ORANGE, ORANGE, BLUE, YELLOW, BLUE, YELLOW, BLUE, YELLOW, BLUE, YELLOW, BLUE, YELLOW, BLUE, YELLOW, BLUE, YELLOW, BLUE, YELLOW, BLUE, YELLOW, BLUE, YELLOW, BLUE, YELLOW, BLUE, YELLOW, BLUE, YELLOW, BLUE]
---
header:
  seq: 32
  stamp:
    secs: 0
    nsecs:         0
  frame_id: "map"
x: [6.2702, 6.7540, 6.7137, 6.1492, 2.0363, 1.9153, 10.0202, 10.0202, 15.0202, 15.0605, 19.9395, 19.9395, 24.0524, 24.0927, 25.9476, 26.1089, 25.9073, 30.0202, 25.8669, 29.9395, 25.7863, 29.8992, 24.8992, 29.9798, 20.5040, 29.1331, 16.8750, 26.7540, 13.0040, 24.4556, 9.1734, 20.4637]
y: [2.5572, 2.5572, -3.2571, -3.4724, 2.1265, -4.1184, 1.9112, -3.9031, 1.9112, -2.8264, 3.7416, -0.8883, 6.2180, 1.1575, 9.7712, 3.6339, 13.5397, 7.7254, 18.7079, 13.5397, 23.8762, 18.3849, 27.5370, 23.8762, 27.7524, 27.6447, 25.7066, 31.9515, 23.8762, 32.3822, 21.9381, 32.3822]
colour: [ORANGE, ORANGE, ORANGE, ORANGE, BLUE, YELLOW, BLUE, YELLOW, BLUE, YELLOW, BLUE, YELLOW, BLUE, YELLOW, BLUE, YELLOW, BLUE, YELLOW, BLUE, YELLOW, BLUE, YELLOW, BLUE, YELLOW, BLUE, YELLOW, BLUE, YELLOW, BLUE, YELLOW, BLUE, YELLOW]
---
header:
  seq: 33
  stamp:
    secs: 0
    nsecs:         0
  frame_id: "map"
x: [6.2702, 6.7540, 6.7137, 6.1492, 2.0363, 1.9153, 10.0202, 10.0202, 15.0202, 15.0605, 19.9395, 19.9395, 24.0524, 24.0927, 25.9476, 26.1089, 25.9073, 30.0202, 25.8669, 29.9395, 25.7863, 29.8992, 24.8992, 29.9798, 20.5040, 29.1331, 16.8750, 26.7540, 13.0040, 24.4556, 9.1734, 20.4637, 4.9395]
y: [2.5572, 2.5572, -3.2571, -3.4724, 2.1265, -4.1184, 1.9112, -3.9031, 1.9112, -2.8264, 3.7416, -0.8883, 6.2180, 1.1575, 9.7712, 3.6339, 13.5397, 7.7254, 18.7079, 13.5397, 23.8762, 18.3849, 27.5370, 23.8762, 27.7524, 27.6447, 25.7066, 31.9515, 23.8762, 32.3822, 21.9381, 32.3822, 21.6151]
colour: [ORANGE, ORANGE, ORANGE, ORANGE, BLUE, YELLOW, BLUE, YELLOW, BLUE, YELLOW, BLUE, YELLOW, BLUE, YELLOW, BLUE, YELLOW, BLUE, YELLOW, BLUE, YELLOW, BLUE, YELLOW, BLUE, YELLOW, BLUE, YELLOW, BLUE, YELLOW, BLUE, YELLOW, BLUE, YELLOW, BLUE]
---
header:
  seq: 34
  stamp:
    secs: 0
    nsecs:         0
  frame_id: "map"
x: [6.2702, 6.7540, 6.7137, 6.1492, 2.0363, 1.9153, 10.0202, 10.0202, 15.0202, 15.0605, 19.9395, 19.9395, 24.0524, 24.0927, 25.9476, 26.1089, 25.9073, 30.0202, 25.8669, 29.9395, 25.7863, 29.8992, 24.8992, 29.9798, 20.5040, 29.1331, 16.8750, 26.7540, 13.0040, 24.4556, 9.1734, 20.4637, 4.9395, 16.8347]
y: [2.5572, 2.5572, -3.2571, -3.4724, 2.1265, -4.1184, 1.9112, -3.9031, 1.9112, -2.8264, 3.7416, -0.8883, 6.2180, 1.1575, 9.7712, 3.6339, 13.5397, 7.7254, 18.7079, 13.5397, 23.8762, 18.3849, 27.5370, 23.8762, 27.7524, 27.6447, 25.7066, 31.9515, 23.8762, 32.3822, 21.9381, 32.3822, 21.6151, 30.1211]
colour: [ORANGE, ORANGE, ORANGE, ORANGE, BLUE, YELLOW, BLUE, YELLOW, BLUE, YELLOW, BLUE, YELLOW, BLUE, YELLOW, BLUE, YELLOW, BLUE, YELLOW, BLUE, YELLOW, BLUE, YELLOW, BLUE, YELLOW, BLUE, YELLOW, BLUE, YELLOW, BLUE, YELLOW, BLUE, YELLOW, BLUE, YELLOW]
---
header:
  seq: 35
  stamp:
    secs: 0
    nsecs:         0
  frame_id: "map"
x: [6.2702, 6.7540, 6.7137, 6.1492, 2.0363, 1.9153, 10.0202, 10.0202, 15.0202, 15.0605, 19.9395, 19.9395, 24.0524, 24.0927, 25.9476, 26.1089, 25.9073, 30.0202, 25.8669, 29.9395, 25.7863, 29.8992, 24.8992, 29.9798, 20.5040, 29.1331, 16.8750, 26.7540, 13.0040, 24.4556, 9.1734, 20.4637, 4.9395, 16.8347, 0.0202]
y: [2.5572, 2.5572, -3.2571, -3.4724, 2.1265, -4.1184, 1.9112, -3.9031, 1.9112, -2.8264, 3.7416, -0.8883, 6.2180, 1.1575, 9.7712, 3.6339, 13.5397, 7.7254, 18.7079, 13.5397, 23.8762, 18.3849, 27.5370, 23.8762, 27.7524, 27.6447, 25.7066, 31.9515, 23.8762, 32.3822, 21.9381, 32.3822, 21.6151, 30.1211, 21.5074]
colour: [ORANGE, ORANGE, ORANGE, ORANGE, BLUE, YELLOW, BLUE, YELLOW, BLUE, YELLOW, BLUE, YELLOW, BLUE, YELLOW, BLUE, YELLOW, BLUE, YELLOW, BLUE, YELLOW, BLUE, YELLOW, BLUE, YELLOW, BLUE, YELLOW, BLUE, YELLOW, BLUE, YELLOW, BLUE, YELLOW, BLUE, YELLOW, BLUE]
---
header:
  seq: 36
  stamp:
    secs: 0
    nsecs:         0
  frame_id: "map"
x: [6.2702, 6.7540, 6.7137, 6.1492, 2.0363, 1.9153, 10.0202, 10.0202, 15.0202, 15.0605, 19.9395, 19.9395, 24.0524, 24.0927, 25.9476, 26.1089, 25.9073, 30.0202, 25.8669, 29.9395, 25.7863, 29.8992, 24.8992, 29.9798, 20.5040, 29.1331, 16.8750, 26.7540, 13.0040, 24.4556, 9.1734, 20.4637, 4.9395, 16.8347, 0.0202, 13.0847]
y: [2.5572, 2.5572, -3.2571, -3.4724, 2.1265, -4.1184, 1.9112, -3.9031, 1.9112, -2.8264, 3.7416, -0.8883, 6.2180, 1.1575, 9.7712, 3.6339, 13.5397, 7.7254, 18.7079, 13.5397, 23.8762, 18.3849, 27.5370, 23.8762, 27.7524, 27.6447, 25.7066, 31.9515, 23.8762, 32.3822, 21.9381, 32.3822, 21.6151, 30.1211, 21.5074, 28.3984]
colour: [ORANGE, ORANGE, ORANGE, ORANGE, BLUE, YELLOW, BLUE, YELLOW, BLUE, YELLOW, BLUE, YELLOW, BLUE, YELLOW, BLUE, YELLOW, BLUE, YELLOW, BLUE, YELLOW, BLUE, YELLOW, BLUE, YELLOW, BLUE, YELLOW, BLUE, YELLOW, BLUE, YELLOW, BLUE, YELLOW, BLUE, YELLOW, BLUE, YELLOW]
---
header:
  seq: 37
  stamp:
    secs: 0
    nsecs:         0
  frame_id: "map"
x: [6.2702, 6.7540, 6.7137, 6.1492, 2.0363, 1.9153, 10.0202, 10.0202, 15.0202, 15.0605, 19.9395, 19.9395, 24.0524, 24.0927, 25.9476, 26.1089, 25.9073, 30.0202, 25.8669, 29.9395, 25.7863, 29.8992, 24.8992, 29.9798, 20.5040, 29.1331, 16.8750, 26.7540, 13.0040, 24.4556, 9.1734, 20.4637, 4.9395, 16.8347, 0.0202, 13.0847, -4.0927]
y: [2.5572, 2.5572, -3.2571, -3.4724, 2.1265, -4.1184, 1.9112, -3.9031, 1.9112, -2.8264, 3.7416, -0.8883, 6.2180, 1.1575, 9.7712, 3.6339, 13.5397, 7.7254, 18.7079, 13.5397, 23.8762, 18.3849, 27.5370, 23.8762, 27.7524, 27.6447, 25.7066, 31.9515, 23.8762, 32.3822, 21.9381, 32.3822, 21.6151, 30.1211, 21.5074, 28.3984, 23.4455]
colour: [ORANGE, ORANGE, ORANGE, ORANGE, BLUE, YELLOW, BLUE, YELLOW, BLUE, YELLOW, BLUE, YELLOW, BLUE, YELLOW, BLUE, YELLOW, BLUE, YELLOW, BLUE, YELLOW, BLUE, YELLOW, BLUE, YELLOW, BLUE, YELLOW, BLUE, YELLOW, BLUE, YELLOW, BLUE, YELLOW, BLUE, YELLOW, BLUE, YELLOW, BLUE]
---
header:
  seq: 38
  stamp:
    secs: 0
    nsecs:         0
  frame_id: "map"
x: [6.2702, 6.7540, 6.7137, 6.1492, 2.0363, 1.9153, 10.0202, 10.0202, 15.0202, 15.0605, 19.9395, 19.9395, 24.0524, 24.0927, 25.9476, 26.1089, 25.9073, 30.0202, 25.8669, 29.9395, 25.7863, 29.8992, 24.8992, 29.9798, 20.5040, 29.1331, 16.8750, 26.7540, 13.0040, 24.4556, 9.1734, 20.4637, 4.9395, 16.8347, 0.0202, 13.0847, -4.0927, 9.0524]
y: [2.5572, 2.5572, -3.2571, -3.4724, 2.1265, -4.1184, 1.9112, -3.9031, 1.9112, -2.8264, 3.7416, -0.8883, 6.2180, 1.1575, 9.7712, 3.6339, 13.5397, 7.7254, 18.7079, 13.5397, 23.8762, 18.3849, 27.5370, 23.8762, 27.7524, 27.6447, 25.7066, 31.9515, 23.8762, 32.3822, 21.9381, 32.3822, 21.6151, 30.1211, 21.5074, 28.3984, 23.4455, 26.6756]
colour: [ORANGE, ORANGE, ORANGE, ORANGE, BLUE, YELLOW, BLUE, YELLOW, BLUE, YELLOW, BLUE, YELLOW, BLUE, YELLOW, BLUE, YELLOW, BLUE, YELLOW, BLUE, YELLOW, BLUE, YELLOW, BLUE, YELLOW, BLUE, YELLOW, BLUE, YELLOW, BLUE, YELLOW, BLUE, YELLOW, BLUE, YELLOW, BLUE, YELLOW, BLUE, YELLOW]
---
header:
  seq: 39
  stamp:
    secs: 0
    nsecs:         0
  frame_id: "map"
x: [6.2702, 6.7540, 6.7137, 6.1492, 2.0363, 1.9153, 10.0202, 10.0202, 15.0202, 15.0605, 19.9395, 19.9395, 24.0524, 24.0927, 25.9476, 26.1089, 25.9073, 30.0202, 25.8669, 29.9395, 25.7863, 29.8992, 24.8992, 29.9798, 20.5040, 29.1331, 16.8750, 26.7540, 13.0040, 24.4556, 9.1734, 20.4637, 4.9395, 16.8347, 0.0202, 13.0847, -4.0927, 9.0524, -8.0444]
y: [2.5572, 2.5572, -3.2571, -3.4724, 2.1265, -4.1184, 1.9112, -3.9031, 1.9112, -2.8264, 3.7416, -0.8883, 6.2180, 1.1575, 9.7712, 3.6339, 13.5397, 7.7254, 18.7079, 13.5397, 23.8762, 18.3849, 27.5370, 23.8762, 27.7524, 27.6447, 25.7066, 31.9515, 23.8762, 32.3822, 21.9381, 32.3822, 21.6151, 30.1211, 21.5074, 28.3984, 23.4455, 26.6756, 25.9219]
colour: [ORANGE, ORANGE, ORANGE, ORANGE, BLUE, YELLOW, BLUE, YELLOW, BLUE, YELLOW, BLUE, YELLOW, BLUE, YELLOW, BLUE, YELLOW, BLUE, YELLOW, BLUE, YELLOW, BLUE, YELLOW, BLUE, YELLOW, BLUE, YELLOW, BLUE, YELLOW, BLUE, YELLOW, BLUE, YELLOW, BLUE, YELLOW, BLUE, YELLOW, BLUE, YELLOW, BLUE]
---
header:
  seq: 40
  stamp:
    secs: 0
    nsecs:         0
  frame_id: "map"
x: [6.2702, 6.7540, 6.7137, 6.1492, 2.0363, 1.9153, 10.0202, 10.0202, 15.0202, 15.0605, 19.9395, 19.9395, 24.0524, 24.0927, 25.9476, 26.1089, 25.9073, 30.0202, 25.8669, 29.9395, 25.7863, 29.8992, 24.8992, 29.9798, 20.5040, 29.1331, 16.8750, 26.7540, 13.0040, 24.4556, 9.1734, 20.4637, 4.9395, 16.8347, 0.0202, 13.0847, -4.0927, 9.0524, -8.0444, 4.9395]
y: [2.5572, 2.5572, -3.2571, -3.4724, 2.1265, -4.1184, 1.9112, -3.9031, 1.9112, -2.8264, 3.7416, -0.8883, 6.2180, 1.1575, 9.7712, 3.6339, 13.5397, 7.7254, 18.7079, 13.5397, 23.8762, 18.3849, 27.5370, 23.8762, 27.7524, 27.6447, 25.7066, 31.9515, 23.8762, 32.3822, 21.9381, 32.3822, 21.6151, 30.1211, 21.5074, 28.3984, 23.4455, 26.6756, 25.9219, 26.2450]
colour: [ORANGE, ORANGE, ORANGE, ORANGE, BLUE, YELLOW, BLUE, YELLOW, BLUE, YELLOW, BLUE, YELLOW, BLUE, YELLOW, BLUE, YELLOW, BLUE, YELLOW, BLUE, YELLOW, BLUE, YELLOW, BLUE, YELLOW, BLUE, YELLOW, BLUE, YELLOW, BLUE, YELLOW, BLUE, YELLOW, BLUE, YELLOW, BLUE, YELLOW, BLUE, YELLOW, BLUE, YELLOW]
---
header:
  seq: 41
  stamp:
    secs: 0
    nsecs:         0
  frame_id: "map"
x: [6.2702, 6.7540, 6.7137, 6.1492, 2.0363, 1.9153, 10.0202, 10.0202, 15.0202, 15.0605, 19.9395, 19.9395, 24.0524, 24.0927, 25.9476, 26.1089, 25.9073, 30.0202, 25.8669, 29.9395, 25.7863, 29.8992, 24.8992, 29.9798, 20.5040, 29.1331, 16.8750, 26.7540, 13.0040, 24.4556, 9.1734, 20.4637, 4.9395, 16.8347, 0.0202, 13.0847, -4.0927, 9.0524, -8.0444, 4.9395, -11.9153]
y: [2.5572, 2.5572, -3.2571, -3.4724, 2.1265, -4.1184, 1.9112, -3.9031, 1.9112, -2.8264, 3.7416, -0.8883, 6.2180, 1.1575, 9.7712, 3.6339, 13.5397, 7.7254, 18.7079, 13.5397, 23.8762, 18.3849, 27.5370, 23.8762, 27.7524, 27.6447, 25.7066, 31.9515, 23.8762, 32.3822, 21.9381, 32.3822, 21.6151, 30.1211, 21.5074, 28.3984, 23.4455, 26.6756, 25.9219, 26.2450, 27.5370]
colour: [ORANGE, ORANGE, ORANGE, ORANGE, BLUE, YELLOW, BLUE, YELLOW, BLUE, YELLOW, BLUE, YELLOW, BLUE, YELLOW, BLUE, YELLOW, BLUE, YELLOW, BLUE, YELLOW, BLUE, YELLOW, BLUE, YELLOW, BLUE, YELLOW, BLUE, YELLOW, BLUE, YELLOW, BLUE, YELLOW, BLUE, YELLOW, BLUE, YELLOW, BLUE, YELLOW, BLUE, YELLOW, BLUE]
---
header:
  seq: 42
  stamp:
    secs: 0
    nsecs:         0
  frame_id: "map"
x: [6.2702, 6.7540, 6.7137, 6.1492, 2.0363, 1.9153, 10.0202, 10.0202, 15.0202, 15.0605, 19.9395, 19.9395, 24.0524, 24.0927, 25.9476, 26.1089, 25.9073, 30.0202, 25.8669, 29.9395, 25.7863, 29.8992, 24.8992, 29.9798, 20.5040, 29.1331, 16.8750, 26.7540, 13.0040, 24.4556, 9.1734, 20.4637, 4.9395, 16.8347, 0.0202, 13.0847, -4.0927, 9.0524, -8.0444, 4.9395, -11.9153, 0.0202]
y: [2.5572, 2.5572, -3.2571, -3.4724, 2.1265, -4.1184, 1.9112, -3.9031, 1.9112, -2.8264, 3.7416, -0.8883, 6.2180, 1.1575, 9.7712, 3.6339, 13.5397, 7.7254, 18.7079, 13.5397, 23.8762, 18.3849, 27.5370, 23.8762, 27.7524, 27.6447, 25.7066, 31.9515, 23.8762, 32.3822, 21.9381, 32.3822, 21.6151, 30.1211, 21.5074, 28.3984, 23.4455, 26.6756, 25.9219, 26.2450, 27.5370, 25.5989]
colour: [ORANGE, ORANGE, ORANGE, ORANGE, BLUE, YELLOW, BLUE, YELLOW, BLUE, YELLOW, BLUE, YELLOW, BLUE, YELLOW, BLUE, YELLOW, BLUE, YELLOW, BLUE, YELLOW, BLUE, YELLOW, BLUE, YELLOW, BLUE, YELLOW, BLUE, YELLOW, BLUE, YELLOW, BLUE, YELLOW, BLUE, YELLOW, BLUE, YELLOW, BLUE, YELLOW, BLUE, YELLOW, BLUE, YELLOW]
---
header:
  seq: 43
  stamp:
    secs: 0
    nsecs:         0
  frame_id: "map"
x: [6.2702, 6.7540, 6.7137, 6.1492, 2.0363, 1.9153, 10.0202, 10.0202, 15.0202, 15.0605, 19.9395, 19.9395, 24.0524, 24.0927, 25.9476, 26.1089, 25.9073, 30.0202, 25.8669, 29.9395, 25.7863, 29.8992, 24.8992, 29.9798, 20.5040, 29.1331, 16.8750, 26.7540, 13.0040, 24.4556, 9.1734, 20.4637, 4.9395, 16.8347, 0.0202, 13.0847, -4.0927, 9.0524, -8.0444, 4.9395, -11.9153, 0.0202, -11.8347]
y: [2.5572, 2.5572, -3.2571, -3.4724, 2.1265, -4.1184, 1.9112, -3.9031, 1.9112, -2.8264, 3.7416, -0.8883, 6.2180, 1.1575, 9.7712, 3.6339, 13.5397, 7.7254, 18.7079, 13.5397, 23.8762, 18.3849, 27.5370, 23.8762, 27.7524, 27.6447, 25.7066, 31.9515, 23.8762, 32.3822, 21.9381, 32.3822, 21.6151, 30.1211, 21.5074, 28.3984, 23.4455, 26.6756, 25.9219, 26.2450, 27.5370, 25.5989, 22.4764]
colour: [ORANGE, ORANGE, ORANGE, ORANGE, BLUE, YELLOW, BLUE, YELLOW, BLUE, YELLOW, BLUE, YELLOW, BLUE, YELLOW, BLUE, YELLOW, BLUE, YELLOW, BLUE, YELLOW, BLUE, YELLOW, BLUE, YELLOW, BLUE, YELLOW, BLUE, YELLOW, BLUE, YELLOW, BLUE, YELLOW, BLUE, YELLOW, BLUE, YELLOW, BLUE, YELLOW, BLUE, YELLOW, BLUE, YELLOW, BLUE]
---
header:
  seq: 44
  stamp:
    secs: 0
    nsecs:         0
  frame_id: "map"
x: [6.2702, 6.7540, 6.7137, 6.1492, 2.0363, 1.9153, 10.0202, 10.0202, 15.0202, 15.0605, 19.9395, 19.9395, 24.0524, 24.0927, 25.9476, 26.1089, 25.9073, 30.0202, 25.8669, 29.9395, 25.7863, 29.8992, 24.8992, 29.9798, 20.5040, 29.1331, 16.8750, 26.7540, 13.0040, 24.4556, 9.1734, 20.4637, 4.9395, 16.8347, 0.0202, 13.0847, -4.0927, 9.0524, -8.0444, 4.9395, -11.9153, 0.0202, -11.8347, -4.0121]
y: [2.5572, 2.5572, -3.2571, -3.4724, 2.1265, -4.1184, 1.9112, -3.9031, 1.9112, -2.8264, 3.7416, -0.8883, 6.2180, 1.1575, 9.7712, 3.6339, 13.5397, 7.7254, 18.7079, 13.5397, 23.8762, 18.3849, 27.5370, 23.8762, 27.7524, 27.6447, 25.7066, 31.9515, 23.8762, 32.3822, 21.9381, 32.3822, 21.6151, 30.1211, 21.5074, 28.3984, 23.4455, 26.6756, 25.9219, 26.2450, 27.5370, 25.5989, 22.4764, 27.6447]
colour: [ORANGE, ORANGE, ORANGE, ORANGE, BLUE, YELLOW, BLUE, YELLOW, BLUE, YELLOW, BLUE, YELLOW, BLUE, YELLOW, BLUE, YELLOW, BLUE, YELLOW, BLUE, YELLOW, BLUE, YELLOW, BLUE, YELLOW, BLUE, YELLOW, BLUE, YELLOW, BLUE, YELLOW, BLUE, YELLOW, BLUE, YELLOW, BLUE, YELLOW, BLUE, YELLOW, BLUE, YELLOW, BLUE, YELLOW, BLUE, YELLOW]
---
header:
  seq: 45
  stamp:
    secs: 0
    nsecs:         0
  frame_id: "map"
x: [6.2702, 6.7540, 6.7137, 6.1492, 2.0363, 1.9153, 10.0202, 10.0202, 15.0202, 15.0605, 19.9395, 19.9395, 24.0524, 24.0927, 25.9476, 26.1089, 25.9073, 30.0202, 25.8669, 29.9395, 25.7863, 29.8992, 24.8992, 29.9798, 20.5040, 29.1331, 16.8750, 26.7540, 13.0040, 24.4556, 9.1734, 20.4637, 4.9395, 16.8347, 0.0202, 13.0847, -4.0927, 9.0524, -8.0444, 4.9395, -11.9153, 0.0202, -11.8347, -4.0121, -11.9556]
y: [2.5572, 2.5572, -3.2571, -3.4724, 2.1265, -4.1184, 1.9112, -3.9031, 1.9112, -2.8264, 3.7416, -0.8883, 6.2180, 1.1575, 9.7712, 3.6339, 13.5397, 7.7254, 18.7079, 13.5397, 23.8762, 18.3849, 27.5370, 23.8762, 27.7524, 27.6447, 25.7066, 31.9515, 23.8762, 32.3822, 21.9381, 32.3822, 21.6151, 30.1211, 21.5074, 28.3984, 23.4455, 26.6756, 25.9219, 26.2450, 27.5370, 25.5989, 22.4764, 27.6447, 16.9852]
colour: [ORANGE, ORANGE, ORANGE, ORANGE, BLUE, YELLOW, BLUE, YELLOW, BLUE, YELLOW, BLUE, YELLOW, BLUE, YELLOW, BLUE, YELLOW, BLUE, YELLOW, BLUE, YELLOW, BLUE, YELLOW, BLUE, YELLOW, BLUE, YELLOW, BLUE, YELLOW, BLUE, YELLOW, BLUE, YELLOW, BLUE, YELLOW, BLUE, YELLOW, BLUE, YELLOW, BLUE, YELLOW, BLUE, YELLOW, BLUE, YELLOW, BLUE]
---
header:
  seq: 46
  stamp:
    secs: 0
    nsecs:         0
  frame_id: "map"
x: [6.2702, 6.7540, 6.7137, 6.1492, 2.0363, 1.9153, 10.0202, 10.0202, 15.0202, 15.0605, 19.9395, 19.9395, 24.0524, 24.0927, 25.9476, 26.1089, 25.9073, 30.0202, 25.8669, 29.9395, 25.7863, 29.8992, 24.8992, 29.9798, 20.5040, 29.1331, 16.8750, 26.7540, 13.0040, 24.4556, 9.1734, 20.4637, 4.9395, 16.8347, 0.0202, 13.0847, -4.0927, 9.0524, -8.0444, 4.9395, -11.9153, 0.0202, -11.8347, -4.0121, -11.9556, -8.0040]
y: [2.5572, 2.5572, -3.2571, -3.4724, 2.1265, -4.1184, 1.9112, -3.9031, 1.9112, -2.8264, 3.7416, -0.8883, 6.2180, 1.1575, 9.7712, 3.6339, 13.5397, 7.7254, 18.7079, 13.5397, 23.8762, 18.3849, 27.5370, 23.8762, 27.7524, 27.6447, 25.7066, 31.9515, 23.8762, 32.3822, 21.9381, 32.3822, 21.6151, 30.1211, 21.5074, 28.3984, 23.4455, 26.6756, 25.9219, 26.2450, 27.5370, 25.5989, 22.4764, 27.6447, 16.9852, 29.7981]
colour: [ORANGE, ORANGE, ORANGE, ORANGE, BLUE, YELLOW, BLUE, YELLOW, BLUE, YELLOW, BLUE, YELLOW, BLUE, YELLOW, BLUE, YELLOW, BLUE, YELLOW, BLUE, YELLOW, BLUE, YELLOW, BLUE, YELLOW, BLUE, YELLOW, BLUE, YELLOW, BLUE, YELLOW, BLUE, YELLOW, BLUE, YELLOW, BLUE, YELLOW, BLUE, YELLOW, BLUE, YELLOW, BLUE, YELLOW, BLUE, YELLOW, BLUE, YELLOW]
---
header:
  seq: 47
  stamp:
    secs: 0
    nsecs:         0
  frame_id: "map"
x: [6.2702, 6.7540, 6.7137, 6.1492, 2.0363, 1.9153, 10.0202, 10.0202, 15.0202, 15.0605, 19.9395, 19.9395, 24.0524, 24.0927, 25.9476, 26.1089, 25.9073, 30.0202, 25.8669, 29.9395, 25.7863, 29.8992, 24.8992, 29.9798, 20.5040, 29.1331, 16.8750, 26.7540, 13.0040, 24.4556, 9.1734, 20.4637, 4.9395, 16.8347, 0.0202, 13.0847, -4.0927, 9.0524, -8.0444, 4.9395, -11.9153, 0.0202, -11.8347, -4.0121, -11.9556, -8.0040, -12.0363]
y: [2.5572, 2.5572, -3.2571, -3.4724, 2.1265, -4.1184, 1.9112, -3.9031, 1.9112, -2.8264, 3.7416, -0.8883, 6.2180, 1.1575, 9.7712, 3.6339, 13.5397, 7.7254, 18.7079, 13.5397, 23.8762, 18.3849, 27.5370, 23.8762, 27.7524, 27.6447, 25.7066, 31.9515, 23.8762, 32.3822, 21.9381, 32.3822, 21.6151, 30.1211, 21.5074, 28.3984, 23.4455, 26.6756, 25.9219, 26.2450, 27.5370, 25.5989, 22.4764, 27.6447, 16.9852, 29.7981, 11.9246]
colour: [ORANGE, ORANGE, ORANGE, ORANGE, BLUE, YELLOW, BLUE, YELLOW, BLUE, YELLOW, BLUE, YELLOW, BLUE, YELLOW, BLUE, YELLOW, BLUE, YELLOW, BLUE, YELLOW, BLUE, YELLOW, BLUE, YELLOW, BLUE, YELLOW, BLUE, YELLOW, BLUE, YELLOW, BLUE, YELLOW, BLUE, YELLOW, BLUE, YELLOW, BLUE, YELLOW, BLUE, YELLOW, BLUE, YELLOW, BLUE, YELLOW, BLUE, YELLOW, BLUE]
---
header:
  seq: 48
  stamp:
    secs: 0
    nsecs:         0
  frame_id: "map"
x: [6.2702, 6.7540, 6.7137, 6.1492, 2.0363, 1.9153, 10.0202, 10.0202, 15.0202, 15.0605, 19.9395, 19.9395, 24.0524, 24.0927, 25.9476, 26.1089, 25.9073, 30.0202, 25.8669, 29.9395, 25.7863, 29.8992, 24.8992, 29.9798, 20.5040, 29.1331, 16.8750, 26.7540, 13.0040, 24.4556, 9.1734, 20.4637, 4.9395, 16.8347, 0.0202, 13.0847, -4.0927, 9.0524, -8.0444, 4.9395, -11.9153, 0.0202, -11.8347, -4.0121, -11.9556, -8.0040, -12.0363, -11.1895]
y: [2.5572, 2.5572, -3.2571, -3.4724, 2.1265, -4.1184, 1.9112, -3.9031, 1.9112, -2.8264, 3.7416, -0.8883, 6.2180, 1.1575, 9.7712, 3.6339, 13.5397, 7.7254, 18.7079, 13.5397, 23.8762, 18.3849, 27.5370, 23.8762, 27.7524, 27.6447, 25.7066, 31.9515, 23.8762, 32.3822, 21.9381, 32.3822, 21.6151, 30.1211, 21.5074, 28.3984, 23.4455, 26.6756, 25.9219, 26.2450, 27.5370, 25.5989, 22.4764, 27.6447, 16.9852, 29.7981, 11.9246, 31.8439]
colour: [ORANGE, ORANGE, ORANGE, ORANGE, BLUE, YELLOW, BLUE, YELLOW, BLUE, YELLOW, BLUE, YELLOW, BLUE, YELLOW, BLUE, YELLOW, BLUE, YELLOW, BLUE, YELLOW, BLUE, YELLOW, BLUE, YELLOW, BLUE, YELLOW, BLUE, YELLOW, BLUE, YELLOW, BLUE, YELLOW, BLUE, YELLOW, BLUE, YELLOW, BLUE, YELLOW, BLUE, YELLOW, BLUE, YELLOW, BLUE, YELLOW, BLUE, YELLOW, BLUE, YELLOW]
---
header:
  seq: 49
  stamp:
    secs: 0
    nsecs:         0
  frame_id: "map"
x: [6.2702, 6.7540, 6.7137, 6.1492, 2.0363, 1.9153, 10.0202, 10.0202, 15.0202, 15.0605, 19.9395, 19.9395, 24.0524, 24.0927, 25.9476, 26.1089, 25.9073, 30.0202, 25.8669, 29.9395, 25.7863, 29.8992, 24.8992, 29.9798, 20.5040, 29.1331, 16.8750, 26.7540, 13.0040, 24.4556, 9.1734, 20.4637, 4.9395, 16.8347, 0.0202, 13.0847, -4.0927, 9.0524, -8.0444, 4.9395, -11.9153, 0.0202, -11.8347, -4.0121, -11.9556, -8.0040, -12.0363, -11.1895, -11.0685]
y: [2.5572, 2.5572, -3.2571, -3.4724, 2.1265, -4.1184, 1.9112, -3.9031, 1.9112, -2.8264, 3.7416, -0.8883, 6.2180, 1.1575, 9.7712, 3.6339, 13.5397, 7.7254, 18.7079, 13.5397, 23.8762, 18.3849, 27.5370, 23.8762, 27.7524, 27.6447, 25.7066, 31.9515, 23.8762, 32.3822, 21.9381, 32.3822, 21.6151, 30.1211, 21.5074, 28.3984, 23.4455, 26.6756, 25.9219, 26.2450, 27.5370, 25.5989, 22.4764, 27.6447, 16.9852, 29.7981, 11.9246, 31.8439, 7.9408]
colour: [ORANGE, ORANGE, ORANGE, ORANGE, BLUE, YELLOW, BLUE, YELLOW, BLUE, YELLOW, BLUE, YELLOW, BLUE, YELLOW, BLUE, YELLOW, BLUE, YELLOW, BLUE, YELLOW, BLUE, YELLOW, BLUE, YELLOW, BLUE, YELLOW, BLUE, YELLOW, BLUE, YELLOW, BLUE, YELLOW, BLUE, YELLOW, BLUE, YELLOW, BLUE, YELLOW, BLUE, YELLOW, BLUE, YELLOW, BLUE, YELLOW, BLUE, YELLOW, BLUE, YELLOW, BLUE]
---
header:
  seq: 50
  stamp:
    secs: 0
    nsecs:         0
  frame_id: "map"
x: [6.2702, 6.7540, 6.7137, 6.1492, 2.0363, 1.9153, 10.0202, 10.0202, 15.0202, 15.0605, 19.9395, 19.9395, 24.0524, 24.0927, 25.9476, 26.1089, 25.9073, 30.0202, 25.8669, 29.9395, 25.7863, 29.8992, 24.8992, 29.9798, 20.5040, 29.1331, 16.8750, 26.7540, 13.0040, 24.4556, 9.1734, 20.4637, 4.9395, 16.8347, 0.0202, 13.0847, -4.0927, 9.0524, -8.0444, 4.9395, -11.9153, 0.0202, -11.8347, -4.0121, -11.9556, -8.0040, -12.0363, -11.1895, -11.0685, -14.4960]
y: [2.5572, 2.5572, -3.2571, -3.4724, 2.1265, -4.1184, 1.9112, -3.9031, 1.9112, -2.8264, 3.7416, -0.8883, 6.2180, 1.1575, 9.7712, 3.6339, 13.5397, 7.7254, 18.7079, 13.5397, 23.8762, 18.3849, 27.5370, 23.8762, 27.7524, 27.6447, 25.7066, 31.9515, 23.8762, 32.3822, 21.9381, 32.3822, 21.6151, 30.1211, 21.5074, 28.3984, 23.4455, 26.6756, 25.9219, 26.2450, 27.5370, 25.5989, 22.4764, 27.6447, 16.9852, 29.7981, 11.9246, 31.8439, 7.9408, 31.3055]
colour: [ORANGE, ORANGE, ORANGE, ORANGE, BLUE, YELLOW, BLUE, YELLOW, BLUE, YELLOW, BLUE, YELLOW, BLUE, YELLOW, BLUE, YELLOW, BLUE, YELLOW, BLUE, YELLOW, BLUE, YELLOW, BLUE, YELLOW, BLUE, YELLOW, BLUE, YELLOW, BLUE, YELLOW, BLUE, YELLOW, BLUE, YELLOW, BLUE, YELLOW, BLUE, YELLOW, BLUE, YELLOW, BLUE, YELLOW, BLUE, YELLOW, BLUE, YELLOW, BLUE, YELLOW, BLUE, YELLOW]
---
header:
  seq: 51
  stamp:
    secs: 0
    nsecs:         0
  frame_id: "map"
x: [6.2702, 6.7540, 6.7137, 6.1492, 2.0363, 1.9153, 10.0202, 10.0202, 15.0202, 15.0605, 19.9395, 19.9395, 24.0524, 24.0927, 25.9476, 26.1089, 25.9073, 30.0202, 25.8669, 29.9395, 25.7863, 29.8992, 24.8992, 29.9798, 20.5040, 29.1331, 16.8750, 26.7540, 13.0040, 24.4556, 9.1734, 20.4637, 4.9395, 16.8347, 0.0202, 13.0847, -4.0927, 9.0524, -8.0444, 4.9395, -11.9153, 0.0202, -11.8347, -4.0121, -11.9556, -8.0040, -12.0363, -11.1895, -11.0685, -14.4960, -9.9798]
y: [2.5572, 2.5572, -3.2571, -3.4724, 2.1265, -4.1184, 1.9112, -3.9031, 1.9112, -2.8264, 3.7416, -0.8883, 6.2180, 1.1575, 9.7712, 3.6339, 13.5397, 7.7254, 18.7079, 13.5397, 23.8762, 18.3849, 27.5370, 23.8762, 27.7524, 27.6447, 25.7066, 31.9515, 23.8762, 32.3822, 21.9381, 32.3822, 21.6151, 30.1211, 21.5074, 28.3984, 23.4455, 26.6756, 25.9219, 26.2450, 27.5370, 25.5989, 22.4764, 27.6447, 16.9852, 29.7981, 11.9246, 31.8439, 7.9408, 31.3055, 3.9569]
colour: [ORANGE, ORANGE, ORANGE, ORANGE, BLUE, YELLOW, BLUE, YELLOW, BLUE, YELLOW, BLUE, YELLOW, BLUE, YELLOW, BLUE, YELLOW, BLUE, YELLOW, BLUE, YELLOW, BLUE, YELLOW, BLUE, YELLOW, BLUE, YELLOW, BLUE, YELLOW, BLUE, YELLOW, BLUE, YELLOW, BLUE, YELLOW, BLUE, YELLOW, BLUE, YELLOW, BLUE, YELLOW, BLUE, YELLOW, BLUE, YELLOW, BLUE, YELLOW, BLUE, YELLOW, BLUE, YELLOW, BLUE]
---
header:
  seq: 52
  stamp:
    secs: 0
    nsecs:         0
  frame_id: "map"
x: [6.2702, 6.7540, 6.7137, 6.1492, 2.0363, 1.9153, 10.0202, 10.0202, 15.0202, 15.0605, 19.9395, 19.9395, 24.0524, 24.0927, 25.9476, 26.1089, 25.9073, 30.0202, 25.8669, 29.9395, 25.7863, 29.8992, 24.8992, 29.9798, 20.5040, 29.1331, 16.8750, 26.7540, 13.0040, 24.4556, 9.1734, 20.4637, 4.9395, 16.8347, 0.0202, 13.0847, -4.0927, 9.0524, -8.0444, 4.9395, -11.9153, 0.0202, -11.8347, -4.0121, -11.9556, -8.0040, -12.0363, -11.1895, -11.0685, -14.4960, -9.9798, -16.0282]
y: [2.5572, 2.5572, -3.2571, -3.4724, 2.1265, -4.1184, 1.9112, -3.9031, 1.9112, -2.8264, 3.7416, -0.8883, 6.2180, 1.1575, 9.7712, 3.6339, 13.5397, 7.7254, 18.7079, 13.5397, 23.8762, 18.3849, 27.5370, 23.8762, 27.7524, 27.6447, 25.7066, 31.9515, 23.8762, 32.3822, 21.9381, 32.3822, 21.6151, 30.1211, 21.5074, 28.3984, 23.4455, 26.6756, 25.9219, 26.2450, 27.5370, 25.5989, 22.4764, 27.6447, 16.9852, 29.7981, 11.9246, 31.8439, 7.9408, 31.3055, 3.9569, 27.8600]
colour: [ORANGE, ORANGE, ORANGE, ORANGE, BLUE, YELLOW, BLUE, YELLOW, BLUE, YELLOW, BLUE, YELLOW, BLUE, YELLOW, BLUE, YELLOW, BLUE, YELLOW, BLUE, YELLOW, BLUE, YELLOW, BLUE, YELLOW, BLUE, YELLOW, BLUE, YELLOW, BLUE, YELLOW, BLUE, YELLOW, BLUE, YELLOW, BLUE, YELLOW, BLUE, YELLOW, BLUE, YELLOW, BLUE, YELLOW, BLUE, YELLOW, BLUE, YELLOW, BLUE, YELLOW, BLUE, YELLOW, BLUE, YELLOW]
---
header:
  seq: 53
  stamp:
    secs: 0
    nsecs:         0
  frame_id: "map"
x: [6.2702, 6.7540, 6.7137, 6.1492, 2.0363, 1.9153, 10.0202, 10.0202, 15.0202, 15.0605, 19.9395, 19.9395, 24.0524, 24.0927, 25.9476, 26.1089, 25.9073, 30.0202, 25.8669, 29.9395, 25.7863, 29.8992, 24.8992, 29.9798, 20.5040, 29.1331, 16.8750, 26.7540, 13.0040, 24.4556, 9.1734, 20.4637, 4.9395, 16.8347, 0.0202, 13.0847, -4.0927, 9.0524, -8.0444, 4.9395, -11.9153, 0.0202, -11.8347, -4.0121, -11.9556, -8.0040, -12.0363, -11.1895, -11.0685, -14.4960, -9.9798, -16.0282, -8.0847]
y: [2.5572, 2.5572, -3.2571, -3.4724, 2.1265, -4.1184, 1.9112, -3.9031, 1.9112, -2.8264, 3.7416, -0.8883, 6.2180, 1.1575, 9.7712, 3.6339, 13.5397, 7.7254, 18.7079, 13.5397, 23.8762, 18.3849, 27.5370, 23.8762, 27.7524, 27.6447, 25.7066, 31.9515, 23.8762, 32.3822, 21.9381, 32.3822, 21.6151, 30.1211, 21.5074, 28.3984, 23.4455, 26.6756, 25.9219, 26.2450, 27.5370, 25.5989, 22.4764, 27.6447, 16.9852, 29.7981, 11.9246, 31.8439, 7.9408, 31.3055, 3.9569, 27.8600, 1.8035]
colour: [ORANGE, ORANGE, ORANGE, ORANGE, BLUE, YELLOW, BLUE, YELLOW, BLUE, YELLOW, BLUE, YELLOW, BLUE, YELLOW, BLUE, YELLOW, BLUE, YELLOW, BLUE, YELLOW, BLUE, YELLOW, BLUE, YELLOW, BLUE, YELLOW, BLUE, YELLOW, BLUE, YELLOW, BLUE, YELLOW, BLUE, YELLOW, BLUE, YELLOW, BLUE, YELLOW, BLUE, YELLOW, BLUE, YELLOW, BLUE, YELLOW, BLUE, YELLOW, BLUE, YELLOW, BLUE, YELLOW, BLUE, YELLOW, BLUE]
---
header:
  seq: 54
  stamp:
    secs: 0
    nsecs:         0
  frame_id: "map"
x: [6.2702, 6.7540, 6.7137, 6.1492, 2.0363, 1.9153, 10.0202, 10.0202, 15.0202, 15.0605, 19.9395, 19.9395, 24.0524, 24.0927, 25.9476, 26.1089, 25.9073, 30.0202, 25.8669, 29.9395, 25.7863, 29.8992, 24.8992, 29.9798, 20.5040, 29.1331, 16.8750, 26.7540, 13.0040, 24.4556, 9.1734, 20.4637, 4.9395, 16.8347, 0.0202, 13.0847, -4.0927, 9.0524, -8.0444, 4.9395, -11.9153, 0.0202, -11.8347, -4.0121, -11.9556, -8.0040, -12.0363, -11.1895, -11.0685, -14.4960, -9.9798, -16.0282, -8.0847, -16.1895]
y: [2.5572, 2.5572, -3.2571, -3.4724, 2.1265, -4.1184, 1.9112, -3.9031, 1.9112, -2.8264, 3.7416, -0.8883, 6.2180, 1.1575, 9.7712, 3.6339, 13.5397, 7.7254, 18.7079, 13.5397, 23.8762, 18.3849, 27.5370, 23.8762, 27.7524, 27.6447, 25.7066, 31.9515, 23.8762, 32.3822, 21.9381, 32.3822, 21.6151, 30.1211, 21.5074, 28.3984, 23.4455, 26.6756, 25.9219, 26.2450, 27.5370, 25.5989, 22.4764, 27.6447, 16.9852, 29.7981, 11.9246, 31.8439, 7.9408, 31.3055, 3.9569, 27.8600, 1.8035, 21.9381]
colour: [ORANGE, ORANGE, ORANGE, ORANGE, BLUE, YELLOW, BLUE, YELLOW, BLUE, YELLOW, BLUE, YELLOW, BLUE, YELLOW, BLUE, YELLOW, BLUE, YELLOW, BLUE, YELLOW, BLUE, YELLOW, BLUE, YELLOW, BLUE, YELLOW, BLUE, YELLOW, BLUE, YELLOW, BLUE, YELLOW, BLUE, YELLOW, BLUE, YELLOW, BLUE, YELLOW, BLUE, YELLOW, BLUE, YELLOW, BLUE, YELLOW, BLUE, YELLOW, BLUE, YELLOW, BLUE, YELLOW, BLUE, YELLOW, BLUE, YELLOW]
---
header:
  seq: 55
  stamp:
    secs: 0
    nsecs:         0
  frame_id: "map"
x: [6.2702, 6.7540, 6.7137, 6.1492, 2.0363, 1.9153, 10.0202, 10.0202, 15.0202, 15.0605, 19.9395, 19.9395, 24.0524, 24.0927, 25.9476, 26.1089, 25.9073, 30.0202, 25.8669, 29.9395, 25.7863, 29.8992, 24.8992, 29.9798, 20.5040, 29.1331, 16.8750, 26.7540, 13.0040, 24.4556, 9.1734, 20.4637, 4.9395, 16.8347, 0.0202, 13.0847, -4.0927, 9.0524, -8.0444, 4.9395, -11.9153, 0.0202, -11.8347, -4.0121, -11.9556, -8.0040, -12.0363, -11.1895, -11.0685, -14.4960, -9.9798, -16.0282, -8.0847, -16.1895, -4.0524]
y: [2.5572, 2.5572, -3.2571, -3.4724, 2.1265, -4.1184, 1.9112, -3.9031, 1.9112, -2.8264, 3.7416, -0.8883, 6.2180, 1.1575, 9.7712, 3.6339, 13.5397, 7.7254, 18.7079, 13.5397, 23.8762, 18.3849, 27.5370, 23.8762, 27.7524, 27.6447, 25.7066, 31.9515, 23.8762, 32.3822, 21.9381, 32.3822, 21.6151, 30.1211, 21.5074, 28.3984, 23.4455, 26.6756, 25.9219, 26.2450, 27.5370, 25.5989, 22.4764, 27.6447, 16.9852, 29.7981, 11.9246, 31.8439, 7.9408, 31.3055, 3.9569, 27.8600, 1.8035, 21.9381, 1.6958]
colour: [ORANGE, ORANGE, ORANGE, ORANGE, BLUE, YELLOW, BLUE, YELLOW, BLUE, YELLOW, BLUE, YELLOW, BLUE, YELLOW, BLUE, YELLOW, BLUE, YELLOW, BLUE, YELLOW, BLUE, YELLOW, BLUE, YELLOW, BLUE, YELLOW, BLUE, YELLOW, BLUE, YELLOW, BLUE, YELLOW, BLUE, YELLOW, BLUE, YELLOW, BLUE, YELLOW, BLUE, YELLOW, BLUE, YELLOW, BLUE, YELLOW, BLUE, YELLOW, BLUE, YELLOW, BLUE, YELLOW, BLUE, YELLOW, BLUE, YELLOW, BLUE]
---
header:
  seq: 56
  stamp:
    secs: 0
    nsecs:         0
  frame_id: "map"
x: [6.2702, 6.7540, 6.7137, 6.1492, 2.0363, 1.9153, 10.0202, 10.0202, 15.0202, 15.0605, 19.9395, 19.9395, 24.0524, 24.0927, 25.9476, 26.1089, 25.9073, 30.0202, 25.8669, 29.9395, 25.7863, 29.8992, 24.8992, 29.9798, 20.5040, 29.1331, 16.8750, 26.7540, 13.0040, 24.4556, 9.1734, 20.4637, 4.9395, 16.8347, 0.0202, 13.0847, -4.0927, 9.0524, -8.0444, 4.9395, -11.9153, 0.0202, -11.8347, -4.0121, -11.9556, -8.0040, -12.0363, -11.1895, -11.0685, -14.4960, -9.9798, -16.0282, -8.0847, -16.1895, -4.0524, -15.9476]
y: [2.5572, 2.5572, -3.2571, -3.4724, 2.1265, -4.1184, 1.9112, -3.9031, 1.9112, -2.8264, 3.7416, -0.8883, 6.2180, 1.1575, 9.7712, 3.6339, 13.5397, 7.7254, 18.7079, 13.5397, 23.8762, 18.3849, 27.5370, 23.8762, 27.7524, 27.6447, 25.7066, 31.9515, 23.8762, 32.3822, 21.9381, 32.3822, 21.6151, 30.1211, 21.5074, 28.3984, 23.4455, 26.6756, 25.9219, 26.2450, 27.5370, 25.5989, 22.4764, 27.6447, 16.9852, 29.7981, 11.9246, 31.8439, 7.9408, 31.3055, 3.9569, 27.8600, 1.8035, 21.9381, 1.6958, 16.4468]
colour: [ORANGE, ORANGE, ORANGE, ORANGE, BLUE, YELLOW, BLUE, YELLOW, BLUE, YELLOW, BLUE, YELLOW, BLUE, YELLOW, BLUE, YELLOW, BLUE, YELLOW, BLUE, YELLOW, BLUE, YELLOW, BLUE, YELLOW, BLUE, YELLOW, BLUE, YELLOW, BLUE, YELLOW, BLUE, YELLOW, BLUE, YELLOW, BLUE, YELLOW, BLUE, YELLOW, BLUE, YELLOW, BLUE, YELLOW, BLUE, YELLOW, BLUE, YELLOW, BLUE, YELLOW, BLUE, YELLOW, BLUE, YELLOW, BLUE, YELLOW, BLUE, YELLOW]
---
header:
  seq: 57
  stamp:
    secs: 0
    nsecs:         0
  frame_id: "map"
x: [6.2702, 6.7540, 6.7137, 6.1492, 2.0363, 1.9153, 10.0202, 10.0202, 15.0202, 15.0605, 19.9395, 19.9395, 24.0524, 24.0927, 25.9476, 26.1089, 25.9073, 30.0202, 25.8669, 29.9395, 25.7863, 29.8992, 24.8992, 29.9798, 20.5040, 29.1331, 16.8750, 26.7540, 13.0040, 24.4556, 9.1734, 20.4637, 4.9395, 16.8347, 0.0202, 13.0847, -4.0927, 9.0524, -8.0444, 4.9395, -11.9153, 0.0202, -11.8347, -4.0121, -11.9556, -8.0040, -12.0363, -11.1895, -11.0685, -14.4960, -9.9798, -16.0282, -8.0847, -16.1895, -4.0524, -15.9476, -15.4637]
y: [2.5572, 2.5572, -3.2571, -3.4724, 2.1265, -4.1184, 1.9112, -3.9031, 1.9112, -2.8264, 3.7416, -0.8883, 6.2180, 1.1575, 9.7712, 3.6339, 13.5397, 7.7254, 18.7079, 13.5397, 23.8762, 18.3849, 27.5370, 23.8762, 27.7524, 27.6447, 25.7066, 31.9515, 23.8762, 32.3822, 21.9381, 32.3822, 21.6151, 30.1211, 21.5074, 28.3984, 23.4455, 26.6756, 25.9219, 26.2450, 27.5370, 25.5989, 22.4764, 27.6447, 16.9852, 29.7981, 11.9246, 31.8439, 7.9408, 31.3055, 3.9569, 27.8600, 1.8035, 21.9381, 1.6958, 16.4468, 11.4939]
colour: [ORANGE, ORANGE, ORANGE, ORANGE, BLUE, YELLOW, BLUE, YELLOW, BLUE, YELLOW, BLUE, YELLOW, BLUE, YELLOW, BLUE, YELLOW, BLUE, YELLOW, BLUE, YELLOW, BLUE, YELLOW, BLUE, YELLOW, BLUE, YELLOW, BLUE, YELLOW, BLUE, YELLOW, BLUE, YELLOW, BLUE, YELLOW, BLUE, YELLOW, BLUE, YELLOW, BLUE, YELLOW, BLUE, YELLOW, BLUE, YELLOW, BLUE, YELLOW, BLUE, YELLOW, BLUE, YELLOW, BLUE, YELLOW, BLUE, YELLOW, BLUE, YELLOW, YELLOW]
---
header:
  seq: 58
  stamp:
    secs: 0
    nsecs:         0
  frame_id: "map"
x: [6.2702, 6.7540, 6.7137, 6.1492, 2.0363, 1.9153, 10.0202, 10.0202, 15.0202, 15.0605, 19.9395, 19.9395, 24.0524, 24.0927, 25.9476, 26.1089, 25.9073, 30.0202, 25.8669, 29.9395, 25.7863, 29.8992, 24.8992, 29.9798, 20.5040, 29.1331, 16.8750, 26.7540, 13.0040, 24.4556, 9.1734, 20.4637, 4.9395, 16.8347, 0.0202, 13.0847, -4.0927, 9.0524, -8.0444, 4.9395, -11.9153, 0.0202, -11.8347, -4.0121, -11.9556, -8.0040, -12.0363, -11.1895, -11.0685, -14.4960, -9.9798, -16.0282, -8.0847, -16.1895, -4.0524, -15.9476, -15.4637, -14.9798]
y: [2.5572, 2.5572, -3.2571, -3.4724, 2.1265, -4.1184, 1.9112, -3.9031, 1.9112, -2.8264, 3.7416, -0.8883, 6.2180, 1.1575, 9.7712, 3.6339, 13.5397, 7.7254, 18.7079, 13.5397, 23.8762, 18.3849, 27.5370, 23.8762, 27.7524, 27.6447, 25.7066, 31.9515, 23.8762, 32.3822, 21.9381, 32.3822, 21.6151, 30.1211, 21.5074, 28.3984, 23.4455, 26.6756, 25.9219, 26.2450, 27.5370, 25.5989, 22.4764, 27.6447, 16.9852, 29.7981, 11.9246, 31.8439, 7.9408, 31.3055, 3.9569, 27.8600, 1.8035, 21.9381, 1.6958, 16.4468, 11.4939, 7.7254]
colour: [ORANGE, ORANGE, ORANGE, ORANGE, BLUE, YELLOW, BLUE, YELLOW, BLUE, YELLOW, BLUE, YELLOW, BLUE, YELLOW, BLUE, YELLOW, BLUE, YELLOW, BLUE, YELLOW, BLUE, YELLOW, BLUE, YELLOW, BLUE, YELLOW, BLUE, YELLOW, BLUE, YELLOW, BLUE, YELLOW, BLUE, YELLOW, BLUE, YELLOW, BLUE, YELLOW, BLUE, YELLOW, BLUE, YELLOW, BLUE, YELLOW, BLUE, YELLOW, BLUE, YELLOW, BLUE, YELLOW, BLUE, YELLOW, BLUE, YELLOW, BLUE, YELLOW, YELLOW, YELLOW]
---
header:
  seq: 59
  stamp:
    secs: 0
    nsecs:         0
  frame_id: "map"
x: [6.2702, 6.7540, 6.7137, 6.1492, 2.0363, 1.9153, 10.0202, 10.0202, 15.0202, 15.0605, 19.9395, 19.9395, 24.0524, 24.0927, 25.9476, 26.1089, 25.9073, 30.0202, 25.8669, 29.9395, 25.7863, 29.8992, 24.8992, 29.9798, 20.5040, 29.1331, 16.8750, 26.7540, 13.0040, 24.4556, 9.1734, 20.4637, 4.9395, 16.8347, 0.0202, 13.0847, -4.0927, 9.0524, -8.0444, 4.9395, -11.9153, 0.0202, -11.8347, -4.0121, -11.9556, -8.0040, -12.0363, -11.1895, -11.0685, -14.4960, -9.9798, -16.0282, -8.0847, -16.1895, -4.0524, -15.9476, -15.4637, -14.9798, -14.0927]
y: [2.5572, 2.5572, -3.2571, -3.4724, 2.1265, -4.1184, 1.9112, -3.9031, 1.9112, -2.8264, 3.7416, -0.8883, 6.2180, 1.1575, 9.7712, 3.6339, 13.5397, 7.7254, 18.7079, 13.5397, 23.8762, 18.3849, 27.5370, 23.8762, 27.7524, 27.6447, 25.7066, 31.9515, 23.8762, 32.3822, 21.9381, 32.3822, 21.6151, 30.1211, 21.5074, 28.3984, 23.4455, 26.6756, 25.9219, 26.2450, 27.5370, 25.5989, 22.4764, 27.6447, 16.9852, 29.7981, 11.9246, 31.8439, 7.9408, 31.3055, 3.9569, 27.8600, 1.8035, 21.9381, 1.6958, 16.4468, 11.4939, 7.7254, 3.5262]
colour: [ORANGE, ORANGE, ORANGE, ORANGE, BLUE, YELLOW, BLUE, YELLOW, BLUE, YELLOW, BLUE, YELLOW, BLUE, YELLOW, BLUE, YELLOW, BLUE, YELLOW, BLUE, YELLOW, BLUE, YELLOW, BLUE, YELLOW, BLUE, YELLOW, BLUE, YELLOW, BLUE, YELLOW, BLUE, YELLOW, BLUE, YELLOW, BLUE, YELLOW, BLUE, YELLOW, BLUE, YELLOW, BLUE, YELLOW, BLUE, YELLOW, BLUE, YELLOW, BLUE, YELLOW, BLUE, YELLOW, BLUE, YELLOW, BLUE, YELLOW, BLUE, YELLOW, YELLOW, YELLOW, YELLOW]
---
header:
  seq: 60
  stamp:
    secs: 0
    nsecs:         0
  frame_id: "map"
x: [6.2702, 6.7540, 6.7137, 6.1492, 2.0363, 1.9153, 10.0202, 10.0202, 15.0202, 15.0605, 19.9395, 19.9395, 24.0524, 24.0927, 25.9476, 26.1089, 25.9073, 30.0202, 25.8669, 29.9395, 25.7863, 29.8992, 24.8992, 29.9798, 20.5040, 29.1331, 16.8750, 26.7540, 13.0040, 24.4556, 9.1734, 20.4637, 4.9395, 16.8347, 0.0202, 13.0847, -4.0927, 9.0524, -8.0444, 4.9395, -11.9153, 0.0202, -11.8347, -4.0121, -11.9556, -8.0040, -12.0363, -11.1895, -11.0685, -14.4960, -9.9798, -16.0282, -8.0847, -16.1895, -4.0524, -15.9476, -15.4637, -14.9798, -14.0927, -12.9234]
y: [2.5572, 2.5572, -3.2571, -3.4724, 2.1265, -4.1184, 1.9112, -3.9031, 1.9112, -2.8264, 3.7416, -0.8883, 6.2180, 1.1575, 9.7712, 3.6339, 13.5397, 7.7254, 18.7079, 13.5397, 23.8762, 18.3849, 27.5370, 23.8762, 27.7524, 27.6447, 25.7066, 31.9515, 23.8762, 32.3822, 21.9381, 32.3822, 21.6151, 30.1211, 21.5074, 28.3984, 23.4455, 26.6756, 25.9219, 26.2450, 27.5370, 25.5989, 22.4764, 27.6447, 16.9852, 29.7981, 11.9246, 31.8439, 7.9408, 31.3055, 3.9569, 27.8600, 1.8035, 21.9381, 1.6958, 16.4468, 11.4939, 7.7254, 3.5262, -2.0727]
colour: [ORANGE, ORANGE, ORANGE, ORANGE, BLUE, YELLOW, BLUE, YELLOW, BLUE, YELLOW, BLUE, YELLOW, BLUE, YELLOW, BLUE, YELLOW, BLUE, YELLOW, BLUE, YELLOW, BLUE, YELLOW, BLUE, YELLOW, BLUE, YELLOW, BLUE, YELLOW, BLUE, YELLOW, BLUE, YELLOW, BLUE, YELLOW, BLUE, YELLOW, BLUE, YELLOW, BLUE, YELLOW, BLUE, YELLOW, BLUE, YELLOW, BLUE, YELLOW, BLUE, YELLOW, BLUE, YELLOW, BLUE, YELLOW, BLUE, YELLOW, BLUE, YELLOW, YELLOW, YELLOW, YELLOW, YELLOW]
---
header:
  seq: 61
  stamp:
    secs: 0
    nsecs:         0
  frame_id: "map"
x: [6.2702, 6.7540, 6.7137, 6.1492, 2.0363, 1.9153, 10.0202, 10.0202, 15.0202, 15.0605, 19.9395, 19.9395, 24.0524, 24.0927, 25.9476, 26.1089, 25.9073, 30.0202, 25.8669, 29.9395, 25.7863, 29.8992, 24.8992, 29.9798, 20.5040, 29.1331, 16.8750, 26.7540, 13.0040, 24.4556, 9.1734, 20.4637, 4.9395, 16.8347, 0.0202, 13.0847, -4.0927, 9.0524, -8.0444, 4.9395, -11.9153, 0.0202, -11.8347, -4.0121, -11.9556, -8.0040, -12.0363, -11.1895, -11.0685, -14.4960, -9.9798, -16.0282, -8.0847, -16.1895, -4.0524, -15.9476, -15.4637, -14.9798, -14.0927, -12.9234, -11.4315]
y: [2.5572, 2.5572, -3.2571, -3.4724, 2.1265, -4.1184, 1.9112, -3.9031, 1.9112, -2.8264, 3.7416, -0.8883, 6.2180, 1.1575, 9.7712, 3.6339, 13.5397, 7.7254, 18.7079, 13.5397, 23.8762, 18.3849, 27.5370, 23.8762, 27.7524, 27.6447, 25.7066, 31.9515, 23.8762, 32.3822, 21.9381, 32.3822, 21.6151, 30.1211, 21.5074, 28.3984, 23.4455, 26.6756, 25.9219, 26.2450, 27.5370, 25.5989, 22.4764, 27.6447, 16.9852, 29.7981, 11.9246, 31.8439, 7.9408, 31.3055, 3.9569, 27.8600, 1.8035, 21.9381, 1.6958, 16.4468, 11.4939, 7.7254, 3.5262, -2.0727, -3.7954]
colour: [ORANGE, ORANGE, ORANGE, ORANGE, BLUE, YELLOW, BLUE, YELLOW, BLUE, YELLOW, BLUE, YELLOW, BLUE, YELLOW, BLUE, YELLOW, BLUE, YELLOW, BLUE, YELLOW, BLUE, YELLOW, BLUE, YELLOW, BLUE, YELLOW, BLUE, YELLOW, BLUE, YELLOW, BLUE, YELLOW, BLUE, YELLOW, BLUE, YELLOW, BLUE, YELLOW, BLUE, YELLOW, BLUE, YELLOW, BLUE, YELLOW, BLUE, YELLOW, BLUE, YELLOW, BLUE, YELLOW, BLUE, YELLOW, BLUE, YELLOW, BLUE, YELLOW, YELLOW, YELLOW, YELLOW, YELLOW, YELLOW]
---
header:
  seq: 62
  stamp:
    secs: 0
    nsecs:         0
  frame_id: "map"
x: [6.2702, 6.7540, 6.7137, 6.1492, 2.0363, 1.9153, 10.0202, 10.0202, 15.0202, 15.0605, 19.9395, 19.9395, 24.0524, 24.0927, 25.9476, 26.1089, 25.9073, 30.0202, 25.8669, 29.9395, 25.7863, 29.8992, 24.8992, 29.9798, 20.5040, 29.1331, 16.8750, 26.7540, 13.0040, 24.4556, 9.1734, 20.4637, 4.9395, 16.8347, 0.0202, 13.0847, -4.0927, 9.0524, -8.0444, 4.9395, -11.9153, 0.0202, -11.8347, -4.0121, -11.9556, -8.0040, -12.0363, -11.1895, -11.0685, -14.4960, -9.9798, -16.0282, -8.0847, -16.1895, -4.0524, -15.9476, -15.4637, -14.9798, -14.0927, -12.9234, -11.4315, -8.2056]
y: [2.5572, 2.5572, -3.2571, -3.4724, 2.1265, -4.1184, 1.9112, -3.9031, 1.9112, -2.8264, 3.7416, -0.8883, 6.2180, 1.1575, 9.7712, 3.6339, 13.5397, 7.7254, 18.7079, 13.5397, 23.8762, 18.3849, 27.5370, 23.8762, 27.7524, 27.6447, 25.7066, 31.9515, 23.8762, 32.3822, 21.9381, 32.3822, 21.6151, 30.1211, 21.5074, 28.3984, 23.4455, 26.6756, 25.9219, 26.2450, 27.5370, 25.5989, 22.4764, 27.6447, 16.9852, 29.7981, 11.9246, 31.8439, 7.9408, 31.3055, 3.9569, 27.8600, 1.8035, 21.9381, 1.6958, 16.4468, 11.4939, 7.7254, 3.5262, -2.0727, -3.7954, -3.7954]
colour: [ORANGE, ORANGE, ORANGE, ORANGE, BLUE, YELLOW, BLUE, YELLOW, BLUE, YELLOW, BLUE, YELLOW, BLUE, YELLOW, BLUE, YELLOW, BLUE, YELLOW, BLUE, YELLOW, BLUE, YELLOW, BLUE, YELLOW, BLUE, YELLOW, BLUE, YELLOW, BLUE, YELLOW, BLUE, YELLOW, BLUE, YELLOW, BLUE, YELLOW, BLUE, YELLOW, BLUE, YELLOW, BLUE, YELLOW, BLUE, YELLOW, BLUE, YELLOW, BLUE, YELLOW, BLUE, YELLOW, BLUE, YELLOW, BLUE, YELLOW, BLUE, YELLOW, YELLOW, YELLOW, YELLOW, YELLOW, YELLOW, YELLOW]
---
header:
  seq: 63
  stamp:
    secs: 0
    nsecs:         0
  frame_id: "map"
x: [6.2702, 6.7540, 6.7137, 6.1492, 2.0363, 1.9153, 10.0202, 10.0202, 15.0202, 15.0605, 19.9395, 19.9395, 24.0524, 24.0927, 25.9476, 26.1089, 25.9073, 30.0202, 25.8669, 29.9395, 25.7863, 29.8992, 24.8992, 29.9798, 20.5040, 29.1331, 16.8750, 26.7540, 13.0040, 24.4556, 9.1734, 20.4637, 4.9395, 16.8347, 0.0202, 13.0847, -4.0927, 9.0524, -8.0444, 4.9395, -11.9153, 0.0202, -11.8347, -4.0121, -11.9556, -8.0040, -12.0363, -11.1895, -11.0685, -14.4960, -9.9798, -16.0282, -8.0847, -16.1895, -4.0524, -15.9476, -15.4637, -14.9798, -14.0927, -12.9234, -11.4315, -8.2056, -3.9718]
y: [2.5572, 2.5572, -3.2571, -3.4724, 2.1265, -4.1184, 1.9112, -3.9031, 1.9112, -2.8264, 3.7416, -0.8883, 6.2180, 1.1575, 9.7712, 3.6339, 13.5397, 7.7254, 18.7079, 13.5397, 23.8762, 18.3849, 27.5370, 23.8762, 27.7524, 27.6447, 25.7066, 31.9515, 23.8762, 32.3822, 21.9381, 32.3822, 21.6151, 30.1211, 21.5074, 28.3984, 23.4455, 26.6756, 25.9219, 26.2450, 27.5370, 25.5989, 22.4764, 27.6447, 16.9852, 29.7981, 11.9246, 31.8439, 7.9408, 31.3055, 3.9569, 27.8600, 1.8035, 21.9381, 1.6958, 16.4468, 11.4939, 7.7254, 3.5262, -2.0727, -3.7954, -3.7954, -2.6110]
colour: [ORANGE, ORANGE, ORANGE, ORANGE, BLUE, YELLOW, BLUE, YELLOW, BLUE, YELLOW, BLUE, YELLOW, BLUE, YELLOW, BLUE, YELLOW, BLUE, YELLOW, BLUE, YELLOW, BLUE, YELLOW, BLUE, YELLOW, BLUE, YELLOW, BLUE, YELLOW, BLUE, YELLOW, BLUE, YELLOW, BLUE, YELLOW, BLUE, YELLOW, BLUE, YELLOW, BLUE, YELLOW, BLUE, YELLOW, BLUE, YELLOW, BLUE, YELLOW, BLUE, YELLOW, BLUE, YELLOW, BLUE, YELLOW, BLUE, YELLOW, BLUE, YELLOW, YELLOW, YELLOW, YELLOW, YELLOW, YELLOW, YELLOW, YELLOW]
---
